"DIVIPOLA","City_Municipality","ID_Deparment","Department","Latitude","Longitude","03/16/2020","03/22/2020","03/23/2020","03/24/2020","03/25/2020","03/26/2020","03/27/2020","03/28/2020","03/29/2020","03/30/2020","03/31/2020","04/01/2020","04/02/2020","04/03/2020","04/04/2020","04/05/2020","04/06/2020","04/07/2020","04/08/2020","04/09/2020","04/10/2020","04/11/2020","04/12/2020","04/13/2020","04/14/2020","04/15/2020","04/16/2020","04/17/2020","04/18/2020","04/19/2020","04/20/2020","04/21/2020","04/22/2020","04/23/2020","04/24/2020","04/25/2020","04/26/2020","04/27/2020","04/28/2020","04/29/2020","04/30/2020","05/01/2020","05/02/2020","05/03/2020","05/04/2020","05/05/2020","05/06/2020","05/07/2020","05/08/2020","05/09/2020","05/10/2020","05/11/2020"
"5001","Medellin","5","Antioquia","5.610109776","-74.88681663","0","0","0","0","0","0","0","0","0","0","0","0","0","1","1","1","1","1","1","1","1","1","1","1","1","1","1","1","2","2","2","2","2","2","2","2","2","3","3","3","3","3","3","3","3","3","3","3","3","3","3","3"
"5088","Bello","5","Antioquia","6.334068836","-75.55466507","0","0","0","0","0","0","0","0","0","0","0","0","0","0","0","0","0","0","0","0","0","0","0","0","0","0","0","0","1","1","1","1","1","1","1","1","1","1","1","1","1","1","1","1","1","1","1","1","1","1","1","1"
"5313","Granada","5","Antioquia","6.142896667","-75.18444508","0","0","0","0","0","0","0","0","0","0","0","0","0","0","0","0","0","0","0","0","0","0","0","0","0","0","0","0","0","0","0","0","0","0","0","0","0","0","0","0","0","0","1","1","1","1","1","1","1","1","1","1"
"5652","San Francisco","5","Antioquia","5.964079131","-75.10268697","0","0","0","0","0","0","0","0","0","0","0","0","0","0","0","0","0","0","0","0","0","0","0","0","0","0","0","0","0","0","0","0","0","0","1","1","1","1","1","1","1","1","1","1","1","1","1","1","1","1","1","1"
"8001","Barranquilla","8","Atlantico","10.97592682","-74.79525905","0","0","0","0","0","0","0","0","0","0","0","0","1","2","2","2","2","2","2","3","3","3","3","3","3","3","3","3","3","3","4","4","5","5","5","8","8","8","8","8","12","14","16","18","19","22","23","23","24","24","24","24"
"8433","Malambo","8","Atlantico","10.85628724","-74.77424057","0","0","0","0","0","0","0","0","0","0","0","0","0","0","0","0","0","0","0","0","0","0","0","0","0","0","0","0","0","0","0","0","0","0","0","0","0","0","0","1","1","1","2","2","2","2","4","4","4","4","4","4"
"8573","Puerto Colombia","8","Atlantico","11.02294005","-74.85196357","0","0","0","0","0","0","0","0","0","0","0","0","0","0","0","0","0","0","0","0","0","0","0","0","0","0","0","0","0","0","0","0","0","0","0","0","0","0","0","0","0","0","1","1","1","1","1","1","1","1","1","1"
"8675","Santa Lucia","8","Atlantico","10.32327321","-74.95897145","0","0","0","0","0","0","0","0","0","0","0","0","0","0","0","0","0","0","0","0","0","0","0","0","0","0","0","0","0","0","0","0","0","0","0","0","0","0","0","0","0","0","0","0","0","1","1","1","1","1","1","1"
"8685","Santo Tomas","8","Atlantico","10.75605629","-74.75411186","0","0","0","0","0","0","0","0","0","0","0","0","0","0","0","0","0","0","0","0","0","0","0","0","0","0","0","0","0","0","0","0","0","0","0","0","0","0","0","0","0","0","1","1","1","1","1","1","1","1","1","1"
"8758","Soledad","8","Atlantico","10.91017447","-74.78483338","0","0","0","0","0","0","1","1","1","1","1","1","1","2","2","2","2","2","2","2","2","2","2","2","2","2","2","2","2","2","2","2","2","2","3","3","4","5","5","6","7","7","8","8","8","8","8","9","9","10","10","10"
"11001","Bogota D.C.","11","Bogota D.C.","4.65017303","-74.107359","0","0","0","0","1","3","3","6","7","8","10","11","15","19","29","33","39","43","45","48","50","54","55","59","65","68","72","74","76","80","82","86","86","88","92","93","99","102","107","111","116","119","122","125","129","130","135","137","140","145","149","149"
"13001","Cartagena de Indias","19","Bolivar","10.38498552","-75.49643103","1","1","1","1","1","1","2","2","2","4","5","5","5","5","5","5","6","6","6","7","8","9","10","11","11","11","13","13","14","14","15","15","16","17","18","19","19","21","21","22","25","27","28","32","34","36","39","43","44","45","46","47"
"13074","Barranco de Loba","19","Bolivar","8.947730158","-74.10522428","0","0","0","0","0","0","0","0","0","0","0","0","0","0","0","0","0","0","0","0","0","0","0","0","0","0","1","1","1","1","1","1","1","1","1","1","1","1","1","1","1","1","1","1","1","1","1","1","1","1","1","1"
"13140","Calamar","19","Bolivar","10.25196336","-74.91362928","0","0","0","0","0","0","0","0","0","0","0","0","0","0","0","0","0","0","0","0","0","0","0","0","0","0","0","0","0","0","0","0","0","1","1","1","1","1","1","1","1","1","1","1","1","1","1","1","1","1","1","1"
"13836","Turbaco","19","Bolivar","10.33276916","-75.42440917","0","0","0","0","0","0","0","0","0","0","0","0","0","0","0","1","1","1","1","1","1","1","1","1","1","1","1","1","1","1","1","1","1","1","1","1","1","1","1","1","1","1","1","1","1","1","1","1","1","1","1","1"
"15001","Tunja","15","Boyaca","5.539953238","-73.35548873","0","0","0","0","0","0","0","0","0","0","0","0","0","0","1","1","1","1","1","1","1","1","1","1","1","1","1","1","1","1","1","1","1","1","1","1","1","1","1","1","1","1","1","1","1","1","1","1","1","1","1","1"
"15299","Garagoa","15","Boyaca","5.083243463","-73.36442756","0","0","0","0","0","0","0","0","0","0","0","0","0","0","0","0","0","0","0","0","0","0","0","0","0","0","0","0","0","0","0","0","0","0","0","0","0","0","0","1","1","1","1","1","1","1","1","1","1","1","1","1"
"15646","Samaca","15","Boyaca","5.492314591","-73.48564359","0","0","0","0","0","0","0","0","0","0","0","0","0","0","0","0","0","0","0","0","0","0","0","0","0","0","0","0","0","0","0","0","0","0","0","0","0","0","0","1","1","1","1","1","1","1","1","1","1","1","1","1"
"17001","Manizales","5","Caldas","5.057688197","-75.49104898","0","0","0","0","0","0","0","0","0","0","0","0","0","0","0","0","0","0","0","0","0","0","0","0","0","0","0","0","0","0","0","0","0","0","0","0","0","0","0","0","0","0","0","1","1","1","1","1","1","1","1","1"
"17380","La Dorada","5","Caldas","5.444406098","-74.65820562","0","0","0","0","0","0","0","0","0","0","0","1","1","1","1","1","1","1","1","1","1","2","2","2","2","2","2","2","2","2","2","2","2","2","2","2","2","2","2","2","2","2","2","2","2","2","2","2","2","2","2","2"
"17495","Norcasia","5","Caldas","5.574795393","-74.88954408","0","0","0","0","0","0","0","0","0","0","0","0","0","0","0","0","0","0","0","0","0","0","0","0","0","0","0","0","0","0","0","0","0","0","0","0","0","0","0","0","0","0","0","0","0","0","0","0","1","1","1","1"
"18001","Florencia","18","Caqueta","1.61792293","-75.60856043","0","0","0","0","0","0","0","0","0","0","0","0","0","0","0","0","0","0","0","0","0","0","0","0","0","1","1","1","1","1","1","1","1","1","1","1","1","1","1","1","1","1","1","1","1","1","1","1","1","1","1","1"
"19001","Popayan","47","Cauca","2.482503391","-76.57406468","0","0","0","1","1","1","1","1","1","1","1","1","1","1","1","1","1","1","1","1","1","1","1","1","1","1","1","1","1","1","1","1","1","1","1","1","1","1","1","1","1","1","1","1","1","1","1","1","1","1","1","1"
"19455","Miranda","47","Cauca","3.253095405","-76.22886987","0","0","0","0","0","0","0","0","0","0","0","0","0","0","0","0","0","0","0","0","1","1","1","1","1","1","1","1","1","1","1","1","1","1","1","1","1","1","1","1","1","1","1","1","1","1","1","1","1","1","1","1"
"19698","Santander de Quilichao","47","Cauca","3.016053901","-76.48537029","0","0","0","0","0","0","0","0","0","0","1","1","1","1","1","1","1","1","1","1","1","1","1","1","1","1","1","1","1","1","1","1","1","1","1","1","1","1","1","1","1","1","1","1","1","1","1","1","1","1","1","1"
"19845","Villa rica","47","Cauca","3.177577926","-76.45787266","0","0","0","0","0","0","0","0","0","0","0","0","0","0","0","0","0","0","0","0","0","0","0","0","0","0","0","0","0","0","0","0","0","0","1","1","1","1","1","1","1","1","1","1","1","1","1","1","1","1","1","1"
"20001","Valledupar","20","Cesar","10.46048122","-73.25938931","0","0","0","0","0","0","0","0","0","0","0","0","0","0","0","0","0","0","0","0","0","0","0","0","0","0","0","0","0","0","0","1","3","3","4","4","4","4","4","4","4","4","4","5","5","6","6","6","6","6","6","6"
"20011","Aguachica","20","Cesar","8.310336958","-73.59902859","0","0","0","0","0","0","0","0","0","0","0","0","0","0","0","0","0","0","0","0","0","0","0","0","0","0","0","0","0","0","0","0","0","0","0","0","0","0","0","0","0","0","0","0","0","0","0","1","1","1","1","1"
"20614","Rio de Oro","20","Cesar","8.292287384","-73.3863952","0","0","0","0","0","0","0","0","0","0","0","0","0","0","0","0","0","0","0","0","0","0","0","0","0","0","1","1","1","1","1","1","1","1","2","2","2","2","2","2","2","2","2","2","2","2","2","2","2","2","2","2"
"20770","San Martin","20","Cesar","7.999895459","-73.51097518","0","0","0","0","0","0","0","0","0","0","0","0","0","0","0","0","0","0","0","0","0","0","0","0","0","0","0","0","0","0","0","0","0","0","0","0","0","1","1","1","1","1","1","2","2","2","2","2","2","2","2","2"
"23001","Monteria","5","Cordoba","8.745132591","-75.87557791","0","0","0","0","0","0","0","0","0","0","0","0","0","1","1","1","1","1","1","1","1","1","1","1","1","1","1","1","1","1","1","1","1","1","1","1","1","1","1","1","1","1","1","1","1","1","1","1","1","1","1","1"
"23189","Cienaga de Oro","5","Cordoba","8.875502246","-75.62078664","0","0","0","0","0","0","0","0","0","0","0","0","1","1","1","1","1","1","1","1","1","1","1","1","1","1","1","1","1","1","1","1","1","1","1","1","1","1","1","1","1","1","1","1","1","1","1","1","1","1","1","1"
"23417","Lorica","5","Cordoba","9.240855143","-75.8159954","0","0","0","0","0","0","0","0","0","0","0","0","0","0","0","0","0","0","0","0","0","0","0","0","0","0","0","0","0","0","0","0","0","1","1","1","1","1","1","1","1","1","1","1","1","1","1","1","1","1","1","1"
"25001","Agua de dios","47","Cundinamarca","4.375312017","-74.66921778","0","0","0","0","0","0","0","0","0","0","0","0","0","0","0","0","0","0","0","0","0","0","0","0","0","0","0","0","0","0","0","1","1","1","1","1","1","1","1","1","1","1","1","1","1","1","1","1","1","1","1","1"
"25175","Chia","47","Cundinamarca","4.866065424","-74.05034682","0","0","0","0","0","0","0","0","0","0","0","0","0","0","0","0","0","0","0","0","0","0","0","0","0","0","0","0","0","0","0","1","1","1","1","1","1","1","1","1","1","1","1","1","1","1","1","1","1","1","1","1"
"25513","Pacho","47","Cundinamarca","5.136942297","-74.15611662","0","0","0","0","0","0","0","0","0","0","0","0","0","0","0","0","0","0","0","0","0","0","0","0","0","0","0","0","0","0","0","0","0","0","0","1","1","1","1","1","1","1","1","1","1","1","1","1","1","1","1","1"
"25754","Soacha","47","Cundinamarca","4.585491658","-74.21452753","0","0","0","0","0","0","0","0","0","0","0","0","0","0","0","0","0","0","0","0","1","1","1","1","1","1","1","2","2","2","2","3","3","3","3","3","4","4","4","4","4","4","4","4","4","4","4","4","4","4","4","4"
"25772","Suesca","47","Cundinamarca","5.103516839","-73.79828978","0","0","0","0","0","0","0","0","0","0","0","0","0","0","0","0","0","0","0","1","1","1","1","1","1","1","1","1","1","1","1","1","1","1","1","1","1","1","1","1","1","1","1","1","1","1","1","1","1","1","1","1"
"25799","Tenjo","47","Cundinamarca","4.871960537","-74.14395621","0","0","0","0","0","0","0","0","0","0","0","0","0","1","1","1","1","1","1","1","1","1","1","1","1","1","2","2","2","2","2","2","2","2","2","2","2","2","2","2","2","2","2","2","2","2","2","2","2","2","2","2"
"25873","Villapinzon","47","Cundinamarca","5.216438372","-73.59535467","0","0","0","0","0","0","0","0","0","0","0","0","0","2","2","2","2","2","2","2","2","2","2","2","2","2","2","2","2","2","2","2","2","2","2","2","2","2","2","2","2","2","2","2","2","2","2","2","2","2","2","2"
"25899","Zipaquira","47","Cundinamarca","5.025471685","-73.99447124","0","0","0","0","0","0","0","0","0","0","0","1","1","1","1","1","1","1","1","1","1","1","1","1","1","1","1","1","1","1","1","1","1","1","2","2","2","2","2","2","2","2","2","2","2","2","2","2","2","2","2","2"
"27001","Quibdo","27","Choco","5.692195187","-76.62596936","0","0","0","0","0","0","0","0","0","0","0","0","0","0","0","0","0","0","0","0","0","0","0","0","0","0","0","0","0","0","0","0","0","0","0","1","1","1","1","1","2","2","3","3","3","3","3","3","3","3","3","3"
"41001","Neiva","41","Huila","2.935604415","-75.27772259","0","0","0","0","1","1","1","1","1","1","1","1","1","1","1","1","2","2","2","3","3","3","3","3","3","3","3","3","3","3","3","3","3","3","3","4","5","5","5","5","5","5","5","5","5","5","5","5","5","5","5","5"
"41359","Isnos","41","Huila","1.92946706","-76.21763745","0","0","0","0","0","0","0","0","0","0","0","0","0","0","0","0","0","0","0","0","0","0","0","1","1","1","1","1","1","1","1","1","1","1","1","1","1","1","1","1","1","1","1","1","2","2","2","2","2","2","2","2"
"41807","Timana","41","Huila","1.974224443","-75.932087","0","0","0","0","0","0","0","0","0","0","0","0","0","0","0","0","0","0","0","0","0","0","0","0","1","1","1","1","1","1","1","1","1","1","1","1","1","1","1","1","1","1","1","1","1","1","1","1","1","1","1","1"
"44001","Riohacha","44","La Guajira","11.52875138","-72.91148891","0","0","0","0","0","0","0","0","0","0","0","0","0","0","0","0","0","0","0","0","0","0","0","0","0","0","0","0","0","0","1","1","1","1","1","1","1","1","1","1","1","1","1","1","1","1","1","1","1","1","1","1"
"44430","Maicao","44","La Guajira","11.37832678","-72.24190502","0","0","0","0","0","0","0","0","0","0","0","0","0","0","0","0","0","0","0","0","0","0","0","0","0","0","0","0","0","0","0","0","0","0","0","0","0","0","0","0","0","0","0","0","0","0","1","1","1","1","1","1"
"44650","San Juan del Cesar","44","La Guajira","10.76957868","-73.00059321","0","0","0","0","0","0","0","0","0","0","0","0","0","0","0","0","0","0","0","0","0","0","0","0","0","0","0","0","0","0","0","0","0","0","0","0","0","0","0","0","0","0","0","1","1","1","1","1","1","1","1","1"
"47001","Santa Marta","47","Magdalena","11.2294335","-74.19089412","0","0","1","1","1","1","1","2","2","2","2","2","2","2","2","3","3","4","5","6","6","6","8","8","8","8","8","8","10","10","10","10","11","12","12","12","14","14","14","14","14","14","14","14","16","17","17","17","17","17","17","17"
"47189","Cienaga","47","Magdalena","11.00665688","-74.24128616","0","0","0","0","0","0","0","0","0","0","0","0","0","0","0","0","0","0","0","0","0","0","0","0","0","0","0","0","0","0","0","0","0","0","0","0","1","1","1","1","1","1","1","2","2","2","2","2","3","3","3","3"
"47245","El Banco","47","Magdalena","9.008733009","-73.97428121","0","0","0","0","0","0","0","0","0","0","0","0","0","0","0","0","0","0","0","0","0","0","0","0","1","1","1","1","1","1","1","1","1","1","1","1","1","1","1","1","1","1","1","1","1","1","1","1","1","1","1","1"
"47570","Puebloviejo","47","Magdalena","10.99482965","-74.28248423","0","0","0","0","0","0","0","0","0","0","0","0","0","0","0","0","0","0","0","0","0","0","0","0","0","0","0","0","0","0","0","0","0","0","0","1","1","1","2","2","2","2","2","2","2","2","2","2","2","2","2","2"
"47980","Zona Bananera","47","Magdalena","10.76302682","-74.14008184","0","0","0","0","0","0","0","0","0","0","0","0","0","0","0","1","1","1","1","1","1","1","1","1","1","1","1","1","1","1","1","1","1","1","1","1","1","1","1","1","1","1","1","1","1","1","1","1","1","1","1","1"
"50001","Villavicencio","50","Meta","4.1238615","-73.62709204","0","0","0","0","0","0","0","0","0","0","0","0","0","0","0","1","2","3","3","3","3","3","3","3","3","3","4","4","4","4","4","4","4","4","4","4","4","4","4","4","5","6","6","6","6","6","6","6","6","6","6","6"
"52001","Pasto","5","Narino","1.212124365","-77.27857635","0","0","0","0","0","0","0","0","0","0","0","0","0","0","0","0","0","1","1","1","1","1","1","1","2","2","2","2","2","2","2","2","2","2","2","2","2","2","2","2","2","2","2","2","3","3","3","3","4","4","4","4"
"52356","Ipiales","5","Narino","0.827734241","-77.64640075","0","0","0","0","0","0","0","0","0","0","0","0","0","0","0","0","0","0","0","1","1","2","2","2","2","2","2","2","3","3","3","3","3","3","3","3","3","3","3","3","3","3","3","3","3","3","3","3","3","3","3","3"
"52427","Magui","5","Narino","1.765313671","-78.18106078","0","0","0","0","0","0","0","0","0","0","0","0","0","0","0","0","0","0","0","0","0","0","0","0","0","0","0","0","0","0","0","0","0","0","0","0","0","0","0","0","0","0","0","0","0","0","0","0","1","1","1","1"
"52835","San Andres de Tumaco","5","Narino","1.80711725","-78.76385415","0","0","0","0","0","0","0","0","0","0","0","0","0","0","0","0","0","0","0","0","0","0","0","0","0","1","1","1","1","1","1","1","1","1","1","1","2","2","2","3","3","3","3","3","4","4","4","5","6","6","6","6"
"52838","Tuquerres","5","Narino","1.085193359","-77.61688638","0","0","0","0","0","0","0","0","0","0","0","0","0","0","0","0","0","0","0","0","0","0","0","0","0","0","0","0","0","0","0","0","0","0","0","0","0","0","1","1","1","1","1","1","1","1","1","1","1","1","1","1"
"54001","Cucuta","54","Norte de Santander","7.905306295","-72.5082562","0","0","0","0","0","0","1","1","1","1","1","1","1","1","1","1","2","2","3","3","3","3","3","3","3","3","3","3","3","3","3","3","3","3","4","4","5","5","5","6","6","6","6","7","7","7","7","8","8","8","8","8"
"54498","Ocana","54","Norte de Santander","8.247453792","-73.3558144","0","0","0","0","0","0","0","1","1","1","1","1","1","1","1","1","1","1","1","1","1","1","1","1","1","1","1","1","1","1","1","1","1","1","1","1","2","2","2","2","2","2","2","2","2","2","2","2","2","2","2","2"
"63001","Armenia","63","Quindio","4.535989502","-75.68075076","0","0","0","0","0","0","0","0","0","0","0","0","0","0","1","1","1","1","1","1","1","1","1","1","1","1","1","1","1","1","1","1","1","1","1","1","1","1","1","1","1","1","1","1","1","1","1","1","1","1","1","1"
"63470","Montenegro","63","Quindio","4.562959743","-75.75181224","0","0","0","0","0","0","0","0","0","0","0","0","0","1","1","1","1","1","1","1","1","1","1","1","1","1","1","1","1","1","1","1","1","1","1","1","1","1","1","1","1","1","1","1","1","1","1","1","1","1","1","1"
"66001","Pereira","17","Risaralda","4.805680265","-75.71712306","0","0","0","0","0","0","0","0","0","1","1","2","2","2","2","2","2","2","2","2","2","2","2","2","2","2","3","3","4","4","4","4","4","4","4","4","5","5","5","6","6","6","7","7","7","7","7","7","7","7","7","7"
"66170","Dosquebradas","17","Risaralda","4.827187832","-75.68246912","0","0","0","0","0","0","0","0","0","0","0","0","0","0","0","0","0","0","0","0","0","0","0","0","0","1","1","1","1","1","1","1","1","1","1","1","1","1","1","1","1","1","1","1","1","1","1","1","1","1","1","1"
"68001","Bucaramanga","23","Santander","7.116267276","-73.13259818","0","0","0","0","0","0","0","0","0","0","0","0","0","0","0","0","0","0","0","0","0","0","0","0","0","0","0","1","1","1","1","1","1","1","1","1","1","1","1","1","1","1","1","1","1","1","1","1","1","1","1","1"
"68081","Barrancabermeja","23","Santander","7.064963864","-73.84995698","0","0","0","0","0","0","0","0","0","0","0","0","0","0","0","0","0","1","1","1","1","1","1","1","1","1","1","1","1","1","1","1","1","1","1","1","1","1","1","1","1","1","1","1","1","1","1","1","1","1","1","1"
"68276","Floridablanca","23","Santander","7.072360403","-73.09903262","0","0","0","0","0","0","0","0","0","0","0","0","0","0","0","0","0","0","0","0","0","0","0","0","0","0","0","0","0","0","0","0","0","0","0","1","1","1","1","1","1","1","1","1","1","1","1","1","1","1","1","1"
"73001","Ibague","23","Tolima","4.439608991","-75.19371478","0","0","0","0","0","0","0","0","0","0","0","0","0","0","0","0","0","0","0","0","0","0","1","1","1","1","1","1","1","1","1","1","1","1","1","1","1","1","1","1","1","1","2","2","2","3","3","3","3","3","3","3"
"73268","Espinal","23","Tolima","4.151314221","-74.88544976","0","0","0","0","0","0","0","0","0","0","0","0","0","0","0","0","0","0","0","0","0","1","1","1","1","1","1","1","1","1","1","1","1","1","1","1","1","1","1","1","1","1","1","1","1","1","1","1","1","1","1","1"
"73449","Melgar","23","Tolima","4.208154892","-74.6298504","0","0","0","0","0","0","0","0","0","0","0","0","0","0","0","0","0","0","0","0","0","0","0","0","0","0","0","0","0","0","0","0","0","0","0","0","0","0","0","1","1","2","2","2","2","2","2","2","2","2","2","2"
"76001","Cali","76","Valle del Cauca","3.414414305","-76.52156515","0","1","1","1","3","3","3","3","3","4","5","5","5","6","9","9","11","11","11","12","12","12","16","17","19","23","27","28","31","34","36","37","39","41","41","41","42","44","45","48","48","48","49","49","52","52","55","57","58","59","60","61"
"76020","Alcala","76","Valle del Cauca","4.674989542","-75.77981387","0","0","0","0","0","0","0","0","0","0","0","0","0","0","0","0","0","0","0","0","0","0","0","0","0","0","0","0","0","0","0","0","1","1","1","1","1","1","1","1","1","1","1","1","1","1","1","1","1","1","1","1"
"76109","Buenaventura","76","Valle del Cauca","3.875802437","-77.0117402","0","0","0","0","0","0","0","0","0","0","0","0","0","0","0","0","0","0","0","0","0","0","1","1","1","1","1","1","1","1","1","1","1","1","1","1","1","1","2","2","2","2","2","3","4","4","4","4","4","4","4","4"
"76233","Dagua","76","Valle del Cauca","3.657308485","-76.68887101","0","0","0","0","0","0","0","0","0","0","0","0","0","0","0","0","0","0","0","0","0","0","0","0","0","0","0","0","0","0","0","0","0","0","0","0","0","0","0","0","0","0","0","0","0","0","0","0","0","1","1","1"
"76248","El Cerrito","76","Valle del Cauca","3.684258941","-76.31172554","0","0","0","0","0","0","0","0","0","0","0","0","0","0","0","0","0","0","0","0","0","0","0","0","0","0","1","1","1","1","1","1","1","1","1","1","1","1","1","1","1","1","1","1","1","1","1","1","1","1","1","1"
"76250","El Dovio","76","Valle del Cauca","4.510452885","-76.23708411","0","0","0","0","0","0","0","0","0","0","0","0","0","0","0","0","0","0","0","0","0","0","1","1","1","1","1","1","1","1","1","1","1","1","1","1","1","1","1","1","1","1","1","1","1","1","1","1","1","1","1","1"
"76275","Florida","76","Valle del Cauca","3.323918106","-76.23450174","0","0","0","0","0","0","0","0","0","0","0","0","0","0","0","0","0","0","0","0","0","0","0","0","0","0","0","0","0","0","0","0","0","0","0","0","0","0","0","0","0","1","1","1","1","1","1","1","1","1","1","1"
"76306","Ginebra","76","Valle del Cauca","3.724181147","-76.26806789","0","0","0","0","0","0","0","0","0","0","0","0","0","0","0","0","0","0","0","0","0","0","1","1","1","1","1","1","1","1","1","1","1","1","1","1","1","1","1","1","1","1","1","1","1","1","1","1","1","1","1","1"
"76364","Jamundi","76","Valle del Cauca","3.26227576","-76.54245873","0","0","0","0","0","0","0","0","0","0","0","0","0","0","0","0","0","0","0","1","1","1","1","1","1","1","1","1","1","1","1","1","1","1","1","1","1","1","1","1","1","1","1","1","1","1","1","1","1","1","1","1"
"76520","Palmira","76","Valle del Cauca","3.532349153","-76.29858255","0","0","0","0","0","0","0","0","0","0","0","0","0","0","0","0","0","0","0","1","1","1","1","1","1","3","3","3","3","4","4","4","4","4","4","4","4","4","4","4","4","4","4","4","4","4","4","4","4","4","4","4"
"76622","Roldanillo","76","Valle del Cauca","4.4135962","-76.15228663","0","0","0","0","0","0","0","0","0","0","0","0","0","0","0","0","0","0","0","0","0","0","0","0","0","0","0","0","0","0","0","0","0","0","0","0","0","1","1","1","1","1","1","1","1","1","1","1","1","1","1","1"
"76834","Tulua","76","Valle del Cauca","4.085261239","-76.19769968","0","0","0","0","0","0","0","0","0","0","0","0","0","0","0","0","0","0","0","0","0","0","0","0","0","0","0","0","0","0","0","0","0","0","0","0","1","1","1","1","1","1","2","2","3","3","3","3","3","3","3","3"
"91001","Leticia","91","Amazonas","-4.199836935","-69.94142671","0","0","0","0","0","0","0","0","0","0","0","0","0","0","0","0","0","0","0","0","0","0","0","0","0","0","0","0","0","0","0","0","0","2","3","3","4","4","6","9","14","14","15","15","15","17","20","24","25","25","25","25"
"91540","Puerto Narino","91","Amazonas","-3.780447632","-70.36451835","0","0","0","0","0","0","0","0","0","0","0","0","0","0","0","0","0","0","0","0","0","0","0","0","0","0","0","0","0","0","0","0","0","0","0","0","0","0","0","0","0","0","0","0","0","0","1","1","1","1","1","1"
