"City_Municipality","Department","Latitude","Longitude","03/16/2020","03/22/2020","03/23/2020","03/24/2020","03/25/2020","03/26/2020","03/27/2020","03/28/2020","03/29/2020","03/30/2020","03/31/2020","04/01/2020","04/02/2020","04/03/2020","04/04/2020","04/05/2020","04/06/2020","04/07/2020","04/08/2020","04/09/2020","04/10/2020","04/11/2020","04/12/2020","04/13/2020","04/14/2020","04/15/2020","04/16/2020","04/17/2020","04/18/2020","04/19/2020","04/20/2020","04/21/2020","04/22/2020","04/23/2020","04/24/2020","04/25/2020","04/26/2020","04/27/2020","04/28/2020","04/29/2020","04/30/2020","05/01/2020"
"Armenia","Quindio","4.53598950231","-75.6807507586","0","0","0","0","0","0","0","0","0","0","0","0","0","0","1","1","1","1","1","1","1","1","1","1","1","1","1","1","1","1","1","1","1","1","1","1","1","1","1","1","1","1"
"Barrancabermeja","Santander","7.06496386399","-73.8499569753","0","0","0","0","0","0","0","0","0","0","0","0","0","0","0","0","0","1","1","1","1","1","1","1","1","1","1","1","1","1","1","1","1","1","1","1","1","1","1","1","1","1"
"Barranco de Loba","Bolívar","8.94773015812","-74.1052242834","0","0","0","0","0","0","0","0","0","0","0","0","0","0","0","0","0","0","0","0","0","0","0","0","0","0","1","1","1","1","1","1","1","1","1","1","1","1","1","1","1","1"
"Barranquilla","Atlántico","10.9759268186","-74.7952590482","0","0","0","0","0","0","0","0","0","0","0","0","1","2","2","2","2","2","2","3","3","3","3","3","3","3","3","3","3","3","4","4","5","5","5","7","7","7","7","7","7","7"
"Bello","Antioquia","6.33406883641","-75.554665073","0","0","0","0","0","0","0","0","0","0","0","0","0","0","0","0","0","0","0","0","0","0","0","0","0","0","0","0","1","1","1","1","1","1","1","1","1","1","1","1","1","1"
"Bogotá D.C.","Bogotá D.C.","4.65017303026","-74.1073590032","0","0","0","0","1","3","3","6","7","8","10","11","15","19","29","33","39","43","45","48","50","54","55","59","65","68","72","74","76","80","82","86","87","89","92","93","98","99","103","106","108","108"
"Bucaramanga","Santander","7.11626727561","-73.1325981781","0","0","0","0","0","0","0","0","0","0","0","0","0","0","0","0","0","0","0","0","0","0","0","0","0","0","0","1","1","1","1","1","1","1","1","1","1","1","1","1","1","1"
"Buenaventura","Valle del Cauca","3.87580243673","-77.0117402003","0","0","0","0","0","0","0","0","0","0","0","0","0","0","0","0","0","0","0","0","0","0","1","1","1","1","1","1","1","1","1","1","1","1","1","1","1","1","2","2","2","2"
"Calamar","Bolívar","10.2519633588","-74.9136292818","0","0","0","0","0","0","0","0","0","0","0","0","0","0","0","0","0","0","0","0","0","0","0","0","0","0","0","0","0","0","0","0","0","1","1","1","1","1","1","1","1","1"
"Calarcá","Quindio","4.51528184598","-75.6490883624","0","0","0","0","0","0","0","0","0","0","0","0","0","0","0","0","0","0","0","0","0","0","0","0","0","0","0","0","0","0","0","0","1","1","1","1","1","1","1","1","1","1"
"Cali","Valle del Cauca","3.41441430458","-76.5215651508","0","1","1","1","3","3","3","3","3","4","5","5","5","6","9","9","11","11","11","12","12","12","16","17","19","23","27","28","31","34","36","37","39","41","41","41","42","44","45","48","48","48"
"Cartagena de Indias","Bolívar","10.3849855226","-75.496431028","1","1","1","1","1","1","2","2","2","4","5","5","5","5","5","5","6","6","6","7","8","9","10","11","11","11","13","13","14","14","15","15","16","17","18","19","19","21","21","22","23","23"
"Chía","Cundinamarca","4.86606542368","-74.0503468211","0","0","0","0","0","0","0","0","0","0","0","0","0","0","0","0","0","0","0","0","0","0","0","0","0","0","0","0","0","0","0","1","1","1","1","1","1","1","1","1","1","1"
"Ciénaga","Magdalena","11.0066568813","-74.2412861592","0","0","0","0","0","0","0","0","0","0","0","0","0","0","0","0","0","0","0","0","0","0","0","0","0","0","0","0","0","0","0","0","0","0","0","0","1","1","1","1","1","1"
"Ciénaga de Oro","Córdoba","8.87550224563","-75.6207866383","0","0","0","0","0","0","0","0","0","0","0","0","1","1","1","1","1","1","1","1","1","1","1","1","1","1","1","1","1","1","1","1","1","1","1","1","1","1","1","1","1","1"
"Cubará","Boyacá","7.00009287529","-72.1106877551","0","0","0","0","0","0","0","0","0","0","0","0","0","0","0","0","0","0","0","0","0","0","0","0","0","0","0","0","0","0","0","0","0","1","1","1","1","1","1","1","1","1"
"Cúcuta","Norte de Santander","7.90530629465","-72.5082561962","0","0","0","0","0","0","1","1","1","1","1","1","1","1","1","1","2","2","3","3","3","3","3","3","3","3","3","3","3","3","3","3","3","3","3","3","4","4","4","5","5","5"
"Cun","Cundinamarca","5.249767987","-73.7662153323","0","0","0","0","0","0","0","0","0","0","0","0","0","0","0","0","0","0","0","0","0","0","0","0","0","0","0","0","0","0","0","1","1","1","1","1","1","1","1","1","1","1"
"Dosquebradas","Risaralda","4.82718783235","-75.6824691212","0","0","0","0","0","0","0","0","0","0","0","0","0","0","0","0","0","0","0","0","0","0","0","0","0","1","1","1","1","1","1","1","1","1","1","1","1","1","1","1","1","1"
"El Banco","Magdalena","9.00873300892","-73.9742812074","0","0","0","0","0","0","0","0","0","0","0","0","0","0","0","0","0","0","0","0","0","0","0","0","1","1","1","1","1","1","1","1","1","1","1","1","1","1","1","1","1","1"
"El Cerrito","Valle del Cauca","3.6842589413","-76.3117255356","0","0","0","0","0","0","0","0","0","0","0","0","0","0","0","0","0","0","0","0","0","0","0","0","0","0","1","1","1","1","1","1","1","1","1","1","1","1","1","1","1","1"
"El Dovio","Valle del Cauca","4.51045288499","-76.2370841098","0","0","0","0","0","0","0","0","0","0","0","0","0","0","0","0","0","0","0","0","0","0","1","1","1","1","1","1","1","1","1","1","1","1","1","1","1","1","1","1","1","1"
"Espinal","Tolima","4.15131422057","-74.8854497584","0","0","0","0","0","0","0","0","0","0","0","0","0","0","0","0","0","0","0","0","0","1","1","1","1","1","1","1","1","1","1","1","1","1","1","1","1","1","1","1","1","1"
"Florencia","Caquetá","1.6179229304","-75.6085604324","0","0","0","0","0","0","0","0","0","0","0","0","0","0","0","0","0","0","0","0","0","0","0","0","0","1","1","1","1","1","1","1","1","1","1","1","1","1","1","1","1","1"
"Floridablanca","Santander","7.07236040291","-73.0990326168","0","0","0","0","0","0","0","0","0","0","0","0","0","0","0","0","0","0","0","0","0","0","0","0","0","0","0","0","0","0","0","0","0","0","0","1","1","1","1","1","1","1"
"Garagoa","Boyacá","5.08324346272","-73.3644275636","0","0","0","0","0","0","0","0","0","0","0","0","0","0","0","0","0","0","0","0","0","0","0","0","0","0","0","0","0","0","0","0","0","0","0","0","0","0","0","1","1","1"
"Ginebra","Valle del Cauca","3.72418114734","-76.2680678884","0","0","0","0","0","0","0","0","0","0","0","0","0","0","0","0","0","0","0","0","0","0","1","1","1","1","1","1","1","1","1","1","1","1","1","1","1","1","1","1","1","1"
"Ibagué","Tolima","4.43960899136","-75.1937147765","0","0","0","0","0","0","0","0","0","0","0","0","0","0","0","0","0","0","0","0","0","0","1","1","1","1","1","1","1","1","1","1","1","1","1","1","1","1","1","1","1","1"
"Ipiales","Nariño","0.827734241442","-77.6464007453","0","0","0","0","0","0","0","0","0","0","0","0","0","0","0","0","0","0","0","1","1","2","2","2","2","2","2","2","3","3","3","3","3","3","3","3","3","3","3","3","3","3"
"Isnos","Huila","1.92946706016","-76.2176374469","0","0","0","0","0","0","0","0","0","0","0","0","0","0","0","0","0","0","0","0","0","0","0","1","1","1","1","1","1","1","1","1","1","1","1","1","1","1","1","1","1","1"
"Jamundí","Valle del Cauca","3.26227576022","-76.5424587285","0","0","0","0","0","0","0","0","0","0","0","0","0","0","0","0","0","0","0","1","1","1","1","1","1","1","1","1","1","1","1","1","1","1","1","1","1","1","1","1","1","1"
"La Dorada","Caldas","5.44440609816","-74.6582056212","0","0","0","0","0","0","0","0","0","0","0","1","1","1","1","1","1","1","1","1","1","2","2","2","2","2","2","2","2","2","2","2","2","2","2","2","2","2","2","2","2","2"
"Leticia","Amazonas","-4.19983693453","-69.9414267076","0","0","0","0","0","0","0","0","0","0","0","0","0","0","0","0","0","0","0","0","0","0","0","0","0","0","0","0","0","0","0","0","0","2","2","2","2","2","3","4","7","7"
"Lorica","Córdoba","9.24085514265","-75.8159953999","0","0","0","0","0","0","0","0","0","0","0","0","0","0","0","0","0","0","0","0","0","0","0","0","0","0","0","0","0","0","0","0","0","1","1","1","1","1","1","1","1","1"
"Malambo","Atlántico","10.8562872414","-74.7742405717","0","0","0","0","0","0","0","0","0","0","0","0","0","0","0","0","0","0","0","0","0","0","0","0","0","0","0","0","0","0","0","0","0","0","0","0","0","0","0","1","1","1"
"Medellín","Antioquia","5.6101097761033","-74.886816625","0","0","0","0","0","0","0","0","0","0","0","0","0","1","1","1","1","1","1","1","1","1","1","1","1","1","1","1","2","2","2","2","2","2","2","2","2","3","3","3","3","3"
"Melgar","Tolima","4.20815489203","-74.6298504009","0","0","0","0","0","0","0","0","0","0","0","0","0","0","0","0","0","0","0","0","0","0","0","0","0","0","0","0","0","0","0","0","0","0","0","0","0","0","0","1","1","1"
"Miranda","Cauca","3.25309540523","-76.2288698651","0","0","0","0","0","0","0","0","0","0","0","0","0","0","0","0","0","0","0","0","1","1","1","1","1","1","1","1","1","1","1","1","1","1","1","1","1","1","1","1","1","1"
"Montenegro","Quindio","4.5629597433","-75.7518122369","0","0","0","0","0","0","0","0","0","0","0","0","0","1","1","1","1","1","1","1","1","1","1","1","1","1","1","1","1","1","1","1","1","1","1","1","1","1","1","1","1","1"
"Montería","Córdoba","8.7451325909","-75.8755779091","0","0","0","0","0","0","0","0","0","0","0","0","0","1","1","1","1","1","1","1","1","1","1","1","1","1","1","1","1","1","1","1","1","1","1","1","1","1","1","1","1","1"
"Neiva","Huila","2.93560441491","-75.2777225856","0","0","0","0","1","1","1","1","1","1","1","1","1","1","1","1","2","2","2","3","3","3","3","3","3","3","3","3","3","3","3","3","3","3","3","4","5","5","5","5","5","5"
"Ocaña","Norte de Santander","8.246111","-73.355278","0","0","0","0","0","0","0","1","1","1","1","1","1","1","1","1","1","1","1","1","1","1","1","1","1","1","1","1","1","1","1","1","1","1","1","1","1","1","1","1","1","1"
"Palmira","Valle del Cauca","3.53234915299","-76.2985825464","0","0","0","0","0","0","0","0","0","0","0","0","0","0","0","0","0","0","0","1","1","1","1","1","1","3","3","3","3","4","4","4","4","4","4","4","4","4","4","4","4","4"
"Pasto","Nariño","1.21212436525","-77.2785763476","0","0","0","0","0","0","0","0","0","0","0","0","0","0","0","0","0","1","1","1","1","1","1","1","2","2","2","2","2","2","2","2","2","2","2","2","2","2","2","2","2","2"
"Pereira","Risaralda","4.80568026503","-75.7171230555","0","0","0","0","0","0","0","0","0","1","1","2","2","2","2","2","2","2","2","2","2","2","2","2","2","2","3","3","4","4","4","4","4","4","4","4","5","5","5","6","6","6"
"Pitalito","Huila","1.85257835541","-76.0487449016","0","0","0","0","0","0","0","0","0","0","0","0","0","0","0","0","0","0","0","0","0","0","0","0","0","0","0","0","0","0","0","0","0","0","0","1","1","1","1","1","1","1"
"Popayán","Cauca","2.48250339062","-76.5740646841","0","0","0","1","1","1","1","1","1","1","1","1","1","1","1","1","1","1","1","1","1","1","1","1","1","1","1","1","1","1","1","1","1","1","1","1","1","1","1","1","1","1"
"Puebloviejo","Magdalena","10.9948296498","-74.2824842344","0","0","0","0","0","0","0","0","0","0","0","0","0","0","0","0","0","0","0","0","0","0","0","0","0","0","0","0","0","0","0","0","0","0","0","1","1","1","2","2","2","2"
"Quibdo","Chocó","5.69219518726","-76.6259693555","0","0","0","0","0","0","0","0","0","0","0","0","0","0","0","0","0","0","0","0","0","0","0","0","0","0","0","0","0","0","0","0","0","0","0","1","1","1","1","1","1","1"
"Río de Oro","Cesar","8.29228738416","-73.3863951998","0","0","0","0","0","0","0","0","0","0","0","0","0","0","0","0","0","0","0","0","0","0","0","0","0","0","1","1","1","1","1","1","1","1","2","2","2","2","2","2","2","2"
"Riohacha","La Guajira","11.5287513839","-72.911488911","0","0","0","0","0","0","0","0","0","0","0","0","0","0","0","0","0","0","0","0","0","0","0","0","0","0","0","0","0","0","1","1","1","1","1","1","1","1","1","1","1","1"
"Roldanillo","Valle del Cauca","4.4135962001","-76.1522866285","0","0","0","0","0","0","0","0","0","0","0","0","0","0","0","0","0","0","0","0","0","0","0","0","0","0","0","0","0","0","0","0","0","0","0","0","0","1","1","1","1","1"
"Samacá","Boyacá","5.49231459065","-73.4856435912","0","0","0","0","0","0","0","0","0","0","0","0","0","0","0","0","0","0","0","0","0","0","0","0","0","0","0","0","0","0","0","0","0","0","0","0","0","0","0","1","1","1"
"San Andrés de Tumaco","Nariño","1.80711725006","-78.7638541478","0","0","0","0","0","0","0","0","0","0","0","0","0","0","0","0","0","0","0","0","0","0","0","0","0","1","1","1","1","1","1","1","1","1","1","1","2","2","2","2","2","2"
"San Francisco","Antioquia","5.96407913115","-75.1026869656","0","0","0","0","0","0","0","0","0","0","0","0","0","0","0","0","0","0","0","0","0","0","0","0","0","0","0","0","0","0","0","0","0","0","1","1","1","1","1","1","1","1"
"San Martín","Cesar","7.99989545861","-73.510975182","0","0","0","0","0","0","0","0","0","0","0","0","0","0","0","0","0","0","0","0","0","0","0","0","0","0","0","0","0","0","0","0","0","0","0","0","0","1","1","1","1","1"
"Santa Marta","Magdalena","11.2294335041","-74.1908941206","0","0","1","1","1","1","1","2","2","2","2","2","2","2","2","3","3","4","5","6","6","6","8","8","8","8","8","8","10","10","10","10","11","12","12","12","14","14","14","14","14","14"
"Santander de Quilichao","Cauca","3.01605390077","-76.4853702902","0","0","0","0","0","0","0","0","0","0","1","1","1","1","1","1","1","1","1","1","1","1","1","1","1","1","1","1","1","1","1","1","1","1","1","1","1","1","1","1","1","1"
"Soacha","Cundinamarca","4.58549165821","-74.2145275305","0","0","0","0","0","0","0","0","0","0","0","0","0","0","0","0","0","0","0","0","1","1","1","1","1","1","1","2","2","2","2","3","3","3","3","3","4","4","4","4","4","4"
"Soledad","Atlántico","10.9101744673","-74.784833384","0","0","0","0","0","0","1","1","1","1","1","1","1","2","2","2","2","2","2","2","2","2","2","2","2","2","2","2","2","2","2","2","2","2","3","3","4","5","5","5","6","6"
"Suesca","Cundinamarca","5.10351683913","-73.7982897825","0","0","0","0","0","0","0","0","0","0","0","0","0","0","0","0","0","0","0","1","1","1","1","1","1","1","1","1","1","1","1","1","1","1","1","1","1","1","1","1","1","1"
"Tenjo","Cundinamarca","4.87196053725","-74.1439562115","0","0","0","0","0","0","0","0","0","0","0","0","0","1","1","1","1","1","1","1","1","1","1","1","1","1","2","2","2","2","2","2","2","2","2","2","2","2","2","2","2","2"
"Timaná","Huila","1.9742244433","-75.932086996","0","0","0","0","0","0","0","0","0","0","0","0","0","0","0","0","0","0","0","0","0","0","0","0","1","1","1","1","1","1","1","1","1","1","1","1","1","1","1","1","1","1"
"Tuluá","Valle del Cauca","4.08526123852","-76.1976996795","0","0","0","0","0","0","0","0","0","0","0","0","0","0","0","0","0","0","0","0","0","0","0","0","0","0","0","0","0","0","0","0","0","0","0","0","1","1","1","1","1","1"
"Tunja","Boyacá","5.53995323795","-73.3554887287","0","0","0","0","0","0","0","0","0","0","0","0","0","0","1","1","1","1","1","1","1","1","1","1","1","1","1","1","1","1","1","1","1","1","1","1","1","1","1","1","1","1"
"Túquerres","Nariño","1.08519335919","-77.6168863825","0","0","0","0","0","0","0","0","0","0","0","0","0","0","0","0","0","0","0","0","0","0","0","0","0","0","0","0","0","0","0","0","0","0","0","0","0","0","1","1","1","1"
"Turbaco","Bolívar","10.3327691633","-75.4244091655","0","0","0","0","0","0","0","0","0","0","0","0","0","0","0","1","1","1","1","1","1","1","1","1","1","1","1","1","1","1","1","1","1","1","1","1","1","1","1","1","1","1"
"Valledupar","Cesar","10.4604812152","-73.259389309","0","0","0","0","0","0","0","0","0","0","0","0","0","0","0","0","0","0","0","0","0","0","0","0","0","0","0","0","0","0","0","1","2","2","3","3","3","3","3","3","3","3"
"Villa rica","Cauca","3.17757792648","-76.457872658","0","0","0","0","0","0","0","0","0","0","0","0","0","0","0","0","0","0","0","0","0","0","0","0","0","0","0","0","0","0","0","0","0","0","1","1","1","1","1","1","1","1"
"Villapinzón","Cundinamarca","5.21643837183","-73.5953546674","0","0","0","0","0","0","0","0","0","0","0","0","0","2","2","2","2","2","2","2","2","2","2","2","2","2","2","2","2","2","2","2","2","2","2","2","2","2","2","2","2","2"
"Villavicencio","Meta","4.12386149961","-73.6270920374","0","0","0","0","0","0","0","0","0","0","0","0","0","0","0","1","2","3","3","3","3","3","3","3","3","3","4","4","4","4","4","4","4","4","4","4","4","4","4","4","5","5"
"Zipaquirá","Cundinamarca","5.02547168537","-73.9944712419","0","0","0","0","0","0","0","0","0","0","0","1","1","1","1","1","1","1","1","1","1","1","1","1","1","1","1","1","1","1","1","1","1","1","2","2","2","2","2","2","2","2"
"Zona Bananera","Magdalena","10.764167","-74.157222","0","0","0","0","0","0","0","0","0","0","0","0","0","0","0","1","1","1","1","1","1","1","1","1","1","1","1","1","1","1","1","1","1","1","1","1","1","1","1","1","1","1"
