"DIVIPOLA","City_Municipality","ID_Deparment","Department","Latitude","Longitude","03/16/2020","03/22/2020","03/23/2020","03/24/2020","03/25/2020","03/26/2020","03/27/2020","03/28/2020","03/29/2020","03/30/2020","03/31/2020","04/01/2020","04/02/2020","04/03/2020","04/04/2020","04/05/2020","04/06/2020","04/07/2020","04/08/2020","04/09/2020","04/10/2020","04/11/2020","04/12/2020","04/13/2020","04/14/2020","04/15/2020","04/16/2020","04/17/2020","04/18/2020","04/19/2020","04/20/2020","04/21/2020","04/22/2020","04/23/2020","04/24/2020","04/25/2020","04/26/2020","04/27/2020","04/28/2020","04/29/2020","04/30/2020","05/01/2020","05/02/2020","05/03/2020","05/04/2020","05/05/2020","05/06/2020","05/07/2020","05/08/2020","05/09/2020","05/10/2020","05/11/2020","05/12/2020","05/13/2020","05/14/2020","05/15/2020","05/16/2020","05/17/2020","05/18/2020","05/19/2020","05/20/2020"
"5001","Medellin","5","Antioquia","5.610109776","-74.88681663","0","0","0","0","0","0","0","0","0","0","0","0","0","1","1","1","1","1","1","1","1","1","1","1","1","1","1","1","2","2","2","2","2","2","2","2","2","3","3","3","3","3","3","3","3","3","3","3","3","3","3","3","3","3","3","3","3","3","3","3","3"
"5088","Bello","5","Antioquia","6.334068836","-75.55466507","0","0","0","0","0","0","0","0","0","0","0","0","0","0","0","0","0","0","0","0","0","0","0","0","0","0","0","0","1","1","1","1","1","1","1","1","1","1","1","1","1","1","1","1","1","1","1","1","1","1","1","1","1","1","1","1","1","1","1","1","1"
"5313","Granada","5","Antioquia","6.142896667","-75.18444508","0","0","0","0","0","0","0","0","0","0","0","0","0","0","0","0","0","0","0","0","0","0","0","0","0","0","0","0","0","0","0","0","0","0","0","0","0","0","0","0","0","0","1","1","1","1","1","1","1","1","1","1","1","1","1","1","1","1","1","1","1"
"5652","San Francisco","5","Antioquia","5.964079131","-75.10268697","0","0","0","0","0","0","0","0","0","0","0","0","0","0","0","0","0","0","0","0","0","0","0","0","0","0","0","0","0","0","0","0","0","0","1","1","1","1","1","1","1","1","1","1","1","1","1","1","1","1","1","1","1","1","1","1","1","1","1","1","1"
"8001","Barranquilla","8","Atlantico","10.97592682","-74.79525905","0","0","0","0","0","0","0","0","0","0","0","0","1","2","2","2","2","2","2","3","3","3","3","3","3","3","3","3","3","3","4","4","5","5","5","8","8","8","8","8","12","15","17","20","21","24","25","25","26","26","26","28","30","30","31","31","31","31","32","32","32"
"8433","Malambo","8","Atlantico","10.85628724","-74.77424057","0","0","0","0","0","0","0","0","0","0","0","0","0","0","0","0","0","0","0","0","0","0","0","0","0","0","0","0","0","0","0","0","0","0","0","0","0","0","0","1","1","1","2","2","2","2","4","4","4","4","4","4","4","5","5","6","6","6","6","6","6"
"8573","Puerto Colombia","8","Atlantico","11.02294005","-74.85196357","0","0","0","0","0","0","0","0","0","0","0","0","0","0","0","0","0","0","0","0","0","0","0","0","0","0","0","0","0","0","0","0","0","0","0","0","0","0","0","0","0","0","1","1","1","1","1","1","1","1","1","1","1","1","1","1","1","1","1","1","1"
"8675","Santa Lucia","8","Atlantico","10.32327321","-74.95897145","0","0","0","0","0","0","0","0","0","0","0","0","0","0","0","0","0","0","0","0","0","0","0","0","0","0","0","0","0","0","0","0","0","0","0","0","0","0","0","0","0","0","0","0","0","1","1","1","1","1","1","1","1","1","1","1","1","1","1","1","1"
"8685","Santo Tomas","8","Atlantico","10.75605629","-74.75411186","0","0","0","0","0","0","0","0","0","0","0","0","0","0","0","0","0","0","0","0","0","0","0","0","0","0","0","0","0","0","0","0","0","0","0","0","0","0","0","0","0","0","1","1","1","1","1","1","1","1","1","1","1","1","1","1","1","1","1","1","1"
"8758","Soledad","8","Atlantico","10.91017447","-74.78483338","0","0","0","0","0","0","1","1","1","1","1","1","1","2","2","2","2","2","2","2","2","2","2","2","2","2","2","2","2","2","2","2","2","2","3","3","4","5","5","6","7","7","9","9","9","9","9","10","10","11","11","11","11","11","11","12","12","12","12","12","12"
"11001","Bogota D.C.","11","Bogota D.C.","4.65017303","-74.107359","0","0","0","0","1","3","3","6","7","8","10","11","15","19","29","33","39","43","45","48","51","55","56","60","66","69","73","75","77","81","83","88","88","90","94","95","101","104","109","113","118","121","124","127","131","132","138","140","144","149","156","162","162","165","167","173","175","176","180","182","182"
"13001","Cartagena de Indias","13","Bolivar","10.38498552","-75.49643103","1","1","1","1","1","1","2","2","2","4","5","5","5","5","5","5","6","6","6","7","8","9","10","11","11","11","13","13","14","14","15","15","16","17","18","19","19","21","21","22","25","27","28","32","35","37","40","45","48","51","53","57","61","63","69","70","74","76","80","81","81"
"13074","Barranco de Loba","13","Bolivar","8.947730158","-74.10522428","0","0","0","0","0","0","0","0","0","0","0","0","0","0","0","0","0","0","0","0","0","0","0","0","0","0","1","1","1","1","1","1","1","1","1","1","1","1","1","1","1","1","1","1","1","1","1","1","1","1","1","1","1","1","1","1","1","1","1","1","1"
"13140","Calamar","13","Bolivar","10.25196336","-74.91362928","0","0","0","0","0","0","0","0","0","0","0","0","0","0","0","0","0","0","0","0","0","0","0","0","0","0","0","0","0","0","0","0","0","1","1","1","1","1","1","1","1","1","1","1","1","1","1","1","1","1","1","1","1","1","1","1","1","1","1","1","1"
"13683","Santa Rosa","13","Bolivar","10.44439608","-75.36983166","0","0","0","0","0","0","0","0","0","0","0","0","0","0","0","0","0","0","0","0","0","0","0","0","0","0","0","0","0","0","0","0","0","0","0","0","0","0","0","0","0","0","0","0","0","0","0","0","0","0","0","1","1","1","1","1","1","1","1","1","1"
"13836","Turbaco","13","Bolivar","10.33276916","-75.42440917","0","0","0","0","0","0","0","0","0","0","0","0","0","0","0","1","1","1","1","1","1","1","1","1","1","1","1","1","1","1","1","1","1","1","1","1","1","1","1","1","1","1","1","1","1","1","1","1","1","1","1","1","1","1","1","1","1","1","1","1","1"
"15001","Tunja","15","Boyaca","5.539953238","-73.35548873","0","0","0","0","0","0","0","0","0","0","0","0","0","0","1","1","1","1","1","1","1","1","1","1","1","1","1","1","1","1","1","1","1","1","1","1","1","1","1","1","1","1","1","1","1","1","1","1","1","1","1","1","1","1","1","1","1","1","1","1","1"
"15224","Cucaita","15","Boyaca","5.544451559","-73.45433765","0","0","0","0","0","0","0","0","0","0","0","0","0","0","0","0","0","0","0","0","0","0","0","0","0","0","0","0","0","0","0","0","0","0","0","0","0","0","0","0","0","0","0","0","0","0","0","0","0","0","0","0","0","0","0","0","1","1","1","1","1"
"15299","Garagoa","15","Boyaca","5.083243463","-73.36442756","0","0","0","0","0","0","0","0","0","0","0","0","0","0","0","0","0","0","0","0","0","0","0","0","0","0","0","0","0","0","0","0","0","0","0","0","0","0","0","1","1","1","1","1","1","1","1","1","1","1","1","1","1","1","1","1","1","1","1","1","1"
"15516","Paipa","15","Boyaca","5.77994187","-73.11791688","0","0","0","0","0","0","0","0","0","0","0","0","0","0","0","0","0","0","0","0","0","0","0","0","0","0","0","0","0","0","0","0","0","0","0","0","0","0","0","0","0","0","0","0","0","0","0","0","0","0","0","0","0","0","0","0","1","1","1","1","1"
"15646","Samaca","15","Boyaca","5.492314591","-73.48564359","0","0","0","0","0","0","0","0","0","0","0","0","0","0","0","0","0","0","0","0","0","0","0","0","0","0","0","0","0","0","0","0","0","0","0","0","0","0","0","1","1","1","1","1","1","1","1","1","1","1","1","1","1","1","1","1","1","1","1","1","1"
"17001","Manizales","17","Caldas","5.057688197","-75.49104898","0","0","0","0","0","0","0","0","0","0","0","0","0","0","0","0","0","0","0","0","0","0","0","0","0","0","0","0","0","0","0","0","0","0","0","0","0","0","0","0","0","0","0","1","1","1","1","1","1","2","2","2","2","2","2","2","2","2","2","2","2"
"17380","La Dorada","17","Caldas","5.444406098","-74.65820562","0","0","0","0","0","0","0","0","0","0","0","1","1","1","1","1","1","1","1","1","1","2","2","2","2","2","2","2","2","2","2","2","2","2","2","2","2","2","2","2","2","2","2","2","2","2","2","2","2","2","2","2","2","2","2","2","2","2","2","2","2"
"17495","Norcasia","17","Caldas","5.574795393","-74.88954408","0","0","0","0","0","0","0","0","0","0","0","0","0","0","0","0","0","0","0","0","0","0","0","0","0","0","0","0","0","0","0","0","0","0","0","0","0","0","0","0","0","0","0","0","0","0","0","0","1","1","1","1","1","1","1","1","1","1","1","1","1"
"18001","Florencia","18","Caqueta","1.61792293","-75.60856043","0","0","0","0","0","0","0","0","0","0","0","0","0","0","0","0","0","0","0","0","0","0","0","0","0","1","1","1","1","1","1","1","1","1","1","1","1","1","1","1","1","1","1","1","1","1","1","1","1","1","1","1","1","1","1","1","1","1","1","1","1"
"19001","Popayan","19","Cauca","2.482503391","-76.57406468","0","0","0","1","1","1","1","1","1","1","1","1","1","1","1","1","1","1","1","1","1","1","1","1","1","1","1","1","1","1","1","1","1","1","1","1","1","1","1","1","1","1","1","1","1","1","1","1","1","1","1","1","1","1","1","1","1","1","1","1","1"
"19455","Miranda","19","Cauca","3.253095405","-76.22886987","0","0","0","0","0","0","0","0","0","0","0","0","0","0","0","0","0","0","0","0","1","1","1","1","1","1","1","1","1","1","1","1","1","1","1","1","1","1","1","1","1","1","1","1","1","1","1","1","1","1","1","1","1","1","1","1","1","1","1","1","1"
"19698","Santander de Quilichao","19","Cauca","3.016053901","-76.48537029","0","0","0","0","0","0","0","0","0","0","1","1","1","1","1","1","1","1","1","1","1","1","1","1","1","1","1","1","1","1","1","1","1","1","1","1","1","1","1","1","1","1","1","1","1","1","1","1","1","1","1","1","1","1","1","1","1","1","1","1","1"
"19845","Villa rica","19","Cauca","3.177577926","-76.45787266","0","0","0","0","0","0","0","0","0","0","0","0","0","0","0","0","0","0","0","0","0","0","0","0","0","0","0","0","0","0","0","0","0","0","1","1","1","1","1","1","1","1","1","1","1","1","1","1","1","1","1","1","1","1","1","1","1","1","1","1","1"
"20001","Valledupar","20","Cesar","10.46048122","-73.25938931","0","0","0","0","0","0","0","0","0","0","0","0","0","0","0","0","0","0","0","0","0","0","0","0","0","0","0","0","0","0","0","1","3","3","4","4","4","4","4","4","4","4","4","5","5","6","6","6","6","6","6","6","6","6","6","6","6","6","6","6","6"
"20011","Aguachica","20","Cesar","8.310336958","-73.59902859","0","0","0","0","0","0","0","0","0","0","0","0","0","0","0","0","0","0","0","0","0","0","0","0","0","0","0","0","0","0","0","0","0","0","0","0","0","0","0","0","0","0","0","0","0","0","0","1","1","1","1","1","1","1","1","1","1","1","1","1","1"
"20614","Rio de Oro","20","Cesar","8.292287384","-73.3863952","0","0","0","0","0","0","0","0","0","0","0","0","0","0","0","0","0","0","0","0","0","0","0","0","0","0","1","1","1","1","1","1","1","1","2","2","2","2","2","2","2","2","2","2","2","2","2","2","2","2","2","2","2","2","2","2","2","2","2","2","2"
"20770","San Martin","20","Cesar","7.999895459","-73.51097518","0","0","0","0","0","0","0","0","0","0","0","0","0","0","0","0","0","0","0","0","0","0","0","0","0","0","0","0","0","0","0","0","0","0","0","0","0","1","1","1","1","1","1","2","2","2","2","2","2","2","2","2","2","2","2","2","2","2","2","2","2"
"23001","Monteria","23","Cordoba","8.745132591","-75.87557791","0","0","0","0","0","0","0","0","0","0","0","0","0","1","1","1","1","1","1","1","1","1","1","1","1","1","1","1","1","1","1","1","1","1","1","1","1","1","1","1","1","1","1","1","1","1","1","1","1","1","1","1","1","1","1","1","1","1","1","1","1"
"23189","Cienaga de Oro","23","Cordoba","8.875502246","-75.62078664","0","0","0","0","0","0","0","0","0","0","0","0","1","1","1","1","1","1","1","1","1","1","1","1","1","1","1","1","1","1","1","1","1","1","1","1","1","1","1","1","1","1","1","1","1","1","1","1","1","1","1","1","1","1","1","1","1","1","1","1","1"
"23417","Lorica","23","Cordoba","9.240855143","-75.8159954","0","0","0","0","0","0","0","0","0","0","0","0","0","0","0","0","0","0","0","0","0","0","0","0","0","0","0","0","0","0","0","0","0","1","1","1","1","1","1","1","1","1","1","1","1","1","1","1","1","1","1","1","1","1","1","1","1","1","1","1","1"
"23807","Tierralta","23","Cordoba","8.170378684","-76.05969659","0","0","0","0","0","0","0","0","0","0","0","0","0","0","0","0","0","0","0","0","0","0","0","0","0","0","0","0","0","0","0","0","0","0","0","0","0","0","0","0","0","0","0","0","0","0","0","0","0","0","0","0","0","0","0","1","1","1","1","1","1"
"25001","Agua de dios","25","Cundinamarca","4.375312017","-74.66921778","0","0","0","0","0","0","0","0","0","0","0","0","0","0","0","0","0","0","0","0","0","0","0","0","0","0","0","0","0","0","0","1","1","1","1","1","1","1","1","1","1","1","1","1","1","1","1","1","1","1","1","1","1","1","1","1","1","1","1","1","1"
"25290","Fusagasuga","25","Cundinamarca","4.338480851","-74.36633393","0","0","0","0","0","0","0","0","0","0","0","0","0","0","0","0","0","0","0","0","0","0","0","0","0","0","0","0","0","0","0","0","0","0","0","0","0","0","0","0","0","0","0","0","0","0","0","0","0","0","0","0","0","0","0","0","0","0","1","1","1"
"25307","Girardot","25","Cundinamarca","4.313078337","-74.79779459","0","0","0","0","0","0","0","0","0","0","0","0","0","0","0","0","0","0","0","0","0","0","0","0","0","0","0","0","0","0","0","0","0","0","0","0","0","0","0","0","0","0","0","0","0","0","0","0","0","0","0","0","0","0","0","0","0","0","0","1","1"
"25473","Mosquera","25","Cundinamarca","4.711371201","-74.23177508","0","0","0","0","0","0","0","0","0","0","0","0","0","0","0","0","0","0","0","0","0","0","0","0","0","0","0","0","0","0","0","0","0","0","0","0","0","0","0","0","0","0","0","0","0","0","0","0","0","0","0","0","0","0","0","0","0","0","0","1","1"
"25754","Soacha","25","Cundinamarca","4.585491658","-74.21452753","0","0","0","0","0","0","0","0","0","0","0","0","0","0","0","0","0","0","0","0","0","0","0","0","0","0","0","1","1","1","1","2","2","2","2","2","3","3","3","3","3","3","3","3","3","3","3","3","3","3","3","3","3","3","3","3","3","3","3","3","3"
"25772","Suesca","25","Cundinamarca","5.103516839","-73.79828978","0","0","0","0","0","0","0","0","0","0","0","0","0","0","0","0","0","0","0","1","1","1","1","1","1","1","1","1","1","1","1","1","1","1","1","1","1","1","1","1","1","1","1","1","1","1","1","1","1","1","1","1","1","1","1","1","1","1","1","1","1"
"25799","Tenjo","25","Cundinamarca","4.871960537","-74.14395621","0","0","0","0","0","0","0","0","0","0","0","0","0","1","1","1","1","1","1","1","1","1","1","1","1","1","2","2","2","2","2","2","2","2","2","2","2","2","2","2","2","2","2","2","2","2","2","2","2","2","2","2","2","2","2","2","2","2","2","2","2"
"25873","Villapinzon","25","Cundinamarca","5.216438372","-73.59535467","0","0","0","0","0","0","0","0","0","0","0","0","0","2","2","2","2","2","2","2","2","2","2","2","2","2","2","2","2","2","2","2","2","2","2","2","2","2","2","2","2","2","2","2","2","2","2","2","2","2","2","2","2","2","2","2","2","2","2","2","2"
"25899","Zipaquira","25","Cundinamarca","5.025471685","-73.99447124","0","0","0","0","0","0","0","0","0","0","0","1","1","1","1","1","1","1","1","1","1","1","1","1","1","1","1","1","1","1","1","1","1","1","2","2","2","2","2","2","2","2","2","2","2","2","2","2","2","2","2","2","2","2","2","2","2","2","2","2","2"
"27001","Quibdo","27","Choco","5.692195187","-76.62596936","0","0","0","0","0","0","0","0","0","0","0","0","0","0","0","0","0","0","0","0","0","0","0","0","0","0","0","0","0","0","0","0","0","0","0","1","1","1","1","1","2","2","3","3","3","3","3","3","3","3","3","3","3","3","3","3","4","4","4","4","4"
"41001","Neiva","41","Huila","2.935604415","-75.27772259","0","0","0","0","1","1","1","1","1","1","1","1","1","1","1","1","2","2","2","3","3","3","3","3","3","3","3","3","3","3","3","3","3","3","3","4","5","5","5","5","5","5","5","5","5","5","5","5","5","5","5","5","5","5","5","5","5","5","5","5","5"
"41359","Isnos","41","Huila","1.92946706","-76.21763745","0","0","0","0","0","0","0","0","0","0","0","0","0","0","0","0","0","0","0","0","0","0","0","1","1","1","1","1","1","1","1","1","1","1","1","1","1","1","1","1","1","1","1","1","2","2","2","2","2","2","2","2","2","2","2","2","2","2","2","2","2"
"41807","Timana","41","Huila","1.974224443","-75.932087","0","0","0","0","0","0","0","0","0","0","0","0","0","0","0","0","0","0","0","0","0","0","0","0","1","1","1","1","1","1","1","1","1","1","1","1","1","1","1","1","1","1","1","1","1","1","1","1","1","1","1","1","1","1","1","1","1","1","1","1","1"
"44001","Riohacha","44","La Guajira","11.52875138","-72.91148891","0","0","0","0","0","0","0","0","0","0","0","0","0","0","0","0","0","0","0","0","0","0","0","0","0","0","0","0","0","0","1","1","1","1","1","1","1","1","1","1","1","1","1","1","1","1","1","1","1","1","1","1","1","1","1","1","1","1","1","1","1"
"44430","Maicao","44","La Guajira","11.37832678","-72.24190502","0","0","0","0","0","0","0","0","0","0","0","0","0","0","0","0","0","0","0","0","0","0","0","0","0","0","0","0","0","0","0","0","0","0","0","0","0","0","0","0","0","0","0","0","0","0","1","1","1","1","1","1","1","1","1","1","1","1","1","1","1"
"44650","San Juan del Cesar","44","La Guajira","10.76957868","-73.00059321","0","0","0","0","0","0","0","0","0","0","0","0","0","0","0","0","0","0","0","0","0","0","0","0","0","0","0","0","0","0","0","0","0","0","0","0","0","0","0","0","0","0","0","1","1","1","1","1","1","1","1","1","1","1","1","1","1","1","1","1","1"
"47001","Santa Marta","47","Magdalena","11.2294335","-74.19089412","0","0","1","1","1","1","1","2","2","2","2","2","2","2","2","3","3","4","5","6","6","6","8","8","8","8","8","8","10","10","10","10","11","12","12","12","14","14","14","14","14","14","14","14","16","17","17","18","18","18","18","18","18","18","18","18","18","18","18","18","18"
"47189","Cienaga","47","Magdalena","11.00665688","-74.24128616","0","0","0","0","0","0","0","0","0","0","0","0","0","0","0","0","0","0","0","0","0","0","0","0","0","0","0","0","0","0","0","0","0","0","0","0","1","1","1","1","1","1","1","1","1","1","1","1","2","2","2","2","2","2","2","2","2","2","2","2","2"
"47245","El Banco","47","Magdalena","9.008733009","-73.97428121","0","0","0","0","0","0","0","0","0","0","0","0","0","0","0","0","0","0","0","0","0","0","0","0","1","1","1","1","1","1","1","1","1","1","1","1","1","1","1","1","1","1","1","1","1","1","1","1","1","1","1","1","1","1","1","1","1","1","1","1","1"
"47570","Puebloviejo","47","Magdalena","10.99482965","-74.28248423","0","0","0","0","0","0","0","0","0","0","0","0","0","0","0","0","0","0","0","0","0","0","0","0","0","0","0","0","0","0","0","0","0","0","0","1","1","1","2","2","2","2","2","4","4","4","4","4","5","5","5","6","6","7","7","7","7","8","8","8","8"
"47980","Zona Bananera","47","Magdalena","10.76302682","-74.14008184","0","0","0","0","0","0","0","0","0","0","0","0","0","0","0","1","1","1","1","1","1","1","1","1","1","1","1","1","1","1","1","1","1","1","1","1","1","1","1","1","1","1","1","1","1","1","1","1","1","1","2","2","2","2","2","2","2","2","2","2","2"
"50001","Villavicencio","50","Meta","4.1238615","-73.62709204","0","0","0","0","0","0","0","0","0","0","0","0","0","0","0","1","2","3","3","3","3","3","3","3","3","3","4","4","4","4","4","4","4","4","4","4","4","4","4","4","5","6","6","6","6","6","6","6","6","6","6","7","7","7","7","7","7","7","7","7","7"
"50573","Puerto Lopez","50","Meta","4.093406425","-72.95743626","0","0","0","0","0","0","0","0","0","0","0","0","0","0","0","0","0","0","0","0","0","0","0","0","0","0","0","0","0","0","0","0","0","0","0","0","0","0","0","0","0","0","0","0","0","0","0","0","0","0","0","1","1","1","1","1","1","1","1","1","1"
"52001","Pasto","52","Narino","1.212124365","-77.27857635","0","0","0","0","0","0","0","0","0","0","0","0","0","0","0","0","0","1","1","1","1","1","1","1","2","2","2","2","2","2","2","2","2","2","2","2","2","2","2","2","2","2","2","2","3","3","3","3","4","4","4","4","4","4","4","4","4","4","5","5","5"
"52356","Ipiales","52","Narino","0.827734241","-77.64640075","0","0","0","0","0","0","0","0","0","0","0","0","0","0","0","0","0","0","0","1","1","2","2","2","2","2","2","2","3","3","3","3","3","3","3","3","3","3","3","3","3","3","3","3","3","3","3","3","3","3","3","3","3","3","3","3","3","3","3","3","3"
"52427","Magui","52","Narino","1.765313671","-78.18106078","0","0","0","0","0","0","0","0","0","0","0","0","0","0","0","0","0","0","0","0","0","0","0","0","0","0","0","0","0","0","0","0","0","0","0","0","0","0","0","0","0","0","1","1","1","1","1","1","1","1","1","1","1","1","1","1","1","1","1","1","1"
"52473","Mosquera","52","Narino","2.507116414","-78.45298541","0","0","0","0","0","0","0","0","0","0","0","0","0","0","0","0","0","0","0","0","0","0","0","0","0","0","0","0","0","0","0","0","0","0","0","0","0","0","0","0","0","0","0","0","0","1","1","2","2","2","2","2","2","2","2","2","2","2","2","2","2"
"52835","San Andres de Tumaco","52","Narino","1.80711725","-78.76385415","0","0","0","0","0","0","0","0","0","0","0","0","0","0","0","0","0","0","0","0","0","0","0","0","0","1","1","1","1","1","1","1","1","1","1","1","2","2","2","3","3","3","3","3","4","4","4","7","8","12","12","13","13","13","14","15","15","15","15","15","15"
"52838","Tuquerres","52","Narino","1.085193359","-77.61688638","0","0","0","0","0","0","0","0","0","0","0","0","0","0","0","0","0","0","0","0","0","0","0","0","0","0","0","0","0","0","0","0","0","0","0","0","0","0","1","1","1","1","1","1","1","1","1","1","1","1","1","1","1","1","1","1","1","1","1","1","1"
"54001","Cucuta","54","Norte de Santander","7.905306295","-72.5082562","0","0","0","0","0","0","1","1","1","1","1","1","1","1","1","1","2","2","3","3","3","3","3","3","3","3","3","3","3","3","3","3","3","3","4","4","5","5","5","6","6","6","6","7","7","7","7","8","8","8","8","8","8","8","8","9","9","9","9","9","9"
"54498","Ocana","54","Norte de Santander","8.247453792","-73.3558144","0","0","0","0","0","0","0","1","1","1","1","1","1","1","1","1","1","1","1","1","1","1","1","1","1","1","1","1","1","1","1","1","1","1","1","1","2","2","2","2","2","2","2","2","2","2","2","2","2","2","2","2","2","2","2","2","2","2","2","2","2"
"63001","Armenia","63","Quindio","4.535989502","-75.68075076","0","0","0","0","0","0","0","0","0","0","0","0","0","0","1","1","1","1","1","1","1","1","1","1","1","1","1","1","1","1","1","1","1","1","1","1","1","1","1","1","1","1","1","1","1","1","1","1","1","1","1","1","1","1","1","1","1","1","1","1","1"
"63470","Montenegro","63","Quindio","4.562959743","-75.75181224","0","0","0","0","0","0","0","0","0","0","0","0","0","1","1","1","1","1","1","1","1","1","1","1","1","1","1","1","1","1","1","1","1","1","1","1","1","1","1","1","1","1","1","1","1","1","1","1","1","1","1","1","1","1","1","1","1","1","1","1","1"
"66001","Pereira","66","Risaralda","4.805680265","-75.71712306","0","0","0","0","0","0","0","0","0","1","1","2","2","2","2","2","2","2","2","2","2","2","2","2","2","2","3","3","4","4","4","4","4","4","4","4","5","5","5","6","6","6","7","7","7","7","7","7","7","7","7","7","7","7","7","7","7","7","7","7","7"
"66170","Dosquebradas","66","Risaralda","4.827187832","-75.68246912","0","0","0","0","0","0","0","0","0","0","0","0","0","0","0","0","0","0","0","0","0","0","0","0","0","1","1","1","1","1","1","1","1","1","1","1","1","1","1","1","1","1","1","1","1","1","1","1","1","1","1","1","1","1","1","1","1","1","1","1","1"
"68001","Bucaramanga","68","Santander","7.116267276","-73.13259818","0","0","0","0","0","0","0","0","0","0","0","0","0","0","0","0","0","0","0","0","0","0","0","0","0","0","0","1","1","1","1","1","1","1","1","1","1","1","1","1","1","1","1","1","1","1","1","1","1","1","1","1","1","1","1","1","1","1","1","1","1"
"68081","Barrancabermeja","68","Santander","7.064963864","-73.84995698","0","0","0","0","0","0","0","0","0","0","0","0","0","0","0","0","0","1","1","1","1","1","1","1","1","1","1","1","1","1","1","1","1","1","1","1","1","1","1","1","1","1","1","1","1","1","1","1","1","1","1","1","1","1","1","1","1","1","1","1","1"
"68276","Floridablanca","68","Santander","7.072360403","-73.09903262","0","0","0","0","0","0","0","0","0","0","0","0","0","0","0","0","0","0","0","0","0","0","0","0","0","0","0","0","0","0","0","0","0","0","0","1","1","1","1","1","1","1","1","1","1","1","1","1","1","1","1","1","1","1","1","1","1","1","1","1","1"
"73001","Ibague","73","Tolima","4.439608991","-75.19371478","0","0","0","0","0","0","0","0","0","0","0","0","0","0","0","0","0","0","0","0","0","0","1","1","1","1","1","1","1","1","1","1","1","1","1","1","1","1","1","1","1","1","2","2","2","3","3","3","3","3","3","3","3","3","3","3","3","3","3","3","3"
"73268","Espinal","73","Tolima","4.151314221","-74.88544976","0","0","0","0","0","0","0","0","0","0","0","0","0","0","0","0","0","0","0","0","0","1","1","1","1","1","1","1","1","1","1","1","1","1","1","1","1","1","1","1","1","1","1","1","1","1","1","1","1","1","1","1","1","1","1","1","1","1","1","1","1"
"73319","Guamo","73","Tolima","4.031003906","-74.96812715","0","0","0","0","0","0","0","0","0","0","0","0","0","0","0","0","0","0","0","0","0","0","0","0","0","0","0","0","0","0","0","0","0","0","0","0","0","0","0","0","0","0","0","0","0","0","0","0","0","0","0","0","0","0","0","0","0","1","1","1","1"
"73449","Melgar","73","Tolima","4.208154892","-74.6298504","0","0","0","0","0","0","0","0","0","0","0","0","0","0","0","0","0","0","0","0","0","0","0","0","0","0","0","0","0","0","0","0","0","0","0","0","0","0","0","1","1","2","2","2","2","2","2","2","2","2","2","2","2","2","2","2","2","2","2","2","2"
"76001","Cali","76","Valle del Cauca","3.414414305","-76.52156515","0","1","1","1","3","3","3","3","3","4","5","5","5","6","9","9","11","11","11","12","12","12","16","17","19","23","27","28","31","34","36","37","39","41","41","41","42","44","45","48","49","49","50","50","53","53","56","58","59","60","62","66","67","70","74","74","74","75","76","78","78"
"76020","Alcala","76","Valle del Cauca","4.674989542","-75.77981387","0","0","0","0","0","0","0","0","0","0","0","0","0","0","0","0","0","0","0","0","0","0","0","0","0","0","0","0","0","0","0","0","1","1","1","1","1","1","1","1","1","1","1","1","1","1","1","1","1","1","1","1","1","1","1","1","1","1","1","1","1"
"76109","Buenaventura","76","Valle del Cauca","3.875802437","-77.0117402","0","0","0","0","0","0","0","0","0","0","0","0","0","0","0","0","0","0","0","0","0","0","1","1","1","1","1","1","1","1","1","1","1","1","1","1","1","1","2","2","2","2","2","3","4","4","4","4","4","4","5","7","7","7","8","8","9","9","9","9","9"
"76233","Dagua","76","Valle del Cauca","3.657308485","-76.68887101","0","0","0","0","0","0","0","0","0","0","0","0","0","0","0","0","0","0","0","0","0","0","0","0","0","0","0","0","0","0","0","0","0","0","0","0","0","0","0","0","0","0","0","0","0","0","0","0","0","1","1","1","1","1","1","1","1","1","1","1","1"
"76248","El Cerrito","76","Valle del Cauca","3.684258941","-76.31172554","0","0","0","0","0","0","0","0","0","0","0","0","0","0","0","0","0","0","0","0","0","0","0","0","0","0","1","1","1","1","1","1","1","1","1","1","1","1","1","1","1","1","1","1","1","1","1","1","1","1","1","1","1","1","1","1","1","1","1","1","1"
"76250","El Dovio","76","Valle del Cauca","4.510452885","-76.23708411","0","0","0","0","0","0","0","0","0","0","0","0","0","0","0","0","0","0","0","0","0","0","1","1","1","1","1","1","1","1","1","1","1","1","1","1","1","1","1","1","1","1","1","1","1","1","1","1","1","1","1","1","1","1","1","1","1","1","1","1","1"
"76275","Florida","76","Valle del Cauca","3.323918106","-76.23450174","0","0","0","0","0","0","0","0","0","0","0","0","0","0","0","0","0","0","0","0","0","0","0","0","0","0","0","0","0","0","0","0","0","0","0","0","0","0","0","0","0","1","1","1","1","1","1","1","1","1","1","1","1","1","1","1","1","1","1","1","1"
"76306","Ginebra","76","Valle del Cauca","3.724181147","-76.26806789","0","0","0","0","0","0","0","0","0","0","0","0","0","0","0","0","0","0","0","0","0","0","1","1","1","1","1","1","1","1","1","1","1","1","1","1","1","1","1","1","1","1","1","1","1","1","1","1","1","1","1","1","1","1","1","1","1","1","1","1","1"
"76364","Jamundi","76","Valle del Cauca","3.26227576","-76.54245873","0","0","0","0","0","0","0","0","0","0","0","0","0","0","0","0","0","0","0","1","1","1","1","1","1","1","1","1","1","1","1","1","1","1","1","1","1","1","1","1","1","1","1","1","1","1","1","1","1","1","1","1","1","1","1","1","1","1","1","1","1"
"76520","Palmira","76","Valle del Cauca","3.532349153","-76.29858255","0","0","0","0","0","0","0","0","0","0","0","0","0","0","0","0","0","0","0","1","1","1","1","1","1","3","3","3","3","4","4","4","4","4","4","4","4","4","4","4","4","4","4","4","4","4","4","4","4","4","4","4","4","4","4","4","4","4","4","4","4"
"76563","Pradera","76","Valle del Cauca","3.419827409","-76.24182023","0","0","0","0","0","0","0","0","0","0","0","0","0","0","0","0","0","0","0","0","0","0","0","0","0","0","0","0","0","0","0","0","0","0","0","0","0","0","0","0","0","0","0","0","0","0","0","0","0","0","0","0","0","0","0","1","1","1","1","1","1"
"76622","Roldanillo","76","Valle del Cauca","4.4135962","-76.15228663","0","0","0","0","0","0","0","0","0","0","0","0","0","0","0","0","0","0","0","0","0","0","0","0","0","0","0","0","0","0","0","0","0","0","0","0","0","1","1","1","1","1","1","1","1","1","1","1","1","1","1","1","1","1","1","1","1","1","1","1","1"
"76834","Tulua","76","Valle del Cauca","4.085261239","-76.19769968","0","0","0","0","0","0","0","0","0","0","0","0","0","0","0","0","0","0","0","0","0","0","0","0","0","0","0","0","0","0","0","0","0","0","0","0","1","1","1","1","1","1","2","2","3","3","3","3","3","3","3","3","3","3","3","3","3","3","3","3","3"
"91001","Leticia","91","Amazonas","-4.199836935","-69.94142671","0","0","0","0","0","0","0","0","0","0","0","0","0","0","0","0","0","0","0","0","0","0","0","0","0","0","0","0","0","0","1","1","1","3","4","4","5","5","7","10","15","15","16","16","16","19","23","30","32","32","32","34","35","37","39","39","39","40","43","44","44"
"91540","Puerto Narino","91","Amazonas","-3.780447632","-70.36451835","0","0","0","0","0","0","0","0","0","0","0","0","0","0","0","0","0","0","0","0","0","0","0","0","0","0","0","0","0","0","0","0","0","0","0","0","0","0","0","0","0","0","0","0","0","0","1","1","1","1","1","1","1","1","1","1","1","1","1","1","1"
