"City_Municipality","Department","Latitude","longitude","Active","Confirmed","Deaths","Recovered","House","Hospital","ICU","People_Hospitalized","Hospitalization_Rate","Mortality_Rate","Last_Update"
"ACACIAS","META","3.99012066334","-73.765936654","1","1","0","0","1","0","0","","","","2020-04-07 15:41:00"
"ANAPOIMA","CUNDINAMARCA","4.56295617479","-74.5285175294","2","2","0","0","2","0","0","","","","2020-04-07 15:41:00"
"ANSERMA","CALDAS","5.23647439108","-75.7843426615","1","1","0","0","1","0","0","","","","2020-04-07 15:41:00"
"APARTADO","ANTIOQUIA","7.88341740579","-76.6259606537","3","3","0","0","3","0","0","","","","2020-04-07 15:41:00"
"ARJONA","BOLÍVAR","10.2566315237","-75.3444884486","2","2","0","0","2","0","0","","","","2020-04-07 15:41:00"
"ARMENIA","QUINDÍO","6.15581872915","-75.7868378278","20","24","0","4","19","0","1","1","4.1666666666667","","2020-04-07 15:41:00"
"BARRANCABERMEJA","SANTANDER","7.06496386399","-73.8499569753","1","1","0","0","0","0","1","1","100","","2020-04-07 15:41:00"
"BARRANQUILLA","BARRANQUILLA D.E.","10.9759268186","-74.7952590482","41","48","2","5","37","2","2","4","8.3333333333333","4.1666666666667","2020-04-07 15:41:00"
"BELLO","ANTIOQUIA","6.33406883641","-75.554665073","14","15","0","1","12","1","1","2","13.333333333333","","2020-04-07 15:41:00"
"BOGOTA","BOGOTÁ D.C.","4.65017303026","-74.1073590032","792","861","24","45","665","95","32","127","14.750290360046","2.787456445993","2020-04-07 15:41:00"
"BUCARAMANGA","SANTANDER","7.11626727561","-73.1325981781","9","9","0","0","9","0","0","","","","2020-04-07 15:41:00"
"BUENAVENTURA","BUENAVENTURA D.E.","9.86146026968","-75.4969153426","2","2","0","0","0","1","1","2","100","","2020-04-07 15:41:00"
"BUGA","VALLE DEL CAUCA","3.90082354377","-76.2989611331","1","2","0","1","1","0","0","","","","2020-04-07 15:41:00"
"CAJICA","CUNDINAMARCA","4.92080905869","-74.0234539659","4","6","0","2","4","0","0","","","","2020-04-07 15:41:00"
"CALARCA","QUINDÍO","4.51528184598","-75.6490883624","5","5","0","0","5","0","0","","","","2020-04-07 15:41:00"
"CALDAS","ANTIOQUIA","6.09129696608","-75.6336187219","3","3","0","0","3","0","0","","","","2020-04-07 15:41:00"
"CALI","VALLE DEL CAUCA","3.41441430458","-76.5215651508","184","190","5","1","129","35","20","55","28.947368421053","2.6315789473684","2020-04-07 15:41:00"
"CARTAGENA","CARTAGENA D.T. Y C","5.02682657968","-75.6392495535","51","60","3","6","44","5","2","7","11.666666666667","5","2020-04-07 15:41:00"
"CARTAGO","VALLE DEL CAUCA","4.75875509757","-75.9422640436","8","9","0","1","8","0","0","","","","2020-04-07 15:41:00"
"CHIA","CUNDINAMARCA","4.86606542368","-74.0503468211","6","8","0","2","4","2","0","2","25","","2020-04-07 15:41:00"
"CHINCHINA","CALDAS","4.98581286197","-75.6074807289","3","3","0","0","3","0","0","","","","2020-04-07 15:41:00"
"CHOACHI","CUNDINAMARCA","4.52704792092","-73.9228944808","1","1","0","0","0","1","0","1","100","","2020-04-07 15:41:00"
"CIENAGA DE ORO","CÓRDOBA","8.87550224563","-75.6207866383","1","1","0","0","0","1","0","1","100","","2020-04-07 15:41:00"
"CIRCASIA","QUINDÍO","4.61779204337","-75.636528232","3","3","0","0","3","0","0","","","","2020-04-07 15:41:00"
"COCORNA","ANTIOQUIA","6.05830633507","-75.185481011","1","1","0","0","1","0","0","","","","2020-04-07 15:41:00"
"COTA","CUNDINAMARCA","4.81298776927","-74.1027264632","9","9","0","0","9","0","0","","","","2020-04-07 15:41:00"
"CUCUTA","NORTE DE SANTANDER","7.90530629465","-72.5082561962","20","23","1","2","19","0","1","1","4.3478260869565","4.3478260869565","2020-04-07 15:41:00"
"CUMBAL","NARIÑO","0.906185360866","-77.7922766205","2","2","0","0","2","0","0","","","","2020-04-07 15:41:00"
"DARIEN","VALLE DEL CAUCA","3.93352446268","-76.4843917469","1","1","0","0","1","0","0","","","","2020-04-07 15:41:00"
"DON MATIAS","ANTIOQUIA","6.485833","-75.395278","1","1","0","0","1","0","0","","","","2020-04-07 15:41:00"
"DOSQUEBRADAS","RISARALDA","4.82718783235","-75.6824691212","9","9","0","0","8","0","1","1","11.111111111111","","2020-04-07 15:41:00"
"EL DOVIO","VALLE DEL CAUCA","4.51045288499","-76.2370841098","3","3","0","0","3","0","0","","","","2020-04-07 15:41:00"
"EL RETIRO","ANTIOQUIA","9.1693328895","-74.7349072463","1","1","0","0","1","0","0","","","","2020-04-07 15:41:00"
"ENVIGADO","ANTIOQUIA","6.16700455162","-75.5830101409","18","18","0","0","14","4","0","4","22.222222222222","","2020-04-07 15:41:00"
"FILANDIA","QUINDÍO","4.67414557186","-75.6586858841","1","1","0","0","1","0","0","","","","2020-04-07 15:41:00"
"FLORIDABLANCA","SANTANDER","7.07236040291","-73.0990326168","4","4","0","0","3","0","1","1","25","","2020-04-07 15:41:00"
"FRONTINO","ANTIOQUIA","6.77606591161","-76.1307651388","1","1","0","0","1","0","0","","","","2020-04-07 15:41:00"
"FUNZA","CUNDINAMARCA","4.7127630154","-74.2115250018","2","2","0","0","2","0","0","","","","2020-04-07 15:41:00"
"FUSAGASUGA","CUNDINAMARCA","4.33848085051","-74.3663339328","1","1","0","0","1","0","0","","","","2020-04-07 15:41:00"
"GALAPA","ATLÁNTICO","10.9196410045","-74.8669380999","1","1","0","0","1","0","0","","","","2020-04-07 15:41:00"
"GUACARI","VALLE DEL CAUCA","3.76290900784","-76.3313673514","1","1","0","0","1","0","0","","","","2020-04-07 15:41:00"
"GUARNE","ANTIOQUIA","6.2780640767","-75.441653922","2","2","0","0","2","0","0","","","","2020-04-07 15:41:00"
"GUATAPE","ANTIOQUIA","6.23259270739","-75.1622925892","0","1","0","1","0","0","0","","","","2020-04-07 15:41:00"
"IBAGUE","TOLIMA","4.43960899136","-75.1937147765","14","15","0","1","13","0","1","1","6.6666666666667","","2020-04-07 15:41:00"
"IPIALES","NARIÑO","0.827734241442","-77.6464007453","1","1","0","0","1","0","0","","","","2020-04-07 15:41:00"
"ITAGUI","ANTIOQUIA","6.16959762893","-75.6143587142","10","10","0","0","8","1","1","2","20","","2020-04-07 15:41:00"
"LA CALERA","CUNDINAMARCA","4.72034452148","-73.9697449587","1","1","0","0","0","1","0","1","100","","2020-04-07 15:41:00"
"LA CEJA","ANTIOQUIA","6.02805574408","-75.4294308862","1","1","0","0","1","0","0","","","","2020-04-07 15:41:00"
"LA DORADA","CALDAS","8.34513300359","-74.4778605477","3","3","0","0","3","0","0","","","","2020-04-07 15:41:00"
"LA ESTRELLA","ANTIOQUIA","6.15841974028","-75.6451903823","3","3","0","0","3","0","0","","","","2020-04-07 15:41:00"
"LA UNION","VALLE DEL CAUCA","6.38243035338","-75.6212252215","1","1","0","0","1","0","0","","","","2020-04-07 15:41:00"
"LORICA","CÓRDOBA","9.24085514265","-75.8159953999","1","1","0","0","1","0","0","","","","2020-04-07 15:41:00"
"MADRID","CUNDINAMARCA","9.19385244104","-74.7496541106","3","3","0","0","3","0","0","","","","2020-04-07 15:41:00"
"MANIZALES","CALDAS","7.8368375609","-75.4143614377","4","5","0","1","4","0","0","","","","2020-04-07 15:41:00"
"MEDELLIN","ANTIOQUIA","5.6101097761033","-74.886816625","114","123","1","8","104","7","3","10","8.130081300813","0.8130081300813","2020-04-07 15:41:00"
"MONTEBELLO","ANTIOQUIA","5.94632556697","-75.5235109116","3","3","0","0","3","0","0","","","","2020-04-07 15:41:00"
"MONTENEGRO","QUINDÍO","4.5629597433","-75.7518122369","2","2","0","0","2","0","0","","","","2020-04-07 15:41:00"
"MONTERIA","CÓRDOBA","8.7451325909","-75.8755779091","3","4","1","0","0","3","0","3","75","25","2020-04-07 15:41:00"
"MOSQUERA","CUNDINAMARCA","4.71137120122","-74.2317750849","3","3","0","0","2","0","1","1","33.333333333333","","2020-04-07 15:41:00"
"NEIVA","HUILA","8.55014492944","-75.5402712159","24","31","2","5","22","0","2","2","6.4516129032258","6.4516129032258","2020-04-07 15:41:00"
"OICATA","BOYACÁ","5.59523423857","-73.3084039802","1","1","0","0","1","0","0","","","","2020-04-07 15:41:00"
"PACHO","CUNDINAMARCA","5.13694229685","-74.1561166248","1","1","0","0","1","0","0","","","","2020-04-07 15:41:00"
"PALERMO","HUILA","5.73280146532","-75.6953709211","3","3","0","0","3","0","0","","","","2020-04-07 15:41:00"
"PALMIRA","VALLE DEL CAUCA","8.54978573123","-75.4510664684","23","27","0","4","22","0","1","1","3.7037037037037","","2020-04-07 15:41:00"
"PASTO","NARIÑO","1.21212436525","-77.2785763476","3","3","0","0","2","0","1","1","33.333333333333","","2020-04-07 15:41:00"
"PEREIRA","RISARALDA","8.51722410471","-76.0759945061","31","34","1","2","27","3","1","4","11.764705882353","2.9411764705882","2020-04-07 15:41:00"
"POLONUEVO","ATLÁNTICO","10.7777245089","-74.8542572499","1","1","0","0","1","0","0","","","","2020-04-07 15:41:00"
"PONEDERA","ATLÁNTICO","10.6417959278","-74.7539004396","1","1","0","0","1","0","0","","","","2020-04-07 15:41:00"
"POPAYAN","CAUCA","2.48250339062","-76.5740646841","11","12","1","0","10","1","0","1","8.3333333333333","8.3333333333333","2020-04-07 15:41:00"
"PUERTO COLOMBIA","ATLÁNTICO","11.0229400539","-74.851963565","1","1","0","0","1","0","0","","","","2020-04-07 15:41:00"
"PUERTO SANTANDER","NORTE DE SANTANDER","3.37059851251","-73.5146846138","1","1","0","0","1","0","0","","","","2020-04-07 15:41:00"
"PUERTO TEJADA","CAUCA","0.988590121237","-75.0660995429","1","1","0","0","0","1","0","1","100","","2020-04-07 15:41:00"
"RIOHACHA","LA GUAJIRA","11.5287513839","-72.911488911","1","1","0","0","1","0","0","","","","2020-04-07 15:41:00"
"RIONEGRO","ANTIOQUIA","6.14722409002","-75.3767693823","7","9","0","2","5","2","0","2","22.222222222222","","2020-04-07 15:41:00"
"SABANETA","ANTIOQUIA","6.15097018093","-75.6155852932","9","9","0","0","9","0","0","","","","2020-04-07 15:41:00"
"SAHAGUN","CÓRDOBA","8.94312541611","-75.4459203022","1","1","0","0","1","0","0","","","","2020-04-07 15:41:00"
"SAN ANDRES","SAN ANDRÉS","6.39872921828","-75.440016949","2","2","0","0","2","0","0","","","","2020-04-07 15:41:00"
"SAN FRANCISCO","ANTIOQUIA","5.96407913115","-75.1026869656","1","1","0","0","0","0","1","1","100","","2020-04-07 15:41:00"
"SAN JUAN DE RIO SECO","CUNDINAMARCA","4.848611","-74.620556","1","1","0","0","1","0","0","","","","2020-04-07 15:41:00"
"SAN PEDRO","VALLE DEL CAUCA","5.25045488109","-75.7942693728","1","1","0","0","1","0","0","","","","2020-04-07 15:41:00"
"SANTA MARTA","SANTA MARTA D.T. Y C.","8.11321398354","-75.9133161358","13","14","1","0","11","2","0","2","14.285714285714","7.1428571428571","2020-04-07 15:41:00"
"SANTA ROSA","ANTIOQUIA","9.06946150984","-74.6714498299","2","2","0","0","2","0","0","","","","2020-04-07 15:41:00"
"SANTA ROSA DE CABAL","RISARALDA","4.86752645418","-75.6200106565","1","1","0","0","1","0","0","","","","2020-04-07 15:41:00"
"SANTANA","BOYACÁ","5.77866547593","-72.945544503","2","2","0","0","2","0","0","","","","2020-04-07 15:41:00"
"SANTANDER DE QUILICHAO","CAUCA","3.01605390077","-76.4853702902","0","1","1","0","0","0","0","","","100","2020-04-07 15:41:00"
"SANTO TOMAS","ATLÁNTICO","10.756056293","-74.7541118585","1","1","0","0","1","0","0","","","","2020-04-07 15:41:00"
"SINCELEJO","SUCRE","9.30233310439","-75.3954835627","1","1","0","0","1","0","0","","","","2020-04-07 15:41:00"
"SOACHA","CUNDINAMARCA","4.58549165821","-74.2145275305","9","9","0","0","9","0","0","","","","2020-04-07 15:41:00"
"SOLEDAD","ATLÁNTICO","10.9101744673","-74.784833384","8","10","2","0","8","0","0","","","20","2020-04-07 15:41:00"
"SOPO","CUNDINAMARCA","4.90633080922","-73.9457748929","1","1","0","0","1","0","0","","","","2020-04-07 15:41:00"
"SUBACHOQUE","CUNDINAMARCA","4.92907928898","-74.1727084609","2","2","0","0","2","0","0","","","","2020-04-07 15:41:00"
"TENJO","CUNDINAMARCA","4.87196053725","-74.1439562115","1","1","0","0","0","1","0","1","100","","2020-04-07 15:41:00"
"TOCANCIPA","CUNDINAMARCA","4.96478635371","-73.9120912065","2","2","0","0","1","1","0","1","50","","2020-04-07 15:41:00"
"TOGUI","BOYACÁ","5.93743822459","-73.5136550618","8","8","0","0","8","0","0","","","","2020-04-07 15:41:00"
"TRUJILLO","VALLE DEL CAUCA","1.78795153983","-78.6122376428","1","1","0","0","1","0","0","","","","2020-04-07 15:41:00"
"TULUA","VALLE DEL CAUCA","4.08526123852","-76.1976996795","5","5","0","0","5","0","0","","","","2020-04-07 15:41:00"
"TUMACO","NARIÑO","1.80711725006","-78.7638541478","1","1","0","0","1","0","0","","","","2020-04-07 15:41:00"
"TUNJA","BOYACÁ","5.53995323795","-73.3554887287","1","2","1","0","1","0","0","","","50","2020-04-07 15:41:00"
"TURBACO","BOLÍVAR","10.3327691633","-75.4244091655","1","1","0","0","1","0","0","","","","2020-04-07 15:41:00"
"ULLOA","VALLE DEL CAUCA","4.70251391059","-75.7377474697","1","1","0","0","1","0","0","","","","2020-04-07 15:41:00"
"VALLEDUPAR","CESAR","10.4604812152","-73.259389309","14","17","0","3","12","1","1","2","11.764705882353","","2020-04-07 15:41:00"
"VILLA DEL ROSARIO","NORTE DE SANTANDER","5.89524387061","-76.5440065535","1","1","0","0","1","0","0","","","","2020-04-07 15:41:00"
"VILLAMARIA","CALDAS","5.04380668643","-75.5137606023","2","2","0","0","2","0","0","","","","2020-04-07 15:41:00"
"VILLAPINZON","CUNDINAMARCA","5.21643837183","-73.5953546674","0","2","2","0","0","0","0","","","100","2020-04-07 15:41:00"
"VILLAVICENCIO","META","8.45697278227","-76.1247069871","11","13","1","1","11","0","0","","","7.6923076923077","2020-04-07 15:41:00"
"VILLETA","CUNDINAMARCA","5.01279063928","-74.469704945","2","2","0","0","2","0","0","","","","2020-04-07 15:41:00"
"VITERBO","CALDAS","5.06266423587","-75.8706098599","1","2","0","1","1","0","0","","","","2020-04-07 15:41:00"
"YARUMAL","ANTIOQUIA","6.96387235163","-75.4188331376","1","1","0","0","1","0","0","","","","2020-04-07 15:41:00"
"YOPAL","CASANARE","5.3276126513","-72.396915159","1","2","0","1","1","0","0","","","","2020-04-07 15:41:00"
"YUMBO","VALLE DEL CAUCA","3.52896890809","-76.499819783","6","6","0","0","6","0","0","","","","2020-04-07 15:41:00"
"ZIPAQUIRA","CUNDINAMARCA","5.02547168537","-73.9944712419","2","3","1","0","2","0","0","","","33.333333333333","2020-04-07 15:41:00"
