"DIVIPOLA","City_Municipality","ID_Deparment","Department","Latitude","Longitude","Active","Confirmed","Deaths","Recovered","House","Hospital","ICU","People_Hospitalized","Total_Hospital_Beds","Total_Hospital_Beds_Utilisation","Total_Hospitalization_Rate","Mild_Rate","Severe_Rate","Critical_Rate","Lethality_Rate","Mortality_Rate","Recovery_Rates","Active_Rate","Last_Update"
"5001","Medellin","5","Antioquia","5.610109776","-74.88681663","131","308","3","174","122","5","4","9","2885","0.312","2.922","39.610","1.623","1.299","0.974","0.118","56.494","42.532","2020-05-11 16:55:00"
"5030","Amaga","5","Antioquia","6.038808575","-75.70194607","1","1","0","0","1","0","0","0","5","0.000","0.000","100.000","0.000","0.000","0.000","0.000","0.000","100.000","2020-05-11 16:55:00"
"5034","Andes","5","Antioquia","5.656774852","-75.87879189","1","1","0","0","1","0","0","0","10","0.000","0.000","100.000","0.000","0.000","0.000","0.000","0.000","100.000","2020-05-11 16:55:00"
"5038","Angostura","5","Antioquia","6.885174591","-75.33511597","0","1","0","1","0","0","0","0","3","0.000","0.000","0.000","0.000","0.000","0.000","0.000","100.000","0.000","2020-05-11 16:55:00"
"5045","Apartado","5","Antioquia","7.883417406","-76.62596065","0","4","0","4","0","0","0","0","158","0.000","0.000","0.000","0.000","0.000","0.000","0.000","100.000","0.000","2020-05-11 16:55:00"
"5079","Barbosa","5","Antioquia","6.439226882","-75.33164423","1","1","0","0","1","0","0","0","7","0.000","0.000","100.000","0.000","0.000","0.000","0.000","0.000","100.000","2020-05-11 16:55:00"
"5088","Bello","5","Antioquia","6.334068836","-75.55466507","19","50","1","30","18","0","1","1","355","0.282","2.000","36.000","0.000","2.000","2.000","0.181","60.000","38.000","2020-05-11 16:55:00"
"5129","Caldas","5","Antioquia","6.091296966","-75.63361872","0","3","0","3","0","0","0","0","49","0.000","0.000","0.000","0.000","0.000","0.000","0.000","100.000","0.000","2020-05-11 16:55:00"
"5148","El Carmen de Viboral","5","Antioquia","6.084551516","-75.33536246","1","1","0","0","1","0","0","0","11","0.000","0.000","100.000","0.000","0.000","0.000","0.000","0.000","100.000","2020-05-11 16:55:00"
"5190","Cisneros","5","Antioquia","6.537761957","-75.08720761","1","1","0","0","1","0","0","0","6","0.000","0.000","100.000","0.000","0.000","0.000","0.000","0.000","100.000","2020-05-11 16:55:00"
"5197","Cocorna","5","Antioquia","6.058306335","-75.18548101","0","1","0","1","0","0","0","0","2","0.000","0.000","0.000","0.000","0.000","0.000","0.000","100.000","0.000","2020-05-11 16:55:00"
"5212","Copacabana","5","Antioquia","6.348640545","-75.5093439","7","12","0","5","5","2","0","2","6","33.333","16.667","41.667","16.667","0.000","0.000","0.000","41.667","58.333","2020-05-11 16:55:00"
"5237","Donmatias","5","Antioquia","6.484469957","-75.39272406","0","1","0","1","0","0","0","0","3","0.000","0.000","0.000","0.000","0.000","0.000","0.000","100.000","0.000","2020-05-11 16:55:00"
"5266","Envigado","5","Antioquia","6.167004552","-75.58301014","5","26","0","21","5","0","0","0","131","0.000","0.000","19.231","0.000","0.000","0.000","0.000","80.769","19.231","2020-05-11 16:55:00"
"5284","Frontino","5","Antioquia","6.776065912","-76.13076514","0","1","0","1","0","0","0","0","5","0.000","0.000","0.000","0.000","0.000","0.000","0.000","100.000","0.000","2020-05-11 16:55:00"
"5313","Granada","5","Antioquia","6.142896667","-75.18444508","0","1","1","0","0","0","0","0","1","0.000","0.000","0.000","0.000","0.000","100.000","10.242","0.000","0.000","2020-05-11 16:55:00"
"5318","Guarne","5","Antioquia","6.278064077","-75.44165392","1","3","0","2","1","0","0","0","4","0.000","0.000","33.333","0.000","0.000","0.000","0.000","66.667","33.333","2020-05-11 16:55:00"
"5321","Guatape","5","Antioquia","6.232592707","-75.16229259","1","2","0","1","1","0","0","0","2","0.000","0.000","50.000","0.000","0.000","0.000","0.000","50.000","50.000","2020-05-11 16:55:00"
"5360","Itagui","5","Antioquia","6.169597629","-75.61435871","3","14","0","11","2","1","0","1","168","0.595","7.143","14.286","7.143","0.000","0.000","0.000","78.571","21.429","2020-05-11 16:55:00"
"5376","La Ceja","5","Antioquia","6.028055744","-75.42943089","0","2","0","2","0","0","0","0","120","0.000","0.000","0.000","0.000","0.000","0.000","0.000","100.000","0.000","2020-05-11 16:55:00"
"5380","La Estrella","5","Antioquia","6.15841974","-75.64519038","5","9","0","4","5","0","0","0","3","0.000","0.000","55.556","0.000","0.000","0.000","0.000","44.444","55.556","2020-05-11 16:55:00"
"5467","Montebello","5","Antioquia","5.946325567","-75.52351091","2","3","0","1","2","0","0","0","2","0.000","0.000","66.667","0.000","0.000","0.000","0.000","33.333","66.667","2020-05-11 16:55:00"
"5607","Retiro","5","Antioquia","6.063379954","-75.50137516","0","1","0","1","0","0","0","0","12","0.000","0.000","0.000","0.000","0.000","0.000","0.000","100.000","0.000","2020-05-11 16:55:00"
"5615","Rionegro","5","Antioquia","6.14722409","-75.37676938","1","11","0","10","1","0","0","0","304","0.000","0.000","9.091","0.000","0.000","0.000","0.000","90.909","9.091","2020-05-11 16:55:00"
"5631","Sabaneta","5","Antioquia","6.150970181","-75.61558529","0","9","0","9","0","0","0","0","22","0.000","0.000","0.000","0.000","0.000","0.000","0.000","100.000","0.000","2020-05-11 16:55:00"
"5652","San Francisco","5","Antioquia","5.964079131","-75.10268697","0","1","1","0","0","0","0","0","3","0.000","0.000","0.000","0.000","0.000","100.000","16.981","0.000","0.000","2020-05-11 16:55:00"
"5665","San Pedro de Uraba","5","Antioquia","8.276886664","-76.38057789","1","1","0","0","1","0","0","0","5","0.000","0.000","100.000","0.000","0.000","0.000","0.000","0.000","100.000","2020-05-11 16:55:00"
"5686","Santa Rosa de Osos","5","Antioquia","6.643326001","-75.46074502","0","2","0","2","0","0","0","0","6","0.000","0.000","0.000","0.000","0.000","0.000","0.000","100.000","0.000","2020-05-11 16:55:00"
"5697","El Santuario","5","Antioquia","6.137046858","-75.26584979","0","1","0","1","0","0","0","0","4","0.000","0.000","0.000","0.000","0.000","0.000","0.000","100.000","0.000","2020-05-11 16:55:00"
"5756","Sonson","5","Antioquia","5.714811641","-75.30939515","1","2","0","1","1","0","0","0","4","0.000","0.000","50.000","0.000","0.000","0.000","0.000","50.000","50.000","2020-05-11 16:55:00"
"8001","Barranquilla","8","Atlantico","10.97592682","-74.79525905","399","481","24","58","355","38","6","44","2591","1.698","9.148","73.805","7.900","1.247","4.990","1.883","12.058","82.952","2020-05-11 16:55:00"
"8078","Baranoa","8","Atlantico","10.79488048","-74.91609981","10","12","0","2","10","0","0","0","218","0.000","0.000","83.333","0.000","0.000","0.000","0.000","16.667","83.333","2020-05-11 16:55:00"
"8141","Candelaria","8","Atlantico","10.46121723","-74.8799126","1","1","0","0","1","0","0","0","2","0.000","0.000","100.000","0.000","0.000","0.000","0.000","0.000","100.000","2020-05-11 16:55:00"
"8296","Galapa","8","Atlantico","10.919641","-74.8669381","9","10","0","1","9","0","0","0","5","0.000","0.000","90.000","0.000","0.000","0.000","0.000","10.000","90.000","2020-05-11 16:55:00"
"8433","Malambo","8","Atlantico","10.85628724","-74.77424057","68","74","4","2","58","8","2","10","52","19.231","13.514","78.378","10.811","2.703","5.405","2.866","2.703","91.892","2020-05-11 16:55:00"
"8436","Manati","8","Atlantico","10.44896238","-74.95703499","3","3","0","0","3","0","0","0","1","0.000","0.000","100.000","0.000","0.000","0.000","0.000","0.000","100.000","2020-05-11 16:55:00"
"8520","Palmar de Varela","8","Atlantico","10.73858326","-74.75475789","12","12","0","0","12","0","0","0","36","0.000","0.000","100.000","0.000","0.000","0.000","0.000","0.000","100.000","2020-05-11 16:55:00"
"8558","Polonuevo","8","Atlantico","10.77772451","-74.85425725","7","8","0","1","7","0","0","0","3","0.000","0.000","87.500","0.000","0.000","0.000","0.000","12.500","87.500","2020-05-11 16:55:00"
"8560","Ponedera","8","Atlantico","10.64179593","-74.75390044","0","1","0","1","0","0","0","0","11","0.000","0.000","0.000","0.000","0.000","0.000","0.000","100.000","0.000","2020-05-11 16:55:00"
"8573","Puerto Colombia","8","Atlantico","11.02294005","-74.85196357","7","10","1","2","6","1","0","1","344","0.291","10.000","60.000","10.000","0.000","10.000","1.864","20.000","70.000","2020-05-11 16:55:00"
"8634","Sabanagrande","8","Atlantico","10.79107595","-74.75850721","53","54","0","1","53","0","0","0","41","0.000","0.000","98.148","0.000","0.000","0.000","0.000","1.852","98.148","2020-05-11 16:55:00"
"8638","Sabanalarga","8","Atlantico","10.63283523","-74.92109368","10","10","0","0","10","0","0","0","114","0.000","0.000","100.000","0.000","0.000","0.000","0.000","0.000","100.000","2020-05-11 16:55:00"
"8675","Santa Lucia","8","Atlantico","10.32327321","-74.95897145","0","1","1","0","0","0","0","0","0","","0.000","0.000","0.000","0.000","100.000","5.847","0.000","0.000","2020-05-11 16:55:00"
"8685","Santo Tomas","8","Atlantico","10.75605629","-74.75411186","9","11","1","1","9","0","0","0","32","0.000","0.000","81.818","0.000","0.000","9.091","3.125","9.091","81.818","2020-05-11 16:55:00"
"8758","Soledad","8","Atlantico","10.91017447","-74.78483338","309","334","10","15","301","6","2","8","327","2.446","2.395","90.120","1.796","0.599","2.994","1.504","4.491","92.515","2020-05-11 16:55:00"
"11001","Bogota D.C.","11","Bogota D.C.","4.65017303","-74.107359","2993","4305","149","1163","2714","241","36","277","7247","3.822","6.434","63.043","5.598","0.836","3.461","1.924","27.015","69.524","2020-05-11 16:55:00"
"13001","Cartagena de Indias","19","Bolivar","10.38498552","-75.49643103","507","689","47","135","424","72","10","82","1588","5.164","11.901","61.538","10.450","1.451","6.821","4.569","19.594","73.585","2020-05-11 16:55:00"
"13052","Arjona","19","Bolivar","10.25663152","-75.34448845","7","11","0","4","7","0","0","0","10","0.000","0.000","63.636","0.000","0.000","0.000","0.000","36.364","63.636","2020-05-11 16:55:00"
"13074","Barranco de Loba","19","Bolivar","8.947730158","-74.10522428","0","1","1","0","0","0","0","0","6","0.000","0.000","0.000","0.000","0.000","100.000","6.587","0.000","0.000","2020-05-11 16:55:00"
"13140","Calamar","19","Bolivar","10.25196336","-74.91362928","0","1","1","0","0","0","0","0","7","0.000","0.000","0.000","0.000","0.000","100.000","4.330","0.000","0.000","2020-05-11 16:55:00"
"13430","Magangue","19","Bolivar","9.268563794","-74.77017457","2","2","0","0","1","1","0","1","220","0.455","50.000","50.000","50.000","0.000","0.000","0.000","0.000","100.000","2020-05-11 16:55:00"
"13442","Maria la Baja","19","Bolivar","9.982645517","-75.30075935","1","1","0","0","0","1","0","1","1","100.000","100.000","0.000","100.000","0.000","0.000","0.000","0.000","100.000","2020-05-11 16:55:00"
"13620","San Cristobal","19","Bolivar","10.39285577","-75.06553417","1","1","0","0","0","0","1","1","1","100.000","100.000","0.000","0.000","100.000","0.000","0.000","0.000","100.000","2020-05-11 16:55:00"
"13683","Santa Rosa","19","Bolivar","10.44439608","-75.36983166","7","8","0","1","7","0","0","0","16","0.000","0.000","87.500","0.000","0.000","0.000","0.000","12.500","87.500","2020-05-11 16:55:00"
"13836","Turbaco","19","Bolivar","10.33276916","-75.42440917","13","23","1","9","12","1","0","1","70","1.429","4.348","52.174","4.348","0.000","4.348","0.882","39.130","56.522","2020-05-11 16:55:00"
"13838","Turbana","19","Bolivar","10.27440205","-75.44250247","3","3","0","0","2","1","0","1","1","100.000","33.333","66.667","33.333","0.000","0.000","0.000","0.000","100.000","2020-05-11 16:55:00"
"13873","Villanueva","19","Bolivar","10.44449833","-75.27475439","2","2","0","0","1","1","0","1","1","100.000","50.000","50.000","50.000","0.000","0.000","0.000","0.000","100.000","2020-05-11 16:55:00"
"15001","Tunja","15","Boyaca","5.539953238","-73.35548873","3","8","1","4","2","0","1","1","299","0.334","12.500","25.000","0.000","12.500","12.500","0.558","50.000","37.500","2020-05-11 16:55:00"
"15047","Aquitania","15","Boyaca","5.518603543","-72.88398481","1","1","0","0","1","0","0","0","3","0.000","0.000","100.000","0.000","0.000","0.000","0.000","0.000","100.000","2020-05-11 16:55:00"
"15131","Caldas","15","Boyaca","5.554575079","-73.865541","1","1","0","0","0","1","0","1","0","","100.000","0.000","100.000","0.000","0.000","0.000","0.000","100.000","2020-05-11 16:55:00"
"15176","Chiquinquira","15","Boyaca","5.61412789","-73.81838763","7","7","0","0","6","1","0","1","47","2.128","14.286","85.714","14.286","0.000","0.000","0.000","0.000","100.000","2020-05-11 16:55:00"
"15223","Cubara","15","Boyaca","7.000092875","-72.11068776","2","2","0","0","1","0","0","0","3","0.000","0.000","50.000","0.000","0.000","0.000","0.000","0.000","100.000","2020-05-11 16:55:00"
"15238","Duitama","15","Boyaca","5.82298568","-73.03060967","9","9","0","0","8","1","0","1","110","0.909","11.111","88.889","11.111","0.000","0.000","0.000","0.000","100.000","2020-05-11 16:55:00"
"15299","Garagoa","15","Boyaca","5.083243463","-73.36442756","1","2","1","0","1","0","0","0","15","0.000","0.000","50.000","0.000","0.000","50.000","5.458","0.000","50.000","2020-05-11 16:55:00"
"15407","Villa de Leyva","15","Boyaca","5.632661849","-73.5246846","5","5","0","0","4","1","0","1","3","33.333","20.000","80.000","20.000","0.000","0.000","0.000","0.000","100.000","2020-05-11 16:55:00"
"15469","Moniquira","15","Boyaca","5.876334811","-73.57337039","2","2","0","0","0","2","0","2","19","10.526","100.000","0.000","100.000","0.000","0.000","0.000","0.000","100.000","2020-05-11 16:55:00"
"15480","Muzo","15","Boyaca","5.532462867","-74.10275078","1","1","0","0","1","0","0","0","4","0.000","0.000","100.000","0.000","0.000","0.000","0.000","0.000","100.000","2020-05-11 16:55:00"
"15500","Oicata","15","Boyaca","5.595234239","-73.30840398","0","1","0","1","0","0","0","0","22","0.000","0.000","0.000","0.000","0.000","0.000","0.000","100.000","0.000","2020-05-11 16:55:00"
"15516","Paipa","15","Boyaca","5.77994187","-73.11791688","2","2","0","0","0","2","0","2","4","50.000","100.000","0.000","100.000","0.000","0.000","0.000","0.000","100.000","2020-05-11 16:55:00"
"15646","Samaca","15","Boyaca","5.492314591","-73.48564359","0","1","1","0","0","0","0","0","3","0.000","0.000","0.000","0.000","0.000","100.000","5.314","0.000","0.000","2020-05-11 16:55:00"
"15686","Santana","15","Boyaca","6.057413107","-73.48122632","2","4","0","2","2","0","0","0","0","","0.000","50.000","0.000","0.000","0.000","0.000","50.000","50.000","2020-05-11 16:55:00"
"15693","Santa Rosa de Viterbo","15","Boyaca","5.874555597","-72.98246092","1","1","0","0","0","1","0","1","0","","100.000","0.000","100.000","0.000","0.000","0.000","0.000","100.000","2020-05-11 16:55:00"
"15696","Santa Sofia","15","Boyaca","5.713269421","-73.60270717","1","1","0","0","1","0","0","0","0","","0.000","100.000","0.000","0.000","0.000","0.000","0.000","100.000","2020-05-11 16:55:00"
"15757","Socha","15","Boyaca","5.996713021","-72.69196586","3","3","0","0","3","0","0","0","2","0.000","0.000","100.000","0.000","0.000","0.000","0.000","0.000","100.000","2020-05-11 16:55:00"
"15759","Sogamoso","15","Boyaca","5.72568939","-72.92304769","7","7","0","0","4","3","0","3","171","1.754","42.857","57.143","42.857","0.000","0.000","0.000","0.000","100.000","2020-05-11 16:55:00"
"15798","Tenza","15","Boyaca","5.077074351","-73.42058911","0","2","0","2","0","0","0","0","0","","0.000","0.000","0.000","0.000","0.000","0.000","100.000","0.000","2020-05-11 16:55:00"
"15816","Togui","15","Boyaca","5.937438225","-73.51365506","4","14","0","10","4","0","0","0","0","","0.000","28.571","0.000","0.000","0.000","0.000","71.429","28.571","2020-05-11 16:55:00"
"15835","Turmeque","15","Boyaca","5.323252768","-73.49184702","3","3","0","0","3","0","0","0","2","0.000","0.000","100.000","0.000","0.000","0.000","0.000","0.000","100.000","2020-05-11 16:55:00"
"17001","Manizales","5","Caldas","5.057688197","-75.49104898","11","24","1","12","10","1","0","1","796","0.126","4.167","41.667","4.167","0.000","4.167","0.224","50.000","45.833","2020-05-11 16:55:00"
"17042","Anserma","5","Caldas","5.236474391","-75.78434266","0","1","0","1","0","0","0","0","10","0.000","0.000","0.000","0.000","0.000","0.000","0.000","100.000","0.000","2020-05-11 16:55:00"
"17174","Chinchina","5","Caldas","4.985812862","-75.60748073","0","4","0","4","0","0","0","0","38","0.000","0.000","0.000","0.000","0.000","0.000","0.000","100.000","0.000","2020-05-11 16:55:00"
"17380","La Dorada","5","Caldas","5.444406098","-74.65820562","35","53","2","16","35","0","0","0","61","0.000","0.000","66.038","0.000","0.000","3.774","2.702","30.189","66.038","2020-05-11 16:55:00"
"17442","Marmato","5","Caldas","5.47400482","-75.60024162","1","1","0","0","1","0","0","0","5","0.000","0.000","100.000","0.000","0.000","0.000","0.000","0.000","100.000","2020-05-11 16:55:00"
"17444","Marquetalia","5","Caldas","5.297524561","-75.05309703","5","5","0","0","4","1","0","1","5","20.000","20.000","80.000","20.000","0.000","0.000","0.000","0.000","100.000","2020-05-11 16:55:00"
"17495","Norcasia","5","Caldas","5.574795393","-74.88954408","0","1","1","0","0","0","0","0","4","0.000","0.000","0.000","0.000","0.000","100.000","16.319","0.000","0.000","2020-05-11 16:55:00"
"17614","Riosucio","5","Caldas","5.423680913","-75.70206971","1","1","0","0","1","0","0","0","14","0.000","0.000","100.000","0.000","0.000","0.000","0.000","0.000","100.000","2020-05-11 16:55:00"
"17616","Risaralda","5","Caldas","5.164508957","-75.76721954","1","1","0","0","0","1","0","1","6","16.667","100.000","0.000","100.000","0.000","0.000","0.000","0.000","100.000","2020-05-11 16:55:00"
"17662","Samana","5","Caldas","5.413086301","-74.99225776","1","1","0","0","1","0","0","0","9","0.000","0.000","100.000","0.000","0.000","0.000","0.000","0.000","100.000","2020-05-11 16:55:00"
"17873","Villamaria","5","Caldas","5.043806686","-75.5137606","3","6","0","3","3","0","0","0","7","0.000","0.000","50.000","0.000","0.000","0.000","0.000","50.000","50.000","2020-05-11 16:55:00"
"17877","Viterbo","5","Caldas","5.062664236","-75.87060986","0","2","0","2","0","0","0","0","3","0.000","0.000","0.000","0.000","0.000","0.000","0.000","100.000","0.000","2020-05-11 16:55:00"
"18001","Florencia","18","Caqueta","1.61792293","-75.60856043","15","16","1","0","15","0","0","0","257","0.000","0.000","93.750","0.000","0.000","6.250","0.578","0.000","93.750","2020-05-11 16:55:00"
"19001","Popayan","47","Cauca","2.482503391","-76.57406468","10","24","1","13","10","0","0","0","660","0.000","0.000","41.667","0.000","0.000","4.167","0.307","54.167","41.667","2020-05-11 16:55:00"
"19142","Caloto","47","Cauca","3.034070778","-76.40848704","1","1","0","0","1","0","0","0","4","0.000","0.000","100.000","0.000","0.000","0.000","0.000","0.000","100.000","2020-05-11 16:55:00"
"19256","El Tambo","47","Cauca","2.45137136","-76.81077225","4","4","0","0","4","0","0","0","5","0.000","0.000","100.000","0.000","0.000","0.000","0.000","0.000","100.000","2020-05-11 16:55:00"
"19300","Guachene","47","Cauca","3.134153295","-76.39218874","0","1","0","1","0","0","0","0","0","","0.000","0.000","0.000","0.000","0.000","0.000","100.000","0.000","2020-05-11 16:55:00"
"19455","Miranda","47","Cauca","3.253095405","-76.22886987","1","6","1","4","1","0","0","0","3","0.000","0.000","16.667","0.000","0.000","16.667","3.117","66.667","16.667","2020-05-11 16:55:00"
"19548","Piendamo","47","Cauca","2.641987578","-76.52850592","6","6","0","0","5","1","0","1","5","20.000","16.667","83.333","16.667","0.000","0.000","0.000","0.000","100.000","2020-05-11 16:55:00"
"19573","Puerto Tejada","47","Cauca","3.233294127","-76.4173078","3","3","0","0","3","0","0","0","9","0.000","0.000","100.000","0.000","0.000","0.000","0.000","0.000","100.000","2020-05-11 16:55:00"
"19698","Santander de Quilichao","47","Cauca","3.016053901","-76.48537029","2","3","1","0","1","1","0","1","32","3.125","33.333","33.333","33.333","0.000","33.333","0.885","0.000","66.667","2020-05-11 16:55:00"
"19807","Timbio","47","Cauca","2.349976425","-76.68423879","1","2","0","1","1","0","0","0","5","0.000","0.000","50.000","0.000","0.000","0.000","0.000","50.000","50.000","2020-05-11 16:55:00"
"19845","Villa rica","47","Cauca","3.177577926","-76.45787266","0","1","1","0","0","0","0","0","1","0.000","0.000","0.000","0.000","0.000","100.000","4.689","0.000","0.000","2020-05-11 16:55:00"
"20001","Valledupar","20","Cesar","10.46048122","-73.25938931","14","52","6","32","12","2","0","2","1264","0.158","3.846","23.077","3.846","0.000","11.538","1.126","61.538","26.923","2020-05-11 16:55:00"
"20011","Aguachica","20","Cesar","8.310336958","-73.59902859","0","2","1","1","0","0","0","0","185","0.000","0.000","0.000","0.000","0.000","50.000","0.843","50.000","0.000","2020-05-11 16:55:00"
"20013","Agustin Codazzi","20","Cesar","10.04045799","-73.23839617","5","6","0","1","4","1","0","1","59","1.695","16.667","66.667","16.667","0.000","0.000","0.000","16.667","83.333","2020-05-11 16:55:00"
"20060","Bosconia","20","Cesar","9.9750947","-73.88876766","2","2","0","0","2","0","0","0","95","0.000","0.000","100.000","0.000","0.000","0.000","0.000","0.000","100.000","2020-05-11 16:55:00"
"20178","Chiriguana","20","Cesar","9.361189611","-73.60014444","1","1","0","0","1","0","0","0","37","0.000","0.000","100.000","0.000","0.000","0.000","0.000","0.000","100.000","2020-05-11 16:55:00"
"20400","La Jagua de Ibirico","20","Cesar","9.5638873","-73.33422791","1","1","0","0","1","0","0","0","32","0.000","0.000","100.000","0.000","0.000","0.000","0.000","0.000","100.000","2020-05-11 16:55:00"
"20614","Rio de Oro","20","Cesar","8.292287384","-73.3863952","0","2","2","0","0","0","0","0","4","0.000","0.000","0.000","0.000","0.000","100.000","11.240","0.000","0.000","2020-05-11 16:55:00"
"20621","La Paz","20","Cesar","10.38748954","-73.17136291","0","1","0","1","0","0","0","0","2","0.000","0.000","0.000","0.000","0.000","0.000","0.000","100.000","0.000","2020-05-11 16:55:00"
"20750","San Diego","20","Cesar","10.33303286","-73.18121808","2","3","0","1","2","0","0","0","5","0.000","0.000","66.667","0.000","0.000","0.000","0.000","33.333","66.667","2020-05-11 16:55:00"
"20770","San Martin","20","Cesar","7.999895459","-73.51097518","0","2","2","0","0","0","0","0","6","0.000","0.000","0.000","0.000","0.000","100.000","6.952","0.000","0.000","2020-05-11 16:55:00"
"23001","Monteria","5","Cordoba","8.745132591","-75.87557791","14","23","1","8","11","3","0","3","1144","0.262","13.043","47.826","13.043","0.000","4.348","0.198","34.783","60.870","2020-05-11 16:55:00"
"23090","Canalete","5","Cordoba","8.786944523","-76.24139652","2","2","0","0","2","0","0","0","3","0.000","0.000","100.000","0.000","0.000","0.000","0.000","0.000","100.000","2020-05-11 16:55:00"
"23162","Cerete","5","Cordoba","8.888611812","-75.79621652","1","2","0","1","1","0","0","0","55","0.000","0.000","50.000","0.000","0.000","0.000","0.000","50.000","50.000","2020-05-11 16:55:00"
"23189","Cienaga de Oro","5","Cordoba","8.875502246","-75.62078664","0","1","1","0","0","0","0","0","6","0.000","0.000","0.000","0.000","0.000","100.000","1.652","0.000","0.000","2020-05-11 16:55:00"
"23417","Lorica","5","Cordoba","9.240855143","-75.8159954","6","7","1","0","6","0","0","0","133","0.000","0.000","85.714","0.000","0.000","14.286","0.866","0.000","85.714","2020-05-11 16:55:00"
"23466","Montelibano","5","Cordoba","7.973777244","-75.41681813","1","1","0","0","1","0","0","0","35","0.000","0.000","100.000","0.000","0.000","0.000","0.000","0.000","100.000","2020-05-11 16:55:00"
"23660","Sahagun","5","Cordoba","8.943125416","-75.4459203","0","1","0","1","0","0","0","0","120","0.000","0.000","0.000","0.000","0.000","0.000","0.000","100.000","0.000","2020-05-11 16:55:00"
"23807","Tierralta","5","Cordoba","8.170378684","-76.05969659","1","2","0","1","0","0","1","1","14","7.143","50.000","0.000","0.000","50.000","0.000","0.000","50.000","50.000","2020-05-11 16:55:00"
"25001","Agua de dios","47","Cundinamarca","4.375312017","-74.66921778","0","1","1","0","0","0","0","0","6","0.000","0.000","0.000","0.000","0.000","100.000","8.114","0.000","0.000","2020-05-11 16:55:00"
"25035","Anapoima","47","Cundinamarca","4.562956175","-74.52851753","0","2","0","2","0","0","0","0","0","","0.000","0.000","0.000","0.000","0.000","0.000","100.000","0.000","2020-05-11 16:55:00"
"25126","Cajica","47","Cundinamarca","4.920809059","-74.02345397","5","17","0","12","5","0","0","0","23","0.000","0.000","29.412","0.000","0.000","0.000","0.000","70.588","29.412","2020-05-11 16:55:00"
"25175","Chia","47","Cundinamarca","4.866065424","-74.05034682","10","30","1","19","10","0","0","0","125","0.000","0.000","33.333","0.000","0.000","3.333","0.669","63.333","33.333","2020-05-11 16:55:00"
"25178","Chipaque","47","Cundinamarca","4.442671017","-74.04487563","1","1","0","0","1","0","0","0","0","","0.000","100.000","0.000","0.000","0.000","0.000","0.000","100.000","2020-05-11 16:55:00"
"25181","Choachi","47","Cundinamarca","4.527047921","-73.92289448","0","1","0","1","0","0","0","0","0","","0.000","0.000","0.000","0.000","0.000","0.000","100.000","0.000","2020-05-11 16:55:00"
"25200","Cogua","47","Cundinamarca","5.061841798","-73.97849669","2","2","0","0","2","0","0","0","0","","0.000","100.000","0.000","0.000","0.000","0.000","0.000","100.000","2020-05-11 16:55:00"
"25214","Cota","47","Cundinamarca","4.812987769","-74.10272646","1","10","0","9","1","0","0","0","0","","0.000","10.000","0.000","0.000","0.000","0.000","90.000","10.000","2020-05-11 16:55:00"
"25269","Facatativa","47","Cundinamarca","4.813064178","-74.35022793","7","8","0","1","4","3","0","3","171","1.754","37.500","50.000","37.500","0.000","0.000","0.000","12.500","87.500","2020-05-11 16:55:00"
"25279","Fomeque","47","Cundinamarca","4.485474345","-73.89252259","2","2","0","0","2","0","0","0","12","0.000","0.000","100.000","0.000","0.000","0.000","0.000","0.000","100.000","2020-05-11 16:55:00"
"25286","Funza","47","Cundinamarca","4.712763015","-74.211525","11","16","0","5","9","0","2","2","10","20.000","12.500","56.250","0.000","12.500","0.000","0.000","31.250","68.750","2020-05-11 16:55:00"
"25290","Fusagasuga","47","Cundinamarca","4.338480851","-74.36633393","5","6","0","1","5","0","0","0","92","0.000","0.000","83.333","0.000","0.000","0.000","0.000","16.667","83.333","2020-05-11 16:55:00"
"25295","Gachancipa","47","Cundinamarca","4.990918172","-73.87346922","3","3","0","0","3","0","0","0","0","","0.000","100.000","0.000","0.000","0.000","0.000","0.000","100.000","2020-05-11 16:55:00"
"25320","Guaduas","47","Cundinamarca","5.071870533","-74.60295627","1","1","0","0","1","0","0","0","10","0.000","0.000","100.000","0.000","0.000","0.000","0.000","0.000","100.000","2020-05-11 16:55:00"
"25377","La Calera","47","Cundinamarca","4.720344521","-73.96974496","0","1","0","1","0","0","0","0","0","","0.000","0.000","0.000","0.000","0.000","0.000","100.000","0.000","2020-05-11 16:55:00"
"25430","Madrid","47","Cundinamarca","4.736129766","-74.26562577","3","8","0","5","3","0","0","0","14","0.000","0.000","37.500","0.000","0.000","0.000","0.000","62.500","37.500","2020-05-11 16:55:00"
"25473","Mosquera","47","Cundinamarca","4.711371201","-74.23177508","6","12","0","6","6","0","0","0","8","0.000","0.000","50.000","0.000","0.000","0.000","0.000","50.000","50.000","2020-05-11 16:55:00"
"25513","Pacho","47","Cundinamarca","5.136942297","-74.15611662","0","11","1","10","0","0","0","0","33","0.000","0.000","0.000","0.000","0.000","9.091","3.876","90.909","0.000","2020-05-11 16:55:00"
"25662","San Juan de Rioseco","47","Cundinamarca","4.847575999","-74.62191472","0","2","0","2","0","0","0","0","3","0.000","0.000","0.000","0.000","0.000","0.000","0.000","100.000","0.000","2020-05-11 16:55:00"
"25736","Sesquile","47","Cundinamarca","5.044729613","-73.79612783","2","2","0","0","2","0","0","0","7","0.000","0.000","100.000","0.000","0.000","0.000","0.000","0.000","100.000","2020-05-11 16:55:00"
"25740","Sibate","47","Cundinamarca","4.489763593","-74.25899225","7","7","0","0","7","0","0","0","3","0.000","0.000","100.000","0.000","0.000","0.000","0.000","0.000","100.000","2020-05-11 16:55:00"
"25743","Silvania","47","Cundinamarca","4.381941157","-74.40552821","1","1","0","0","0","1","0","1","6","16.667","100.000","0.000","100.000","0.000","0.000","0.000","0.000","100.000","2020-05-11 16:55:00"
"25754","Soacha","47","Cundinamarca","4.585491658","-74.21452753","49","94","4","41","48","1","0","1","194","0.515","1.064","51.064","1.064","0.000","4.255","0.531","43.617","52.128","2020-05-11 16:55:00"
"25758","Sopo","47","Cundinamarca","4.906330809","-73.94577489","4","7","0","3","4","0","0","0","7","0.000","0.000","57.143","0.000","0.000","0.000","0.000","42.857","57.143","2020-05-11 16:55:00"
"25769","Subachoque","47","Cundinamarca","4.929079289","-74.17270846","0","3","0","3","0","0","0","0","36","0.000","0.000","0.000","0.000","0.000","0.000","0.000","100.000","0.000","2020-05-11 16:55:00"
"25772","Suesca","47","Cundinamarca","5.103516839","-73.79828978","0","4","1","3","0","0","0","0","5","0.000","0.000","0.000","0.000","0.000","25.000","5.336","75.000","0.000","2020-05-11 16:55:00"
"25799","Tenjo","47","Cundinamarca","4.871960537","-74.14395621","2","6","2","2","2","0","0","0","7","0.000","0.000","33.333","0.000","0.000","33.333","8.300","33.333","33.333","2020-05-11 16:55:00"
"25817","Tocancipa","47","Cundinamarca","4.964786354","-73.91209121","1","4","0","3","1","0","0","0","0","","0.000","25.000","0.000","0.000","0.000","0.000","75.000","25.000","2020-05-11 16:55:00"
"25843","Villa de San Diego de Ubate","47","Cundinamarca","5.307540984","-73.81434634","0","2","0","2","0","0","0","0","39","0.000","0.000","0.000","0.000","0.000","0.000","0.000","100.000","0.000","2020-05-11 16:55:00"
"25845","Une","47","Cundinamarca","4.402450393","-74.02518226","1","1","0","0","1","0","0","0","0","","0.000","100.000","0.000","0.000","0.000","0.000","0.000","100.000","2020-05-11 16:55:00"
"25873","Villapinzon","47","Cundinamarca","5.216438372","-73.59535467","2","6","2","2","2","0","0","0","0","","0.000","33.333","0.000","0.000","33.333","10.850","33.333","33.333","2020-05-11 16:55:00"
"25875","Villeta","47","Cundinamarca","5.012790639","-74.46970495","0","4","0","4","0","0","0","0","20","0.000","0.000","0.000","0.000","0.000","0.000","0.000","100.000","0.000","2020-05-11 16:55:00"
"25899","Zipaquira","47","Cundinamarca","5.025471685","-73.99447124","3","14","2","9","3","0","0","0","147","0.000","0.000","21.429","0.000","0.000","14.286","1.367","64.286","21.429","2020-05-11 16:55:00"
"27001","Quibdo","27","Choco","5.692195187","-76.62596936","22","28","3","3","21","1","0","1","168","0.595","3.571","75.000","3.571","0.000","10.714","2.293","10.714","78.571","2020-05-11 16:55:00"
"41001","Neiva","41","Huila","2.935604415","-75.27772259","55","105","5","45","47","6","2","8","566","1.413","7.619","44.762","5.714","1.905","4.762","1.372","42.857","52.381","2020-05-11 16:55:00"
"41006","Acevedo","41","Huila","1.805263228","-75.88853156","1","2","0","1","0","1","0","1","5","20.000","50.000","0.000","50.000","0.000","0.000","0.000","50.000","50.000","2020-05-11 16:55:00"
"41013","Agrado","41","Huila","2.259729394","-75.77190358","1","1","0","0","1","0","0","0","2","0.000","0.000","100.000","0.000","0.000","0.000","0.000","0.000","100.000","2020-05-11 16:55:00"
"41016","Aipe","41","Huila","3.223597562","-75.23903118","3","4","0","1","3","0","0","0","4","0.000","0.000","75.000","0.000","0.000","0.000","0.000","25.000","75.000","2020-05-11 16:55:00"
"41020","Algeciras","41","Huila","2.522447597","-75.31537288","3","3","0","0","2","1","0","1","3","33.333","33.333","66.667","33.333","0.000","0.000","0.000","0.000","100.000","2020-05-11 16:55:00"
"41298","Garzon","41","Huila","2.196994421","-75.62769374","0","1","0","1","0","0","0","0","66","0.000","0.000","0.000","0.000","0.000","0.000","0.000","100.000","0.000","2020-05-11 16:55:00"
"41306","Gigante","41","Huila","2.388235625","-75.54121989","15","16","0","1","14","1","0","1","4","25.000","6.250","87.500","6.250","0.000","0.000","0.000","6.250","93.750","2020-05-11 16:55:00"
"41359","Isnos","41","Huila","1.92946706","-76.21763745","0","2","2","0","0","0","0","0","3","0.000","0.000","0.000","0.000","0.000","100.000","7.776","0.000","0.000","2020-05-11 16:55:00"
"41396","La Plata","41","Huila","2.389646694","-75.89145131","4","4","0","0","3","1","0","1","26","3.846","25.000","75.000","25.000","0.000","0.000","0.000","0.000","100.000","2020-05-11 16:55:00"
"41503","Oporapa","41","Huila","2.025054002","-75.99517781","12","12","0","0","12","0","0","0","3","0.000","0.000","100.000","0.000","0.000","0.000","0.000","0.000","100.000","2020-05-11 16:55:00"
"41518","Paicol","41","Huila","2.449548949","-75.77299232","1","2","0","1","1","0","0","0","2","0.000","0.000","50.000","0.000","0.000","0.000","0.000","50.000","50.000","2020-05-11 16:55:00"
"41524","Palermo","41","Huila","2.888406236","-75.43371912","2","5","0","3","2","0","0","0","4","0.000","0.000","40.000","0.000","0.000","0.000","0.000","60.000","40.000","2020-05-11 16:55:00"
"41551","Pitalito","41","Huila","1.852578355","-76.0487449","12","13","0","1","7","3","0","3","81","3.704","23.077","53.846","23.077","0.000","0.000","0.000","7.692","92.308","2020-05-11 16:55:00"
"41668","San Agustin","41","Huila","1.881081298","-76.27035968","1","3","0","2","0","1","0","1","7","14.286","33.333","0.000","33.333","0.000","0.000","0.000","66.667","33.333","2020-05-11 16:55:00"
"41807","Timana","41","Huila","1.974224443","-75.932087","5","6","1","0","5","0","0","0","4","0.000","0.000","83.333","0.000","0.000","16.667","4.531","0.000","83.333","2020-05-11 16:55:00"
"44001","Riohacha","44","La Guajira","11.52875138","-72.91148891","4","8","1","3","4","0","0","0","289","0.000","0.000","50.000","0.000","0.000","12.500","0.495","37.500","50.000","2020-05-11 16:55:00"
"44035","Albania","44","La Guajira","11.15748865","-72.59852163","2","2","0","0","2","0","0","0","2","0.000","0.000","100.000","0.000","0.000","0.000","0.000","0.000","100.000","2020-05-11 16:55:00"
"44098","Distraccion","44","La Guajira","10.89847259","-72.88739268","1","1","0","0","0","1","0","1","40","2.500","100.000","0.000","100.000","0.000","0.000","0.000","0.000","100.000","2020-05-11 16:55:00"
"44279","Fonseca","44","La Guajira","10.88430067","-72.84666224","2","2","0","0","1","0","1","1","5","20.000","50.000","50.000","0.000","50.000","0.000","0.000","0.000","100.000","2020-05-11 16:55:00"
"44430","Maicao","44","La Guajira","11.37832678","-72.24190502","7","8","1","0","6","1","0","1","232","0.431","12.500","75.000","12.500","0.000","12.500","0.540","0.000","87.500","2020-05-11 16:55:00"
"44650","San Juan del Cesar","44","La Guajira","10.76957868","-73.00059321","5","6","1","0","5","0","0","0","136","0.000","0.000","83.333","0.000","0.000","16.667","2.017","0.000","83.333","2020-05-11 16:55:00"
"47001","Santa Marta","47","Magdalena","11.2294335","-74.19089412","120","194","17","57","108","11","1","12","989","1.213","6.186","55.670","5.670","0.515","8.763","3.156","29.381","61.856","2020-05-11 16:55:00"
"47189","Cienaga","47","Magdalena","11.00665688","-74.24128616","43","62","3","16","40","2","1","3","102","2.941","4.839","64.516","3.226","1.613","4.839","2.413","25.806","69.355","2020-05-11 16:55:00"
"47245","El Banco","47","Magdalena","9.008733009","-73.97428121","4","5","1","0","2","2","0","2","86","2.326","40.000","40.000","40.000","0.000","20.000","1.435","0.000","80.000","2020-05-11 16:55:00"
"47570","Puebloviejo","47","Magdalena","10.99482965","-74.28248423","15","17","2","0","14","1","0","1","5","20.000","5.882","82.353","5.882","0.000","11.765","6.213","0.000","88.235","2020-05-11 16:55:00"
"47980","Zona Bananera","47","Magdalena","10.76302682","-74.14008184","5","6","1","0","3","1","1","2","7","28.571","33.333","50.000","16.667","16.667","16.667","1.353","0.000","83.333","2020-05-11 16:55:00"
"50001","Villavicencio","50","Meta","4.1238615","-73.62709204","863","902","6","33","861","1","1","2","793","0.252","0.222","95.455","0.111","0.111","0.665","1.100","3.659","95.676","2020-05-11 16:55:00"
"50006","Acacias","50","Meta","3.990120663","-73.76593665","11","13","0","2","11","0","0","0","11","0.000","0.000","84.615","0.000","0.000","0.000","0.000","15.385","84.615","2020-05-11 16:55:00"
"50313","Granada","50","Meta","3.546694724","-73.70571533","4","5","0","1","4","0","0","0","87","0.000","0.000","80.000","0.000","0.000","0.000","0.000","20.000","80.000","2020-05-11 16:55:00"
"50606","Restrepo","50","Meta","4.260731994","-73.56460418","2","4","0","2","1","1","0","1","6","16.667","25.000","25.000","25.000","0.000","0.000","0.000","50.000","50.000","2020-05-11 16:55:00"
"50683","San Juan de Arama","50","Meta","3.373727874","-73.87583154","3","3","0","0","3","0","0","0","5","0.000","0.000","100.000","0.000","0.000","0.000","0.000","0.000","100.000","2020-05-11 16:55:00"
"52001","Pasto","5","Narino","1.212124365","-77.27857635","29","41","4","8","24","5","0","5","893","0.560","12.195","58.537","12.195","0.000","9.756","1.019","19.512","70.732","2020-05-11 16:55:00"
"52036","Ancuya","5","Narino","1.263299977","-77.51451329","1","1","0","0","1","0","0","0","0","","0.000","100.000","0.000","0.000","0.000","0.000","0.000","100.000","2020-05-11 16:55:00"
"52083","Belen","5","Narino","1.595676066","-77.01566573","1","1","0","0","1","0","0","0","0","","0.000","100.000","0.000","0.000","0.000","0.000","0.000","100.000","2020-05-11 16:55:00"
"52210","Contadero","5","Narino","0.910457863","-77.54940902","2","3","0","1","2","0","0","0","1","0.000","0.000","66.667","0.000","0.000","0.000","0.000","33.333","66.667","2020-05-11 16:55:00"
"52224","Cuaspud","5","Narino","0.862978103","-77.72894683","5","6","0","1","5","0","0","0","0","","0.000","83.333","0.000","0.000","0.000","0.000","16.667","83.333","2020-05-11 16:55:00"
"52227","Cumbal","5","Narino","0.906185361","-77.79227662","1","4","0","3","1","0","0","0","5","0.000","0.000","25.000","0.000","0.000","0.000","0.000","75.000","25.000","2020-05-11 16:55:00"
"52233","Cumbitara","5","Narino","1.646845971","-77.57814673","0","1","0","1","0","0","0","0","0","","0.000","0.000","0.000","0.000","0.000","0.000","100.000","0.000","2020-05-11 16:55:00"
"52317","Guachucal","5","Narino","0.959743484","-77.73158986","1","1","0","0","1","0","0","0","4","0.000","0.000","100.000","0.000","0.000","0.000","0.000","0.000","100.000","2020-05-11 16:55:00"
"52356","Ipiales","5","Narino","0.827734241","-77.64640075","86","104","3","15","78","5","3","8","105","7.619","7.692","75.000","4.808","2.885","2.885","2.590","14.423","82.692","2020-05-11 16:55:00"
"52381","La Florida","5","Narino","1.299192232","-77.40643084","1","1","0","0","1","0","0","0","0","","0.000","100.000","0.000","0.000","0.000","0.000","0.000","100.000","2020-05-11 16:55:00"
"52399","La Union","5","Narino","1.600268613","-77.13115435","0","1","0","1","0","0","0","0","22","0.000","0.000","0.000","0.000","0.000","0.000","0.000","100.000","0.000","2020-05-11 16:55:00"
"52411","Linares","5","Narino","1.351145073","-77.52193996","1","1","0","0","0","0","1","1","1","100.000","100.000","0.000","0.000","100.000","0.000","0.000","0.000","100.000","2020-05-11 16:55:00"
"52427","Magui","5","Narino","1.765313671","-78.18106078","0","1","1","0","0","0","0","0","0","","0.000","0.000","0.000","0.000","100.000","3.915","0.000","0.000","2020-05-11 16:55:00"
"52560","Potosi","5","Narino","0.806340417","-77.57279178","4","4","0","0","3","0","1","1","0","","25.000","75.000","0.000","25.000","0.000","0.000","0.000","100.000","2020-05-11 16:55:00"
"52835","San Andres de Tumaco","5","Narino","1.80711725","-78.76385415","125","134","6","3","111","14","0","14","123","11.382","10.448","82.836","10.448","0.000","4.478","2.334","2.239","93.284","2020-05-11 16:55:00"
"52838","Tuquerres","5","Narino","1.085193359","-77.61688638","1","2","1","0","0","1","0","1","25","4.000","50.000","0.000","50.000","0.000","50.000","2.243","0.000","50.000","2020-05-11 16:55:00"
"54001","Cucuta","54","Norte de Santander","7.905306295","-72.5082562","45","79","8","26","42","2","1","3","752","0.399","3.797","53.165","2.532","1.266","10.127","1.029","32.911","56.962","2020-05-11 16:55:00"
"54003","Abrego","54","Norte de Santander","8.081784141","-73.2217344","1","1","0","0","0","1","0","1","4","25.000","100.000","0.000","100.000","0.000","0.000","0.000","0.000","100.000","2020-05-11 16:55:00"
"54405","Los Patios","54","Norte de Santander","7.833256289","-72.50571256","1","1","0","0","1","0","0","0","23","0.000","0.000","100.000","0.000","0.000","0.000","0.000","0.000","100.000","2020-05-11 16:55:00"
"54498","Ocana","54","Norte de Santander","8.247453792","-73.3558144","5","7","2","0","5","0","0","0","149","0.000","0.000","71.429","0.000","0.000","28.571","1.547","0.000","71.429","2020-05-11 16:55:00"
"54518","Pamplona","54","Norte de Santander","7.37285018","-72.64768144","1","1","0","0","1","0","0","0","37","0.000","0.000","100.000","0.000","0.000","0.000","0.000","0.000","100.000","2020-05-11 16:55:00"
"54553","Puerto Santander","54","Norte de Santander","8.360945615","-72.41031378","0","1","0","1","0","0","0","0","0","","0.000","0.000","0.000","0.000","0.000","0.000","100.000","0.000","2020-05-11 16:55:00"
"54810","Tibu","54","Norte de Santander","8.639548853","-72.73591863","3","3","0","0","1","2","0","2","9","22.222","66.667","33.333","66.667","0.000","0.000","0.000","0.000","100.000","2020-05-11 16:55:00"
"54820","Toledo","54","Norte de Santander","7.310031828","-72.48510732","0","1","0","1","0","0","0","0","3","0.000","0.000","0.000","0.000","0.000","0.000","0.000","100.000","0.000","2020-05-11 16:55:00"
"54874","Villa del Rosario","54","Norte de Santander","7.847487432","-72.47006734","3","5","0","2","3","0","0","0","4","0.000","0.000","60.000","0.000","0.000","0.000","0.000","40.000","60.000","2020-05-11 16:55:00"
"63001","Armenia","63","Quindio","4.535989502","-75.68075076","16","49","1","32","16","0","0","0","443","0.000","0.000","32.653","0.000","0.000","2.041","0.328","65.306","32.653","2020-05-11 16:55:00"
"63130","Calarca","63","Quindio","4.515281846","-75.64908836","1","8","0","7","1","0","0","0","25","0.000","0.000","12.500","0.000","0.000","0.000","0.000","87.500","12.500","2020-05-11 16:55:00"
"63190","Circasia","63","Quindio","4.617792043","-75.63652823","0","3","0","3","0","0","0","0","6","0.000","0.000","0.000","0.000","0.000","0.000","0.000","100.000","0.000","2020-05-11 16:55:00"
"63212","Cordoba","63","Quindio","4.392485449","-75.68786636","1","1","0","0","1","0","0","0","0","","0.000","100.000","0.000","0.000","0.000","0.000","0.000","100.000","2020-05-11 16:55:00"
"63272","Filandia","63","Quindio","4.674145572","-75.65868588","1","2","0","1","0","1","0","1","61","1.639","50.000","0.000","50.000","0.000","0.000","0.000","50.000","50.000","2020-05-11 16:55:00"
"63401","La Tebaida","63","Quindio","4.453650416","-75.78646018","2","3","0","1","2","0","0","0","8","0.000","0.000","66.667","0.000","0.000","0.000","0.000","33.333","66.667","2020-05-11 16:55:00"
"63470","Montenegro","63","Quindio","4.562959743","-75.75181224","1","5","1","3","1","0","0","0","7","0.000","0.000","20.000","0.000","0.000","20.000","2.665","60.000","20.000","2020-05-11 16:55:00"
"66001","Pereira","17","Risaralda","4.805680265","-75.71712306","58","146","7","81","57","0","1","1","770","0.130","0.685","39.041","0.000","0.685","4.795","1.467","55.479","39.726","2020-05-11 16:55:00"
"66170","Dosquebradas","17","Risaralda","4.827187832","-75.68246912","27","65","1","37","25","1","1","2","34","5.882","3.077","38.462","1.538","1.538","1.538","0.447","56.923","41.538","2020-05-11 16:55:00"
"66400","La Virginia","17","Risaralda","4.898666957","-75.88405843","2","2","0","0","2","0","0","0","17","0.000","0.000","100.000","0.000","0.000","0.000","0.000","0.000","100.000","2020-05-11 16:55:00"
"66682","Santa Rosa de Cabal","17","Risaralda","4.867526454","-75.62001066","1","3","0","2","1","0","0","0","8","0.000","0.000","33.333","0.000","0.000","0.000","0.000","66.667","33.333","2020-05-11 16:55:00"
"68001","Bucaramanga","23","Santander","7.116267276","-73.13259818","6","20","1","13","6","0","0","0","980","0.000","0.000","30.000","0.000","0.000","5.000","0.165","65.000","30.000","2020-05-11 16:55:00"
"68081","Barrancabermeja","23","Santander","7.064963864","-73.84995698","0","6","1","5","0","0","0","0","199","0.000","0.000","0.000","0.000","0.000","16.667","0.475","83.333","0.000","2020-05-11 16:55:00"
"68190","Cimitarra","23","Santander","6.320681867","-73.95258212","0","2","0","2","0","0","0","0","10","0.000","0.000","0.000","0.000","0.000","0.000","0.000","100.000","0.000","2020-05-11 16:55:00"
"68207","Concepcion","23","Santander","6.768836528","-72.69459425","0","1","0","1","0","0","0","0","4","0.000","0.000","0.000","0.000","0.000","0.000","0.000","100.000","0.000","2020-05-11 16:55:00"
"68229","Curiti","23","Santander","6.605106785","-73.06939052","0","1","0","1","0","0","0","0","5","0.000","0.000","0.000","0.000","0.000","0.000","0.000","100.000","0.000","2020-05-11 16:55:00"
"68276","Floridablanca","23","Santander","7.072360403","-73.09903262","1","9","1","7","1","0","0","0","403","0.000","0.000","11.111","0.000","0.000","11.111","0.325","77.778","11.111","2020-05-11 16:55:00"
"68547","Piedecuesta","23","Santander","6.997475804","-73.05466085","2","2","0","0","2","0","0","0","184","0.000","0.000","100.000","0.000","0.000","0.000","0.000","0.000","100.000","2020-05-11 16:55:00"
"68872","Villanueva","23","Santander","6.670077672","-73.17430669","1","1","0","0","1","0","0","0","11","0.000","0.000","100.000","0.000","0.000","0.000","0.000","0.000","100.000","2020-05-11 16:55:00"
"70001","Sincelejo","5","Sucre","9.302333104","-75.39548356","2","3","0","1","2","0","0","0","817","0.000","0.000","66.667","0.000","0.000","0.000","0.000","33.333","66.667","2020-05-11 16:55:00"
"70418","Los Palmitos","5","Sucre","9.380228408","-75.26874889","1","1","0","0","1","0","0","0","3","0.000","0.000","100.000","0.000","0.000","0.000","0.000","0.000","100.000","2020-05-11 16:55:00"
"73001","Ibague","23","Tolima","4.439608991","-75.19371478","91","117","3","23","88","2","1","3","587","0.511","2.564","75.214","1.709","0.855","2.564","0.554","19.658","77.778","2020-05-11 16:55:00"
"73268","Espinal","23","Tolima","4.151314221","-74.88544976","2","4","1","1","2","0","0","0","91","0.000","0.000","50.000","0.000","0.000","25.000","1.408","25.000","50.000","2020-05-11 16:55:00"
"73319","Guamo","23","Tolima","4.031003906","-74.96812715","1","1","0","0","0","1","0","1","9","11.111","100.000","0.000","100.000","0.000","0.000","0.000","0.000","100.000","2020-05-11 16:55:00"
"73449","Melgar","23","Tolima","4.208154892","-74.6298504","5","7","2","0","5","0","0","0","4","0.000","0.000","71.429","0.000","0.000","28.571","5.308","0.000","71.429","2020-05-11 16:55:00"
"73624","Rovira","23","Tolima","4.238932685","-75.2408683","1","1","0","0","1","0","0","0","5","0.000","0.000","100.000","0.000","0.000","0.000","0.000","0.000","100.000","2020-05-11 16:55:00"
"76001","Cali","76","Valle del Cauca","3.414414305","-76.52156515","720","1094","61","313","603","82","35","117","2919","4.008","10.695","55.119","7.495","3.199","5.576","2.708","28.611","65.814","2020-05-11 16:55:00"
"76020","Alcala","76","Valle del Cauca","4.674989542","-75.77981387","0","1","1","0","0","0","0","0","4","0.000","0.000","0.000","0.000","0.000","100.000","6.995","0.000","0.000","2020-05-11 16:55:00"
"76036","Andalucia","76","Valle del Cauca","4.171724416","-76.1679212","2","2","0","0","1","1","0","1","5","20.000","50.000","50.000","50.000","0.000","0.000","0.000","0.000","100.000","2020-05-11 16:55:00"
"76109","Buenaventura","76","Valle del Cauca","3.875802437","-77.0117402","54","62","4","4","48","5","1","6","125","4.800","9.677","77.419","8.065","1.613","6.452","1.283","6.452","87.097","2020-05-11 16:55:00"
"76111","Guadalajara de Buga","76","Valle del Cauca","3.900823544","-76.29896113","8","11","0","3","8","0","0","0","165","0.000","0.000","72.727","0.000","0.000","0.000","0.000","27.273","72.727","2020-05-11 16:55:00"
"76113","Bugalagrande","76","Valle del Cauca","4.208331592","-76.15680774","1","1","0","0","1","0","0","0","5","0.000","0.000","100.000","0.000","0.000","0.000","0.000","0.000","100.000","2020-05-11 16:55:00"
"76126","Calima","76","Valle del Cauca","3.933524463","-76.48439175","0","1","0","1","0","0","0","0","5","0.000","0.000","0.000","0.000","0.000","0.000","0.000","100.000","0.000","2020-05-11 16:55:00"
"76130","Candelaria","76","Valle del Cauca","3.407766466","-76.34642891","4","5","0","1","3","0","1","1","8","12.500","20.000","60.000","0.000","20.000","0.000","0.000","20.000","80.000","2020-05-11 16:55:00"
"76147","Cartago","76","Valle del Cauca","4.758755098","-75.94226404","5","13","0","8","5","0","0","0","96","0.000","0.000","38.462","0.000","0.000","0.000","0.000","61.538","38.462","2020-05-11 16:55:00"
"76233","Dagua","76","Valle del Cauca","3.657308485","-76.68887101","1","2","1","0","1","0","0","0","5","0.000","0.000","50.000","0.000","0.000","50.000","2.040","0.000","50.000","2020-05-11 16:55:00"
"76248","El Cerrito","76","Valle del Cauca","3.684258941","-76.31172554","10","14","1","3","10","0","0","0","9","0.000","0.000","71.429","0.000","0.000","7.143","1.750","21.429","71.429","2020-05-11 16:55:00"
"76250","El Dovio","76","Valle del Cauca","4.510452885","-76.23708411","0","4","1","3","0","0","0","0","3","0.000","0.000","0.000","0.000","0.000","25.000","11.606","75.000","0.000","2020-05-11 16:55:00"
"76275","Florida","76","Valle del Cauca","3.323918106","-76.23450174","5","9","1","3","5","0","0","0","19","0.000","0.000","55.556","0.000","0.000","11.111","1.725","33.333","55.556","2020-05-11 16:55:00"
"76306","Ginebra","76","Valle del Cauca","3.724181147","-76.26806789","0","1","1","0","0","0","0","0","4","0.000","0.000","0.000","0.000","0.000","100.000","4.339","0.000","0.000","2020-05-11 16:55:00"
"76318","Guacari","76","Valle del Cauca","3.762909008","-76.33136735","1","2","0","1","1","0","0","0","5","0.000","0.000","50.000","0.000","0.000","0.000","0.000","50.000","50.000","2020-05-11 16:55:00"
"76364","Jamundi","76","Valle del Cauca","3.26227576","-76.54245873","20","27","1","6","18","2","0","2","64","3.125","7.407","66.667","7.407","0.000","3.704","0.598","22.222","74.074","2020-05-11 16:55:00"
"76400","La Union","76","Valle del Cauca","4.533783288","-76.09960718","0","1","0","1","0","0","0","0","7","0.000","0.000","0.000","0.000","0.000","0.000","0.000","100.000","0.000","2020-05-11 16:55:00"
"76520","Palmira","76","Valle del Cauca","3.532349153","-76.29858255","21","51","4","26","19","2","0","2","224","0.893","3.922","37.255","3.922","0.000","7.843","1.129","50.980","41.176","2020-05-11 16:55:00"
"76606","Restrepo","76","Valle del Cauca","3.821348382","-76.52311704","1","1","0","0","1","0","0","0","3","0.000","0.000","100.000","0.000","0.000","0.000","0.000","0.000","100.000","2020-05-11 16:55:00"
"76622","Roldanillo","76","Valle del Cauca","4.4135962","-76.15228663","0","1","1","0","0","0","0","0","15","0.000","0.000","0.000","0.000","0.000","100.000","2.718","0.000","0.000","2020-05-11 16:55:00"
"76670","San Pedro","76","Valle del Cauca","3.994992607","-76.22853779","2","3","0","1","2","0","0","0","5","0.000","0.000","66.667","0.000","0.000","0.000","0.000","33.333","66.667","2020-05-11 16:55:00"
"76828","Trujillo","76","Valle del Cauca","4.212050806","-76.31880894","2","3","0","1","2","0","0","0","4","0.000","0.000","66.667","0.000","0.000","0.000","0.000","33.333","66.667","2020-05-11 16:55:00"
"76834","Tulua","76","Valle del Cauca","4.085261239","-76.19769968","13","23","3","7","11","2","0","2","266","0.752","8.696","47.826","8.696","0.000","13.043","1.371","30.435","56.522","2020-05-11 16:55:00"
"76845","Ulloa","76","Valle del Cauca","4.702513911","-75.73774747","0","1","0","1","0","0","0","0","3","0.000","0.000","0.000","0.000","0.000","0.000","0.000","100.000","0.000","2020-05-11 16:55:00"
"76869","Vijes","76","Valle del Cauca","3.698587929","-76.44196521","5","6","0","1","5","0","0","0","4","0.000","0.000","83.333","0.000","0.000","0.000","0.000","16.667","83.333","2020-05-11 16:55:00"
"76890","Yotoco","76","Valle del Cauca","3.861214584","-76.38247445","2","3","0","1","2","0","0","0","3","0.000","0.000","66.667","0.000","0.000","0.000","0.000","33.333","66.667","2020-05-11 16:55:00"
"76892","Yumbo","76","Valle del Cauca","3.528968908","-76.49981978","13","25","0","12","12","1","0","1","12","8.333","4.000","48.000","4.000","0.000","0.000","0.000","48.000","52.000","2020-05-11 16:55:00"
