"DIVIPOLA","City_Municipality","ID_Deparment","Department","Latitude","Longitude","Active","Confirmed","Deaths","Recovered","House","Hospital","ICU","People_Hospitalized","Total_Hospital_Beds","Total_Hospital_Beds_Utilisation","Total_Hospitalization_Rate","Mild_Rate","Severe_Rate","Critical_Rate","Lethality_Rate","Mortality_Rate","Recovery_Rates","Active_Rate","Last_Update"
"5001","Medellín","5","Antioquia","5.610109776","-74.88681663","131","308","3","174","122","5","4","9","2885","                                   0.3119584055459 ","                           2.9220779220779 ","    39.6103896103896 ","      1.6233766233766 ","      1.2987012987013 ","      0.9740259740260 ","      0.1184168145561 ","     56.4935064935065 ","    42.5324675324675 ","2020-05-11 16:55:00"
"5030","Amagá","5","Antioquia","6.038808575","-75.70194607","1","1","0","0","1","0","0","","5","  ","  ","  100.0000000000000 ","  ","  ","  ","  ","  ","  100.0000000000000 ","2020-05-11 16:55:00"
"5034","Andes","5","Antioquia","5.656774852","-75.87879189","1","1","0","0","1","0","0","","10","  ","  ","  100.0000000000000 ","  ","  ","  ","  ","  ","  100.0000000000000 ","2020-05-11 16:55:00"
"5038","Angostura","5","Antioquia","6.885174591","-75.33511597","0","1","0","1","0","0","0","","3","  ","  ","  ","  ","  ","  ","  ","   100.0000000000000 ","  ","2020-05-11 16:55:00"
"5045","Apartadó","5","Antioquia","7.883417406","-76.62596065","0","4","0","4","0","0","0","","158","  ","  ","  ","  ","  ","  ","  ","   100.0000000000000 ","  ","2020-05-11 16:55:00"
"5079","Barbosa","5","Antioquia","6.439226882","-75.33164423","1","1","0","0","1","0","0","","7","  ","  ","  100.0000000000000 ","  ","  ","  ","  ","  ","  100.0000000000000 ","2020-05-11 16:55:00"
"5088","Bello","5","Antioquia","6.334068836","-75.55466507","19","50","1","30","18","0","1","1","355","                                   0.2816901408451 ","                           2.0000000000000 ","    36.0000000000000 ","  ","      2.0000000000000 ","      2.0000000000000 ","      0.1811088935333 ","     60.0000000000000 ","    38.0000000000000 ","2020-05-11 16:55:00"
"5129","Caldas","5","Antioquia","6.091296966","-75.63361872","0","3","0","3","0","0","0","","49","  ","  ","  ","  ","  ","  ","  ","   100.0000000000000 ","  ","2020-05-11 16:55:00"
"5148","El Carmen de Viboral","5","Antioquia","6.084551516","-75.33536246","1","1","0","0","1","0","0","","11","  ","  ","  100.0000000000000 ","  ","  ","  ","  ","  ","  100.0000000000000 ","2020-05-11 16:55:00"
"5190","Cisneros","5","Antioquia","6.537761957","-75.08720761","1","1","0","0","1","0","0","","6","  ","  ","  100.0000000000000 ","  ","  ","  ","  ","  ","  100.0000000000000 ","2020-05-11 16:55:00"
"5197","Cocorná","5","Antioquia","6.058306335","-75.18548101","0","1","0","1","0","0","0","","2","  ","  ","  ","  ","  ","  ","  ","   100.0000000000000 ","  ","2020-05-11 16:55:00"
"5212","Copacabana","5","Antioquia","6.348640545","-75.5093439","7","12","0","5","5","2","0","2","6","                                 33.3333333333333 ","                         16.6666666666667 ","    41.6666666666667 ","    16.6666666666667 ","  ","  ","  ","     41.6666666666667 ","    58.3333333333333 ","2020-05-11 16:55:00"
"5237","Donmatías","5","Antioquia","6.484469957","-75.39272406","0","1","0","1","0","0","0","","3","  ","  ","  ","  ","  ","  ","  ","   100.0000000000000 ","  ","2020-05-11 16:55:00"
"5266","Envigado","5","Antioquia","6.167004552","-75.58301014","5","26","0","21","5","0","0","","131","  ","  ","    19.2307692307692 ","  ","  ","  ","  ","     80.7692307692308 ","    19.2307692307692 ","2020-05-11 16:55:00"
"5284","Frontino","5","Antioquia","6.776065912","-76.13076514","0","1","0","1","0","0","0","","5","  ","  ","  ","  ","  ","  ","  ","   100.0000000000000 ","  ","2020-05-11 16:55:00"
"5313","Granada","5","Antioquia","6.142896667","-75.18444508","0","1","1","0","0","0","0","","1","  ","  ","  ","  ","  ","  100.0000000000000 ","    10.2417042195821 ","  ","  ","2020-05-11 16:55:00"
"5318","Guarne","5","Antioquia","6.278064077","-75.44165392","1","3","0","2","1","0","0","","4","  ","  ","    33.3333333333333 ","  ","  ","  ","  ","     66.6666666666667 ","    33.3333333333333 ","2020-05-11 16:55:00"
"5321","Guatapé","5","Antioquia","6.232592707","-75.16229259","1","2","0","1","1","0","0","","2","  ","  ","    50.0000000000000 ","  ","  ","  ","  ","     50.0000000000000 ","    50.0000000000000 ","2020-05-11 16:55:00"
"5360","Itagüí","5","Antioquia","6.169597629","-75.61435871","3","14","0","11","2","1","0","1","168","                                   0.5952380952381 ","                           7.1428571428571 ","    14.2857142857143 ","      7.1428571428571 ","  ","  ","  ","     78.5714285714286 ","    21.4285714285714 ","2020-05-11 16:55:00"
"5376","La Ceja","5","Antioquia","6.028055744","-75.42943089","0","2","0","2","0","0","0","","120","  ","  ","  ","  ","  ","  ","  ","   100.0000000000000 ","  ","2020-05-11 16:55:00"
"5380","La Estrella","5","Antioquia","6.15841974","-75.64519038","5","9","0","4","5","0","0","","3","  ","  ","    55.5555555555556 ","  ","  ","  ","  ","     44.4444444444444 ","    55.5555555555556 ","2020-05-11 16:55:00"
"5467","Montebello","5","Antioquia","5.946325567","-75.52351091","2","3","0","1","2","0","0","","2","  ","  ","    66.6666666666667 ","  ","  ","  ","  ","     33.3333333333333 ","    66.6666666666667 ","2020-05-11 16:55:00"
"5607","Retiro","5","Antioquia","6.063379954","-75.50137516","0","1","0","1","0","0","0","","12","  ","  ","  ","  ","  ","  ","  ","   100.0000000000000 ","  ","2020-05-11 16:55:00"
"5615","Rionegro","5","Antioquia","6.14722409","-75.37676938","1","11","0","10","1","0","0","","304","  ","  ","      9.0909090909091 ","  ","  ","  ","  ","     90.9090909090909 ","      9.0909090909091 ","2020-05-11 16:55:00"
"5631","Sabaneta","5","Antioquia","6.150970181","-75.61558529","0","9","0","9","0","0","0","","22","  ","  ","  ","  ","  ","  ","  ","   100.0000000000000 ","  ","2020-05-11 16:55:00"
"5652","San Francisco","5","Antioquia","5.964079131","-75.10268697","0","1","1","0","0","0","0","","3","  ","  ","  ","  ","  ","  100.0000000000000 ","    16.9808116827984 ","  ","  ","2020-05-11 16:55:00"
"5665","San Pedro de Urabá","5","Antioquia","8.276886664","-76.38057789","1","1","0","0","1","0","0","","5","  ","  ","  100.0000000000000 ","  ","  ","  ","  ","  ","  100.0000000000000 ","2020-05-11 16:55:00"
"5686","Santa Rosa de Osos","5","Antioquia","6.643326001","-75.46074502","0","2","0","2","0","0","0","","6","  ","  ","  ","  ","  ","  ","  ","   100.0000000000000 ","  ","2020-05-11 16:55:00"
"5697","El Santuario","5","Antioquia","6.137046858","-75.26584979","0","1","0","1","0","0","0","","4","  ","  ","  ","  ","  ","  ","  ","   100.0000000000000 ","  ","2020-05-11 16:55:00"
"5756","Sonsón","5","Antioquia","5.714811641","-75.30939515","1","2","0","1","1","0","0","","4","  ","  ","    50.0000000000000 ","  ","  ","  ","  ","     50.0000000000000 ","    50.0000000000000 ","2020-05-11 16:55:00"
"8001","Barranquilla","8","Atlántico","10.97592682","-74.79525905","399","481","24","58","355","38","6","44","2591","                                   1.6981860285604 ","                           9.1476091476092 ","    73.8045738045738 ","      7.9002079002079 ","      1.2474012474013 ","      4.9896049896050 ","      1.8834608593290 ","     12.0582120582121 ","    82.9521829521830 ","2020-05-11 16:55:00"
"8078","Baranoa","8","Atlántico","10.79488048","-74.91609981","10","12","0","2","10","0","0","","218","  ","  ","    83.3333333333333 ","  ","  ","  ","  ","     16.6666666666667 ","    83.3333333333333 ","2020-05-11 16:55:00"
"8141","Candelaria","8","Atlántico","10.46121723","-74.8799126","1","1","0","0","1","0","0","","2","  ","  ","  100.0000000000000 ","  ","  ","  ","  ","  ","  100.0000000000000 ","2020-05-11 16:55:00"
"8296","Galapa","8","Atlántico","10.919641","-74.8669381","9","10","0","1","9","0","0","","5","  ","  ","    90.0000000000000 ","  ","  ","  ","  ","     10.0000000000000 ","    90.0000000000000 ","2020-05-11 16:55:00"
"8433","Malambo","8","Atlántico","10.85628724","-74.77424057","68","74","4","2","58","8","2","10","52","                                 19.2307692307692 ","                         13.5135135135135 ","    78.3783783783784 ","    10.8108108108108 ","      2.7027027027027 ","      5.4054054054054 ","      2.8660275425247 ","       2.7027027027027 ","    91.8918918918919 ","2020-05-11 16:55:00"
"8436","Manatí","8","Atlántico","10.44896238","-74.95703499","3","3","0","0","3","0","0","","1","  ","  ","  100.0000000000000 ","  ","  ","  ","  ","  ","  100.0000000000000 ","2020-05-11 16:55:00"
"8520","Palmar de Varela","8","Atlántico","10.73858326","-74.75475789","12","12","0","0","12","0","0","","36","  ","  ","  100.0000000000000 ","  ","  ","  ","  ","  ","  100.0000000000000 ","2020-05-11 16:55:00"
"8558","Polonuevo","8","Atlántico","10.77772451","-74.85425725","7","8","0","1","7","0","0","","3","  ","  ","    87.5000000000000 ","  ","  ","  ","  ","     12.5000000000000 ","    87.5000000000000 ","2020-05-11 16:55:00"
"8560","Ponedera","8","Atlántico","10.64179593","-74.75390044","0","1","0","1","0","0","0","","11","  ","  ","  ","  ","  ","  ","  ","   100.0000000000000 ","  ","2020-05-11 16:55:00"
"8573","Puerto Colombia","8","Atlántico","11.02294005","-74.85196357","7","10","1","2","6","1","0","1","344","                                   0.2906976744186 ","                         10.0000000000000 ","    60.0000000000000 ","    10.0000000000000 ","  ","    10.0000000000000 ","      1.8639676415217 ","     20.0000000000000 ","    70.0000000000000 ","2020-05-11 16:55:00"
"8634","Sabanagrande","8","Atlántico","10.79107595","-74.75850721","53","54","0","1","53","0","0","","41","  ","  ","    98.1481481481482 ","  ","  ","  ","  ","       1.8518518518519 ","    98.1481481481482 ","2020-05-11 16:55:00"
"8638","Sabanalarga","8","Atlántico","10.63283523","-74.92109368","10","10","0","0","10","0","0","","114","  ","  ","  100.0000000000000 ","  ","  ","  ","  ","  ","  100.0000000000000 ","2020-05-11 16:55:00"
"8675","Santa Lucía","8","Atlántico","10.32327321","-74.95897145","0","1","1","0","0","0","0","","0","  ","  ","  ","  ","  ","  100.0000000000000 ","      5.8465855940131 ","  ","  ","2020-05-11 16:55:00"
"8685","Santo Tomás","8","Atlántico","10.75605629","-74.75411186","9","11","1","1","9","0","0","","32","  ","  ","    81.8181818181818 ","  ","  ","      9.0909090909091 ","      3.1250000000000 ","       9.0909090909091 ","    81.8181818181818 ","2020-05-11 16:55:00"
"8758","Soledad","8","Atlántico","10.91017447","-74.78483338","309","334","10","15","301","6","2","8","327","                                   2.4464831804281 ","                           2.3952095808383 ","    90.1197604790419 ","      1.7964071856287 ","      0.5988023952096 ","      2.9940119760479 ","      1.5037119128569 ","       4.4910179640719 ","    92.5149700598802 ","2020-05-11 16:55:00"
"11001","Bogotá D.C.","11","Bogotá D.C.","4.65017303","-74.107359","2993","4305","149","1163","2714","241","36","277","7247","                                   3.8222712846695 ","                           6.4343786295006 ","    63.0429732868757 ","      5.5981416957027 ","      0.8362369337979 ","      3.4610917537747 ","      1.9240814286757 ","     27.0150987224158 ","    69.5238095238095 ","2020-05-11 16:55:00"
"13001","Cartagena de Indias","19","Bolívar","10.38498552","-75.49643103","507","689","47","135","424","72","10","82","1588","                                   5.1637279596977 ","                         11.9013062409289 ","    61.5384615384615 ","    10.4499274310595 ","      1.4513788098694 ","      6.8214804063861 ","      4.5687134502924 ","     19.5936139332366 ","    73.5849056603774 ","2020-05-11 16:55:00"
"13052","Arjona","19","Bolívar","10.25663152","-75.34448845","7","11","0","4","7","0","0","","10","  ","  ","    63.6363636363636 ","  ","  ","  ","  ","     36.3636363636364 ","    63.6363636363636 ","2020-05-11 16:55:00"
"13074","Barranco de Loba","19","Bolívar","8.947730158","-74.10522428","0","1","1","0","0","0","0","","6","  ","  ","  ","  ","  ","  100.0000000000000 ","      6.5871813451024 ","  ","  ","2020-05-11 16:55:00"
"13140","Calamar","19","Bolívar","10.25196336","-74.91362928","0","1","1","0","0","0","0","","7","  ","  ","  ","  ","  ","  100.0000000000000 ","      4.3295666103823 ","  ","  ","2020-05-11 16:55:00"
"13430","Magangué","19","Bolívar","9.268563794","-74.77017457","2","2","0","0","1","1","0","1","220","                                   0.4545454545455 ","                         50.0000000000000 ","    50.0000000000000 ","    50.0000000000000 ","  ","  ","  ","  ","  100.0000000000000 ","2020-05-11 16:55:00"
"13442","María la Baja","19","Bolívar","9.982645517","-75.30075935","1","1","0","0","0","1","0","1","1","                               100.0000000000000 ","                       100.0000000000000 ","  ","  100.0000000000000 ","  ","  ","  ","  ","  100.0000000000000 ","2020-05-11 16:55:00"
"13620","San Cristóbal","19","Bolívar","10.39285577","-75.06553417","1","1","0","0","0","0","1","1","1","                               100.0000000000000 ","                       100.0000000000000 ","  ","  ","  100.0000000000000 ","  ","  ","  ","  100.0000000000000 ","2020-05-11 16:55:00"
"13683","Santa Rosa","19","Bolívar","10.44439608","-75.36983166","7","8","0","1","7","0","0","","16","  ","  ","    87.5000000000000 ","  ","  ","  ","  ","     12.5000000000000 ","    87.5000000000000 ","2020-05-11 16:55:00"
"13836","Turbaco","19","Bolívar","10.33276916","-75.42440917","13","23","1","9","12","1","0","1","70","                                   1.4285714285714 ","                           4.3478260869565 ","    52.1739130434783 ","      4.3478260869565 ","  ","      4.3478260869565 ","      0.8815232722144 ","     39.1304347826087 ","    56.5217391304348 ","2020-05-11 16:55:00"
"13838","Turbaná","19","Bolívar","10.27440205","-75.44250247","3","3","0","0","2","1","0","1","1","                               100.0000000000000 ","                         33.3333333333333 ","    66.6666666666667 ","    33.3333333333333 ","  ","  ","  ","  ","  100.0000000000000 ","2020-05-11 16:55:00"
"13873","Villanueva","19","Bolívar","10.44449833","-75.27475439","2","2","0","0","1","1","0","1","1","                               100.0000000000000 ","                         50.0000000000000 ","    50.0000000000000 ","    50.0000000000000 ","  ","  ","  ","  ","  100.0000000000000 ","2020-05-11 16:55:00"
"15001","Tunja","15","Boyacá","5.539953238","-73.35548873","3","8","1","4","2","0","1","1","299","                                   0.3344481605351 ","                         12.5000000000000 ","    25.0000000000000 ","  ","    12.5000000000000 ","    12.5000000000000 ","      0.5578395988018 ","     50.0000000000000 ","    37.5000000000000 ","2020-05-11 16:55:00"
"15047","Aquitania","15","Boyacá","5.518603543","-72.88398481","1","1","0","0","1","0","0","","3","  ","  ","  100.0000000000000 ","  ","  ","  ","  ","  ","  100.0000000000000 ","2020-05-11 16:55:00"
"15131","Caldas","15","Boyacá","5.554575079","-73.865541","1","1","0","0","0","1","0","1","0","  ","                       100.0000000000000 ","  ","  100.0000000000000 ","  ","  ","  ","  ","  100.0000000000000 ","2020-05-11 16:55:00"
"15176","Chiquinquirá","15","Boyacá","5.61412789","-73.81838763","7","7","0","0","6","1","0","1","47","                                   2.1276595744681 ","                         14.2857142857143 ","    85.7142857142857 ","    14.2857142857143 ","  ","  ","  ","  ","  100.0000000000000 ","2020-05-11 16:55:00"
"15223","Cubará","15","Boyacá","7.000092875","-72.11068776","2","2","0","0","1","0","0","","3","  ","  ","    50.0000000000000 ","  ","  ","  ","  ","  ","  100.0000000000000 ","2020-05-11 16:55:00"
"15238","Duitama","15","Boyacá","5.82298568","-73.03060967","9","9","0","0","8","1","0","1","110","                                   0.9090909090909 ","                         11.1111111111111 ","    88.8888888888889 ","    11.1111111111111 ","  ","  ","  ","  ","  100.0000000000000 ","2020-05-11 16:55:00"
"15299","Garagoa","15","Boyacá","5.083243463","-73.36442756","1","2","1","0","1","0","0","","15","  ","  ","    50.0000000000000 ","  ","  ","    50.0000000000000 ","      5.4579194411091 ","  ","    50.0000000000000 ","2020-05-11 16:55:00"
"15407","Villa de Leyva","15","Boyacá","5.632661849","-73.5246846","5","5","0","0","4","1","0","1","3","                                 33.3333333333333 ","                         20.0000000000000 ","    80.0000000000000 ","    20.0000000000000 ","  ","  ","  ","  ","  100.0000000000000 ","2020-05-11 16:55:00"
"15469","Moniquirá","15","Boyacá","5.876334811","-73.57337039","2","2","0","0","0","2","0","2","19","                                 10.5263157894737 ","                       100.0000000000000 ","  ","  100.0000000000000 ","  ","  ","  ","  ","  100.0000000000000 ","2020-05-11 16:55:00"
"15480","Muzo","15","Boyacá","5.532462867","-74.10275078","1","1","0","0","1","0","0","","4","  ","  ","  100.0000000000000 ","  ","  ","  ","  ","  ","  100.0000000000000 ","2020-05-11 16:55:00"
"15500","Oicatá","15","Boyacá","5.595234239","-73.30840398","0","1","0","1","0","0","0","","22","  ","  ","  ","  ","  ","  ","  ","   100.0000000000000 ","  ","2020-05-11 16:55:00"
"15516","Paipa","15","Boyacá","5.77994187","-73.11791688","2","2","0","0","0","2","0","2","4","                                 50.0000000000000 ","                       100.0000000000000 ","  ","  100.0000000000000 ","  ","  ","  ","  ","  100.0000000000000 ","2020-05-11 16:55:00"
"15646","Samacá","15","Boyacá","5.492314591","-73.48564359","0","1","1","0","0","0","0","","3","  ","  ","  ","  ","  ","  100.0000000000000 ","      5.3140610054203 ","  ","  ","2020-05-11 16:55:00"
"15686","Santana","15","Boyacá","6.057413107","-73.48122632","2","4","0","2","2","0","0","","0","  ","  ","    50.0000000000000 ","  ","  ","  ","  ","     50.0000000000000 ","    50.0000000000000 ","2020-05-11 16:55:00"
"15693","Santa Rosa de Viterbo","15","Boyacá","5.874555597","-72.98246092","1","1","0","0","0","1","0","1","0","  ","                       100.0000000000000 ","  ","  100.0000000000000 ","  ","  ","  ","  ","  100.0000000000000 ","2020-05-11 16:55:00"
"15696","Santa Sofía","15","Boyacá","5.713269421","-73.60270717","1","1","0","0","1","0","0","","0","  ","  ","  100.0000000000000 ","  ","  ","  ","  ","  ","  100.0000000000000 ","2020-05-11 16:55:00"
"15757","Socha","15","Boyacá","5.996713021","-72.69196586","3","3","0","0","3","0","0","","2","  ","  ","  100.0000000000000 ","  ","  ","  ","  ","  ","  100.0000000000000 ","2020-05-11 16:55:00"
"15759","Sogamoso","15","Boyacá","5.72568939","-72.92304769","7","7","0","0","4","3","0","3","171","                                   1.7543859649123 ","                         42.8571428571429 ","    57.1428571428571 ","    42.8571428571429 ","  ","  ","  ","  ","  100.0000000000000 ","2020-05-11 16:55:00"
"15798","Tenza","15","Boyacá","5.077074351","-73.42058911","0","2","0","2","0","0","0","","0","  ","  ","  ","  ","  ","  ","  ","   100.0000000000000 ","  ","2020-05-11 16:55:00"
"15816","Togüí","15","Boyacá","5.937438225","-73.51365506","4","14","0","10","4","0","0","","0","  ","  ","    28.5714285714286 ","  ","  ","  ","  ","     71.4285714285714 ","    28.5714285714286 ","2020-05-11 16:55:00"
"15835","Turmequé","15","Boyacá","5.323252768","-73.49184702","3","3","0","0","3","0","0","","2","  ","  ","  100.0000000000000 ","  ","  ","  ","  ","  ","  100.0000000000000 ","2020-05-11 16:55:00"
"17001","Manizales","5","Caldas","5.057688197","-75.49104898","11","24","1","12","10","1","0","1","796","                                   0.1256281407035 ","                           4.1666666666667 ","    41.6666666666667 ","      4.1666666666667 ","  ","      4.1666666666667 ","      0.2241348395195 ","     50.0000000000000 ","    45.8333333333333 ","2020-05-11 16:55:00"
"17042","Anserma","5","Caldas","5.236474391","-75.78434266","0","1","0","1","0","0","0","","10","  ","  ","  ","  ","  ","  ","  ","   100.0000000000000 ","  ","2020-05-11 16:55:00"
"17174","Chinchiná","5","Caldas","4.985812862","-75.60748073","0","4","0","4","0","0","0","","38","  ","  ","  ","  ","  ","  ","  ","   100.0000000000000 ","  ","2020-05-11 16:55:00"
"17380","La Dorada","5","Caldas","5.444406098","-74.65820562","35","53","2","16","35","0","0","","61","  ","  ","    66.0377358490566 ","  ","  ","      3.7735849056604 ","      2.7024835824122 ","     30.1886792452830 ","    66.0377358490566 ","2020-05-11 16:55:00"
"17442","Marmato","5","Caldas","5.47400482","-75.60024162","1","1","0","0","1","0","0","","5","  ","  ","  100.0000000000000 ","  ","  ","  ","  ","  ","  100.0000000000000 ","2020-05-11 16:55:00"
"17444","Marquetalia","5","Caldas","5.297524561","-75.05309703","5","5","0","0","4","1","0","1","5","                                 20.0000000000000 ","                         20.0000000000000 ","    80.0000000000000 ","    20.0000000000000 ","  ","  ","  ","  ","  100.0000000000000 ","2020-05-11 16:55:00"
"17495","Norcasia","5","Caldas","5.574795393","-74.88954408","0","1","1","0","0","0","0","","4","  ","  ","  ","  ","  ","  100.0000000000000 ","    16.3185378590078 ","  ","  ","2020-05-11 16:55:00"
"17614","Riosucio","5","Caldas","5.423680913","-75.70206971","1","1","0","0","1","0","0","","14","  ","  ","  100.0000000000000 ","  ","  ","  ","  ","  ","  100.0000000000000 ","2020-05-11 16:55:00"
"17616","Risaralda","5","Caldas","5.164508957","-75.76721954","1","1","0","0","0","1","0","1","6","                                 16.6666666666667 ","                       100.0000000000000 ","  ","  100.0000000000000 ","  ","  ","  ","  ","  100.0000000000000 ","2020-05-11 16:55:00"
"17662","Samaná","5","Caldas","5.413086301","-74.99225776","1","1","0","0","1","0","0","","9","  ","  ","  100.0000000000000 ","  ","  ","  ","  ","  ","  100.0000000000000 ","2020-05-11 16:55:00"
"17873","Villamaría","5","Caldas","5.043806686","-75.5137606","3","6","0","3","3","0","0","","7","  ","  ","    50.0000000000000 ","  ","  ","  ","  ","     50.0000000000000 ","    50.0000000000000 ","2020-05-11 16:55:00"
"17877","Viterbo","5","Caldas","5.062664236","-75.87060986","0","2","0","2","0","0","0","","3","  ","  ","  ","  ","  ","  ","  ","   100.0000000000000 ","  ","2020-05-11 16:55:00"
"18001","Florencia","18","Caquetá","1.61792293","-75.60856043","15","16","1","0","15","0","0","","257","  ","  ","    93.7500000000000 ","  ","  ","      6.2500000000000 ","      0.5779979307674 ","  ","    93.7500000000000 ","2020-05-11 16:55:00"
"19001","Popayán","47","Cauca","2.482503391","-76.57406468","10","24","1","13","10","0","0","","660","  ","  ","    41.6666666666667 ","  ","  ","      4.1666666666667 ","      0.3072413718942 ","     54.1666666666667 ","    41.6666666666667 ","2020-05-11 16:55:00"
"19142","Caloto","47","Cauca","3.034070778","-76.40848704","1","1","0","0","1","0","0","","4","  ","  ","  100.0000000000000 ","  ","  ","  ","  ","  ","  100.0000000000000 ","2020-05-11 16:55:00"
"19256","El Tambo","47","Cauca","2.45137136","-76.81077225","4","4","0","0","4","0","0","","5","  ","  ","  100.0000000000000 ","  ","  ","  ","  ","  ","  100.0000000000000 ","2020-05-11 16:55:00"
"19300","Guachené","47","Cauca","3.134153295","-76.39218874","0","1","0","1","0","0","0","","0","  ","  ","  ","  ","  ","  ","  ","   100.0000000000000 ","  ","2020-05-11 16:55:00"
"19455","Miranda","47","Cauca","3.253095405","-76.22886987","1","6","1","4","1","0","0","","3","  ","  ","    16.6666666666667 ","  ","  ","    16.6666666666667 ","      3.1170126550714 ","     66.6666666666667 ","    16.6666666666667 ","2020-05-11 16:55:00"
"19548","Piendamó","47","Cauca","2.641987578","-76.52850592","6","6","0","0","5","1","0","1","5","                                 20.0000000000000 ","                         16.6666666666667 ","    83.3333333333333 ","    16.6666666666667 ","  ","  ","  ","  ","  100.0000000000000 ","2020-05-11 16:55:00"
"19573","Puerto Tejada","47","Cauca","3.233294127","-76.4173078","3","3","0","0","3","0","0","","9","  ","  ","  100.0000000000000 ","  ","  ","  ","  ","  ","  100.0000000000000 ","2020-05-11 16:55:00"
"19698","Santander de Quilichao","47","Cauca","3.016053901","-76.48537029","2","3","1","0","1","1","0","1","32","                                   3.1250000000000 ","                         33.3333333333333 ","    33.3333333333333 ","    33.3333333333333 ","  ","    33.3333333333333 ","      0.8849479208149 ","  ","    66.6666666666667 ","2020-05-11 16:55:00"
"19807","Timbío","47","Cauca","2.349976425","-76.68423879","1","2","0","1","1","0","0","","5","  ","  ","    50.0000000000000 ","  ","  ","  ","  ","     50.0000000000000 ","    50.0000000000000 ","2020-05-11 16:55:00"
"19845","Villa rica","47","Cauca","3.177577926","-76.45787266","0","1","1","0","0","0","0","","1","  ","  ","  ","  ","  ","  100.0000000000000 ","      4.6886721680420 ","  ","  ","2020-05-11 16:55:00"
"20001","Valledupar","20","Cesar","10.46048122","-73.25938931","14","52","6","32","12","2","0","2","1264","                                   0.1582278481013 ","                           3.8461538461539 ","    23.0769230769231 ","      3.8461538461539 ","  ","    11.5384615384615 ","      1.1257965010245 ","     61.5384615384615 ","    26.9230769230769 ","2020-05-11 16:55:00"
"20011","Aguachica","20","Cesar","8.310336958","-73.59902859","0","2","1","1","0","0","0","","185","  ","  ","  ","  ","  ","    50.0000000000000 ","      0.8428007956040 ","     50.0000000000000 ","  ","2020-05-11 16:55:00"
"20013","Agustín Codazzi","20","Cesar","10.04045799","-73.23839617","5","6","0","1","4","1","0","1","59","                                   1.6949152542373 ","                         16.6666666666667 ","    66.6666666666667 ","    16.6666666666667 ","  ","  ","  ","     16.6666666666667 ","    83.3333333333333 ","2020-05-11 16:55:00"
"20060","Bosconia","20","Cesar","9.9750947","-73.88876766","2","2","0","0","2","0","0","","95","  ","  ","  100.0000000000000 ","  ","  ","  ","  ","  ","  100.0000000000000 ","2020-05-11 16:55:00"
"20178","Chiriguaná","20","Cesar","9.361189611","-73.60014444","1","1","0","0","1","0","0","","37","  ","  ","  100.0000000000000 ","  ","  ","  ","  ","  ","  100.0000000000000 ","2020-05-11 16:55:00"
"20400","La Jagua de Ibirico","20","Cesar","9.5638873","-73.33422791","1","1","0","0","1","0","0","","32","  ","  ","  100.0000000000000 ","  ","  ","  ","  ","  ","  100.0000000000000 ","2020-05-11 16:55:00"
"20614","Río de Oro","20","Cesar","8.292287384","-73.3863952","0","2","2","0","0","0","0","","4","  ","  ","  ","  ","  ","  100.0000000000000 ","    11.2403754285393 ","  ","  ","2020-05-11 16:55:00"
"20621","La Paz","20","Cesar","10.38748954","-73.17136291","0","1","0","1","0","0","0","","2","  ","  ","  ","  ","  ","  ","  ","   100.0000000000000 ","  ","2020-05-11 16:55:00"
"20750","San Diego","20","Cesar","10.33303286","-73.18121808","2","3","0","1","2","0","0","","5","  ","  ","    66.6666666666667 ","  ","  ","  ","  ","     33.3333333333333 ","    66.6666666666667 ","2020-05-11 16:55:00"
"20770","San Martín","20","Cesar","7.999895459","-73.51097518","0","2","2","0","0","0","0","","6","  ","  ","  ","  ","  ","  100.0000000000000 ","      6.9519274218777 ","  ","  ","2020-05-11 16:55:00"
"23001","Montería","5","Córdoba","8.745132591","-75.87557791","14","23","1","8","11","3","0","3","1144","                                   0.2622377622378 ","                         13.0434782608696 ","    47.8260869565217 ","    13.0434782608696 ","  ","      4.3478260869565 ","      0.1978889209909 ","     34.7826086956522 ","    60.8695652173913 ","2020-05-11 16:55:00"
"23090","Canalete","5","Córdoba","8.786944523","-76.24139652","2","2","0","0","2","0","0","","3","  ","  ","  100.0000000000000 ","  ","  ","  ","  ","  ","  100.0000000000000 ","2020-05-11 16:55:00"
"23162","Cereté","5","Córdoba","8.888611812","-75.79621652","1","2","0","1","1","0","0","","55","  ","  ","    50.0000000000000 ","  ","  ","  ","  ","     50.0000000000000 ","    50.0000000000000 ","2020-05-11 16:55:00"
"23189","Ciénaga de Oro","5","Córdoba","8.875502246","-75.62078664","0","1","1","0","0","0","0","","6","  ","  ","  ","  ","  ","  100.0000000000000 ","      1.6523190297583 ","  ","  ","2020-05-11 16:55:00"
"23417","Lorica","5","Córdoba","9.240855143","-75.8159954","6","7","1","0","6","0","0","","133","  ","  ","    85.7142857142857 ","  ","  ","    14.2857142857143 ","      0.8660933128935 ","  ","    85.7142857142857 ","2020-05-11 16:55:00"
"23466","Montelíbano","5","Córdoba","7.973777244","-75.41681813","1","1","0","0","1","0","0","","35","  ","  ","  100.0000000000000 ","  ","  ","  ","  ","  ","  100.0000000000000 ","2020-05-11 16:55:00"
"23660","Sahagún","5","Córdoba","8.943125416","-75.4459203","0","1","0","1","0","0","0","","120","  ","  ","  ","  ","  ","  ","  ","   100.0000000000000 ","  ","2020-05-11 16:55:00"
"23807","Tierralta","5","Córdoba","8.170378684","-76.05969659","1","2","0","1","0","0","1","1","14","                                   7.1428571428571 ","                         50.0000000000000 ","  ","  ","    50.0000000000000 ","  ","  ","     50.0000000000000 ","    50.0000000000000 ","2020-05-11 16:55:00"
"25001","Agua de dios","47","Cundinamarca","4.375312017","-74.66921778","0","1","1","0","0","0","0","","6","  ","  ","  ","  ","  ","  100.0000000000000 ","      8.1135902636917 ","  ","  ","2020-05-11 16:55:00"
"25035","Anapoima","47","Cundinamarca","4.562956175","-74.52851753","0","2","0","2","0","0","0","","0","  ","  ","  ","  ","  ","  ","  ","   100.0000000000000 ","  ","2020-05-11 16:55:00"
"25126","Cajicá","47","Cundinamarca","4.920809059","-74.02345397","5","17","0","12","5","0","0","","23","  ","  ","    29.4117647058824 ","  ","  ","  ","  ","     70.5882352941177 ","    29.4117647058824 ","2020-05-11 16:55:00"
"25175","Chía","47","Cundinamarca","4.866065424","-74.05034682","10","30","1","19","10","0","0","","125","  ","  ","    33.3333333333333 ","  ","  ","      3.3333333333333 ","      0.6685832720465 ","     63.3333333333333 ","    33.3333333333333 ","2020-05-11 16:55:00"
"25178","Chipaque","47","Cundinamarca","4.442671017","-74.04487563","1","1","0","0","1","0","0","","0","  ","  ","  100.0000000000000 ","  ","  ","  ","  ","  ","  100.0000000000000 ","2020-05-11 16:55:00"
"25181","Choachí","47","Cundinamarca","4.527047921","-73.92289448","0","1","0","1","0","0","0","","0","  ","  ","  ","  ","  ","  ","  ","   100.0000000000000 ","  ","2020-05-11 16:55:00"
"25200","Cogua","47","Cundinamarca","5.061841798","-73.97849669","2","2","0","0","2","0","0","","0","  ","  ","  100.0000000000000 ","  ","  ","  ","  ","  ","  100.0000000000000 ","2020-05-11 16:55:00"
"25214","Cota","47","Cundinamarca","4.812987769","-74.10272646","1","10","0","9","1","0","0","","0","  ","  ","    10.0000000000000 ","  ","  ","  ","  ","     90.0000000000000 ","    10.0000000000000 ","2020-05-11 16:55:00"
"25269","Facatativá","47","Cundinamarca","4.813064178","-74.35022793","7","8","0","1","4","3","0","3","171","                                   1.7543859649123 ","                         37.5000000000000 ","    50.0000000000000 ","    37.5000000000000 ","  ","  ","  ","     12.5000000000000 ","    87.5000000000000 ","2020-05-11 16:55:00"
"25279","Fómeque","47","Cundinamarca","4.485474345","-73.89252259","2","2","0","0","2","0","0","","12","  ","  ","  100.0000000000000 ","  ","  ","  ","  ","  ","  100.0000000000000 ","2020-05-11 16:55:00"
"25286","Funza","47","Cundinamarca","4.712763015","-74.211525","11","16","0","5","9","0","2","2","10","                                 20.0000000000000 ","                         12.5000000000000 ","    56.2500000000000 ","  ","    12.5000000000000 ","  ","  ","     31.2500000000000 ","    68.7500000000000 ","2020-05-11 16:55:00"
"25290","Fusagasugá","47","Cundinamarca","4.338480851","-74.36633393","5","6","0","1","5","0","0","","92","  ","  ","    83.3333333333333 ","  ","  ","  ","  ","     16.6666666666667 ","    83.3333333333333 ","2020-05-11 16:55:00"
"25295","Gachancipá","47","Cundinamarca","4.990918172","-73.87346922","3","3","0","0","3","0","0","","0","  ","  ","  100.0000000000000 ","  ","  ","  ","  ","  ","  100.0000000000000 ","2020-05-11 16:55:00"
"25320","Guaduas","47","Cundinamarca","5.071870533","-74.60295627","1","1","0","0","1","0","0","","10","  ","  ","  100.0000000000000 ","  ","  ","  ","  ","  ","  100.0000000000000 ","2020-05-11 16:55:00"
"25377","La Calera","47","Cundinamarca","4.720344521","-73.96974496","0","1","0","1","0","0","0","","0","  ","  ","  ","  ","  ","  ","  ","   100.0000000000000 ","  ","2020-05-11 16:55:00"
"25430","Madrid","47","Cundinamarca","4.736129766","-74.26562577","3","8","0","5","3","0","0","","14","  ","  ","    37.5000000000000 ","  ","  ","  ","  ","     62.5000000000000 ","    37.5000000000000 ","2020-05-11 16:55:00"
"25473","Mosquera","47","Cundinamarca","4.711371201","-74.23177508","6","12","0","6","6","0","0","","8","  ","  ","    50.0000000000000 ","  ","  ","  ","  ","     50.0000000000000 ","    50.0000000000000 ","2020-05-11 16:55:00"
"25513","Pacho","47","Cundinamarca","5.136942297","-74.15611662","0","11","1","10","0","0","0","","33","  ","  ","  ","  ","  ","      9.0909090909091 ","      3.8755183505794 ","     90.9090909090909 ","  ","2020-05-11 16:55:00"
"25662","San Juan de Rioseco","47","Cundinamarca","4.847575999","-74.62191472","0","2","0","2","0","0","0","","3","  ","  ","  ","  ","  ","  ","  ","   100.0000000000000 ","  ","2020-05-11 16:55:00"
"25736","Sesquilé","47","Cundinamarca","5.044729613","-73.79612783","2","2","0","0","2","0","0","","7","  ","  ","  100.0000000000000 ","  ","  ","  ","  ","  ","  100.0000000000000 ","2020-05-11 16:55:00"
"25740","Sibaté","47","Cundinamarca","4.489763593","-74.25899225","7","7","0","0","7","0","0","","3","  ","  ","  100.0000000000000 ","  ","  ","  ","  ","  ","  100.0000000000000 ","2020-05-11 16:55:00"
"25743","Silvania","47","Cundinamarca","4.381941157","-74.40552821","1","1","0","0","0","1","0","1","6","                                 16.6666666666667 ","                       100.0000000000000 ","  ","  100.0000000000000 ","  ","  ","  ","  ","  100.0000000000000 ","2020-05-11 16:55:00"
"25754","Soacha","47","Cundinamarca","4.585491658","-74.21452753","49","94","4","41","48","1","0","1","194","                                   0.5154639175258 ","                           1.0638297872340 ","    51.0638297872340 ","      1.0638297872340 ","  ","      4.2553191489362 ","      0.5308221904909 ","     43.6170212765958 ","    52.1276595744681 ","2020-05-11 16:55:00"
"25758","Sopó","47","Cundinamarca","4.906330809","-73.94577489","4","7","0","3","4","0","0","","7","  ","  ","    57.1428571428571 ","  ","  ","  ","  ","     42.8571428571429 ","    57.1428571428571 ","2020-05-11 16:55:00"
"25769","Subachoque","47","Cundinamarca","4.929079289","-74.17270846","0","3","0","3","0","0","0","","36","  ","  ","  ","  ","  ","  ","  ","   100.0000000000000 ","  ","2020-05-11 16:55:00"
"25772","Suesca","47","Cundinamarca","5.103516839","-73.79828978","0","4","1","3","0","0","0","","5","  ","  ","  ","  ","  ","    25.0000000000000 ","      5.3358945627234 ","     75.0000000000000 ","  ","2020-05-11 16:55:00"
"25799","Tenjo","47","Cundinamarca","4.871960537","-74.14395621","2","6","2","2","2","0","0","","7","  ","  ","    33.3333333333333 ","  ","  ","    33.3333333333333 ","      8.3001328021248 ","     33.3333333333333 ","    33.3333333333333 ","2020-05-11 16:55:00"
"25817","Tocancipá","47","Cundinamarca","4.964786354","-73.91209121","1","4","0","3","1","0","0","","0","  ","  ","    25.0000000000000 ","  ","  ","  ","  ","     75.0000000000000 ","    25.0000000000000 ","2020-05-11 16:55:00"
"25843","Villa de San Diego de Ubaté","47","Cundinamarca","5.307540984","-73.81434634","0","2","0","2","0","0","0","","39","  ","  ","  ","  ","  ","  ","  ","   100.0000000000000 ","  ","2020-05-11 16:55:00"
"25845","Une","47","Cundinamarca","4.402450393","-74.02518226","1","1","0","0","1","0","0","","0","  ","  ","  100.0000000000000 ","  ","  ","  ","  ","  ","  100.0000000000000 ","2020-05-11 16:55:00"
"25873","Villapinzón","47","Cundinamarca","5.216438372","-73.59535467","2","6","2","2","2","0","0","","0","  ","  ","    33.3333333333333 ","  ","  ","    33.3333333333333 ","    10.8501057885314 ","     33.3333333333333 ","    33.3333333333333 ","2020-05-11 16:55:00"
"25875","Villeta","47","Cundinamarca","5.012790639","-74.46970495","0","4","0","4","0","0","0","","20","  ","  ","  ","  ","  ","  ","  ","   100.0000000000000 ","  ","2020-05-11 16:55:00"
"25899","Zipaquirá","47","Cundinamarca","5.025471685","-73.99447124","3","14","2","9","3","0","0","","147","  ","  ","    21.4285714285714 ","  ","  ","    14.2857142857143 ","      1.3665682737510 ","     64.2857142857143 ","    21.4285714285714 ","2020-05-11 16:55:00"
"27001","Quibdo","27","Chocó","5.692195187","-76.62596936","22","28","3","3","21","1","0","1","168","                                   0.5952380952381 ","                           3.5714285714286 ","    75.0000000000000 ","      3.5714285714286 ","  ","    10.7142857142857 ","      2.2931396904261 ","     10.7142857142857 ","    78.5714285714286 ","2020-05-11 16:55:00"
"41001","Neiva","41","Huila","2.935604415","-75.27772259","55","105","5","45","47","6","2","8","566","                                   1.4134275618375 ","                           7.6190476190476 ","    44.7619047619048 ","      5.7142857142857 ","      1.9047619047619 ","      4.7619047619048 ","      1.3720884283550 ","     42.8571428571429 ","    52.3809523809524 ","2020-05-11 16:55:00"
"41006","Acevedo","41","Huila","1.805263228","-75.88853156","1","2","0","1","0","1","0","1","5","                                 20.0000000000000 ","                         50.0000000000000 ","  ","    50.0000000000000 ","  ","  ","  ","     50.0000000000000 ","    50.0000000000000 ","2020-05-11 16:55:00"
"41013","Agrado","41","Huila","2.259729394","-75.77190358","1","1","0","0","1","0","0","","2","  ","  ","  100.0000000000000 ","  ","  ","  ","  ","  ","  100.0000000000000 ","2020-05-11 16:55:00"
"41016","Aipe","41","Huila","3.223597562","-75.23903118","3","4","0","1","3","0","0","","4","  ","  ","    75.0000000000000 ","  ","  ","  ","  ","     25.0000000000000 ","    75.0000000000000 ","2020-05-11 16:55:00"
"41020","Algeciras","41","Huila","2.522447597","-75.31537288","3","3","0","0","2","1","0","1","3","                                 33.3333333333333 ","                         33.3333333333333 ","    66.6666666666667 ","    33.3333333333333 ","  ","  ","  ","  ","  100.0000000000000 ","2020-05-11 16:55:00"
"41298","Garzón","41","Huila","2.196994421","-75.62769374","0","1","0","1","0","0","0","","66","  ","  ","  ","  ","  ","  ","  ","   100.0000000000000 ","  ","2020-05-11 16:55:00"
"41306","Gigante","41","Huila","2.388235625","-75.54121989","15","16","0","1","14","1","0","1","4","                                 25.0000000000000 ","                           6.2500000000000 ","    87.5000000000000 ","      6.2500000000000 ","  ","  ","  ","       6.2500000000000 ","    93.7500000000000 ","2020-05-11 16:55:00"
"41359","Isnos","41","Huila","1.92946706","-76.21763745","0","2","2","0","0","0","0","","3","  ","  ","  ","  ","  ","  100.0000000000000 ","      7.7763521132237 ","  ","  ","2020-05-11 16:55:00"
"41396","La Plata","41","Huila","2.389646694","-75.89145131","4","4","0","0","3","1","0","1","26","                                   3.8461538461539 ","                         25.0000000000000 ","    75.0000000000000 ","    25.0000000000000 ","  ","  ","  ","  ","  100.0000000000000 ","2020-05-11 16:55:00"
"41503","Oporapa","41","Huila","2.025054002","-75.99517781","12","12","0","0","12","0","0","","3","  ","  ","  100.0000000000000 ","  ","  ","  ","  ","  ","  100.0000000000000 ","2020-05-11 16:55:00"
"41518","Paicol","41","Huila","2.449548949","-75.77299232","1","2","0","1","1","0","0","","2","  ","  ","    50.0000000000000 ","  ","  ","  ","  ","     50.0000000000000 ","    50.0000000000000 ","2020-05-11 16:55:00"
"41524","Palermo","41","Huila","2.888406236","-75.43371912","2","5","0","3","2","0","0","","4","  ","  ","    40.0000000000000 ","  ","  ","  ","  ","     60.0000000000000 ","    40.0000000000000 ","2020-05-11 16:55:00"
"41551","Pitalito","41","Huila","1.852578355","-76.0487449","12","13","0","1","7","3","0","3","81","                                   3.7037037037037 ","                         23.0769230769231 ","    53.8461538461538 ","    23.0769230769231 ","  ","  ","  ","       7.6923076923077 ","    92.3076923076923 ","2020-05-11 16:55:00"
"41668","San Agustín","41","Huila","1.881081298","-76.27035968","1","3","0","2","0","1","0","1","7","                                 14.2857142857143 ","                         33.3333333333333 ","  ","    33.3333333333333 ","  ","  ","  ","     66.6666666666667 ","    33.3333333333333 ","2020-05-11 16:55:00"
"41807","Timaná","41","Huila","1.974224443","-75.932087","5","6","1","0","5","0","0","","4","  ","  ","    83.3333333333333 ","  ","  ","    16.6666666666667 ","      4.5310376076121 ","  ","    83.3333333333333 ","2020-05-11 16:55:00"
"44001","Riohacha","44","La Guajira","11.52875138","-72.91148891","4","8","1","3","4","0","0","","289","  ","  ","    50.0000000000000 ","  ","  ","    12.5000000000000 ","      0.4954443888446 ","     37.5000000000000 ","    50.0000000000000 ","2020-05-11 16:55:00"
"44035","Albania","44","La Guajira","11.15748865","-72.59852163","2","2","0","0","2","0","0","","2","  ","  ","  100.0000000000000 ","  ","  ","  ","  ","  ","  100.0000000000000 ","2020-05-11 16:55:00"
"44098","Distracción","44","La Guajira","10.89847259","-72.88739268","1","1","0","0","0","1","0","1","40","                                   2.5000000000000 ","                       100.0000000000000 ","  ","  100.0000000000000 ","  ","  ","  ","  ","  100.0000000000000 ","2020-05-11 16:55:00"
"44279","Fonseca","44","La Guajira","10.88430067","-72.84666224","2","2","0","0","1","0","1","1","5","                                 20.0000000000000 ","                         50.0000000000000 ","    50.0000000000000 ","  ","    50.0000000000000 ","  ","  ","  ","  100.0000000000000 ","2020-05-11 16:55:00"
"44430","Maicao","44","La Guajira","11.37832678","-72.24190502","7","8","1","0","6","1","0","1","232","                                   0.4310344827586 ","                         12.5000000000000 ","    75.0000000000000 ","    12.5000000000000 ","  ","    12.5000000000000 ","      0.5403302498487 ","  ","    87.5000000000000 ","2020-05-11 16:55:00"
"44650","San Juan del Cesar","44","La Guajira","10.76957868","-73.00059321","5","6","1","0","5","0","0","","136","  ","  ","    83.3333333333333 ","  ","  ","    16.6666666666667 ","      2.0167796063246 ","  ","    83.3333333333333 ","2020-05-11 16:55:00"
"47001","Santa Marta","47","Magdalena","11.2294335","-74.19089412","120","194","17","57","108","11","1","12","989","                                   1.2133468149646 ","                           6.1855670103093 ","    55.6701030927835 ","      5.6701030927835 ","      0.5154639175258 ","      8.7628865979381 ","      3.1562609076664 ","     29.3814432989691 ","    61.8556701030928 ","2020-05-11 16:55:00"
"47189","Ciénaga","47","Magdalena","11.00665688","-74.24128616","43","62","3","16","40","2","1","3","102","                                   2.9411764705882 ","                           4.8387096774194 ","    64.5161290322581 ","      3.2258064516129 ","      1.6129032258065 ","      4.8387096774194 ","      2.4127586678355 ","     25.8064516129032 ","    69.3548387096774 ","2020-05-11 16:55:00"
"47245","El Banco","47","Magdalena","9.008733009","-73.97428121","4","5","1","0","2","2","0","2","86","                                   2.3255813953488 ","                         40.0000000000000 ","    40.0000000000000 ","    40.0000000000000 ","  ","    20.0000000000000 ","      1.4346996456292 ","  ","    80.0000000000000 ","2020-05-11 16:55:00"
"47570","Puebloviejo","47","Magdalena","10.99482965","-74.28248423","15","17","2","0","14","1","0","1","5","                                 20.0000000000000 ","                           5.8823529411765 ","    82.3529411764706 ","      5.8823529411765 ","  ","    11.7647058823529 ","      6.2134957126880 ","  ","    88.2352941176471 ","2020-05-11 16:55:00"
"47980","Zona Bananera","47","Magdalena","10.76302682","-74.14008184","5","6","1","0","3","1","1","2","7","                                 28.5714285714286 ","                         33.3333333333333 ","    50.0000000000000 ","    16.6666666666667 ","    16.6666666666667 ","    16.6666666666667 ","      1.3525759809557 ","  ","    83.3333333333333 ","2020-05-11 16:55:00"
"50001","Villavicencio","50","Meta","4.1238615","-73.62709204","863","902","6","33","861","1","1","2","793","                                   0.2522068095839 ","                           0.2217294900222 ","    95.4545454545455 ","      0.1108647450111 ","      0.1108647450111 ","      0.6651884700665 ","      1.1003077193922 ","       3.6585365853659 ","    95.6762749445676 ","2020-05-11 16:55:00"
"50006","Acacías","50","Meta","3.990120663","-73.76593665","11","13","0","2","11","0","0","","11","  ","  ","    84.6153846153846 ","  ","  ","  ","  ","     15.3846153846154 ","    84.6153846153846 ","2020-05-11 16:55:00"
"50313","Granada","50","Meta","3.546694724","-73.70571533","4","5","0","1","4","0","0","","87","  ","  ","    80.0000000000000 ","  ","  ","  ","  ","     20.0000000000000 ","    80.0000000000000 ","2020-05-11 16:55:00"
"50606","Restrepo","50","Meta","4.260731994","-73.56460418","2","4","0","2","1","1","0","1","6","                                 16.6666666666667 ","                         25.0000000000000 ","    25.0000000000000 ","    25.0000000000000 ","  ","  ","  ","     50.0000000000000 ","    50.0000000000000 ","2020-05-11 16:55:00"
"50683","San Juan de Arama","50","Meta","3.373727874","-73.87583154","3","3","0","0","3","0","0","","5","  ","  ","  100.0000000000000 ","  ","  ","  ","  ","  ","  100.0000000000000 ","2020-05-11 16:55:00"
"52001","Pasto","5","Nariño","1.212124365","-77.27857635","29","41","4","8","24","5","0","5","893","                                   0.5599104143337 ","                         12.1951219512195 ","    58.5365853658537 ","    12.1951219512195 ","  ","      9.7560975609756 ","      1.0188772482163 ","     19.5121951219512 ","    70.7317073170732 ","2020-05-11 16:55:00"
"52036","Ancuyá","5","Nariño","1.263299977","-77.51451329","1","1","0","0","1","0","0","","0","  ","  ","  100.0000000000000 ","  ","  ","  ","  ","  ","  100.0000000000000 ","2020-05-11 16:55:00"
"52083","Belén","5","Nariño","1.595676066","-77.01566573","1","1","0","0","1","0","0","","0","  ","  ","  100.0000000000000 ","  ","  ","  ","  ","  ","  100.0000000000000 ","2020-05-11 16:55:00"
"52210","Contadero","5","Nariño","0.910457863","-77.54940902","2","3","0","1","2","0","0","","1","  ","  ","    66.6666666666667 ","  ","  ","  ","  ","     33.3333333333333 ","    66.6666666666667 ","2020-05-11 16:55:00"
"52224","Cuaspúd","5","Nariño","0.862978103","-77.72894683","5","6","0","1","5","0","0","","0","  ","  ","    83.3333333333333 ","  ","  ","  ","  ","     16.6666666666667 ","    83.3333333333333 ","2020-05-11 16:55:00"
"52227","Cumbal","5","Nariño","0.906185361","-77.79227662","1","4","0","3","1","0","0","","5","  ","  ","    25.0000000000000 ","  ","  ","  ","  ","     75.0000000000000 ","    25.0000000000000 ","2020-05-11 16:55:00"
"52233","Cumbitara","5","Nariño","1.646845971","-77.57814673","0","1","0","1","0","0","0","","0","  ","  ","  ","  ","  ","  ","  ","   100.0000000000000 ","  ","2020-05-11 16:55:00"
"52317","Guachucal","5","Nariño","0.959743484","-77.73158986","1","1","0","0","1","0","0","","4","  ","  ","  100.0000000000000 ","  ","  ","  ","  ","  ","  100.0000000000000 ","2020-05-11 16:55:00"
"52356","Ipiales","5","Nariño","0.827734241","-77.64640075","86","104","3","15","78","5","3","8","105","                                   7.6190476190476 ","                           7.6923076923077 ","    75.0000000000000 ","      4.8076923076923 ","      2.8846153846154 ","      2.8846153846154 ","      2.5898684346835 ","     14.4230769230769 ","    82.6923076923077 ","2020-05-11 16:55:00"
"52381","La Florida","5","Nariño","1.299192232","-77.40643084","1","1","0","0","1","0","0","","0","  ","  ","  100.0000000000000 ","  ","  ","  ","  ","  ","  100.0000000000000 ","2020-05-11 16:55:00"
"52399","La Unión","5","Nariño","1.600268613","-77.13115435","0","1","0","1","0","0","0","","22","  ","  ","  ","  ","  ","  ","  ","   100.0000000000000 ","  ","2020-05-11 16:55:00"
"52411","Linares","5","Nariño","1.351145073","-77.52193996","1","1","0","0","0","0","1","1","1","                               100.0000000000000 ","                       100.0000000000000 ","  ","  ","  100.0000000000000 ","  ","  ","  ","  100.0000000000000 ","2020-05-11 16:55:00"
"52427","Magüí","5","Nariño","1.765313671","-78.18106078","0","1","1","0","0","0","0","","0","  ","  ","  ","  ","  ","  100.0000000000000 ","      3.9149669185295 ","  ","  ","2020-05-11 16:55:00"
"52560","Potosí","5","Nariño","0.806340417","-77.57279178","4","4","0","0","3","0","1","1","0","  ","                         25.0000000000000 ","    75.0000000000000 ","  ","    25.0000000000000 ","  ","  ","  ","  100.0000000000000 ","2020-05-11 16:55:00"
"52835","San Andrés de Tumaco","5","Nariño","1.80711725","-78.76385415","125","134","6","3","111","14","0","14","123","                                 11.3821138211382 ","                         10.4477611940298 ","    82.8358208955224 ","    10.4477611940298 ","  ","      4.4776119402985 ","      2.3341580691845 ","       2.2388059701493 ","    93.2835820895522 ","2020-05-11 16:55:00"
"52838","Túquerres","5","Nariño","1.085193359","-77.61688638","1","2","1","0","0","1","0","1","25","                                   4.0000000000000 ","                         50.0000000000000 ","  ","    50.0000000000000 ","  ","    50.0000000000000 ","      2.2434099831744 ","  ","    50.0000000000000 ","2020-05-11 16:55:00"
"54001","Cúcuta","54","Norte de Santander","7.905306295","-72.5082562","45","79","8","26","42","2","1","3","752","                                   0.3989361702128 ","                           3.7974683544304 ","    53.1645569620253 ","      2.5316455696203 ","      1.2658227848101 ","    10.1265822784810 ","      1.0294605883882 ","     32.9113924050633 ","    56.9620253164557 ","2020-05-11 16:55:00"
"54003","Ábrego","54","Norte de Santander","8.081784141","-73.2217344","1","1","0","0","0","1","0","1","4","                                 25.0000000000000 ","                       100.0000000000000 ","  ","  100.0000000000000 ","  ","  ","  ","  ","  100.0000000000000 ","2020-05-11 16:55:00"
"54405","Los Patios","54","Norte de Santander","7.833256289","-72.50571256","1","1","0","0","1","0","0","","23","  ","  ","  100.0000000000000 ","  ","  ","  ","  ","  ","  100.0000000000000 ","2020-05-11 16:55:00"
"54498","Ocaña","54","Norte de Santander","8.247453792","-73.3558144","5","7","2","0","5","0","0","","149","  ","  ","    71.4285714285714 ","  ","  ","    28.5714285714286 ","      1.5466947133975 ","  ","    71.4285714285714 ","2020-05-11 16:55:00"
"54518","Pamplona","54","Norte de Santander","7.37285018","-72.64768144","1","1","0","0","1","0","0","","37","  ","  ","  100.0000000000000 ","  ","  ","  ","  ","  ","  100.0000000000000 ","2020-05-11 16:55:00"
"54553","Puerto Santander","54","Norte de Santander","8.360945615","-72.41031378","0","1","0","1","0","0","0","","0","  ","  ","  ","  ","  ","  ","  ","   100.0000000000000 ","  ","2020-05-11 16:55:00"
"54810","Tibú","54","Norte de Santander","8.639548853","-72.73591863","3","3","0","0","1","2","0","2","9","                                 22.2222222222222 ","                         66.6666666666667 ","    33.3333333333333 ","    66.6666666666667 ","  ","  ","  ","  ","  100.0000000000000 ","2020-05-11 16:55:00"
"54820","Toledo","54","Norte de Santander","7.310031828","-72.48510732","0","1","0","1","0","0","0","","3","  ","  ","  ","  ","  ","  ","  ","   100.0000000000000 ","  ","2020-05-11 16:55:00"
"54874","Villa del Rosario","54","Norte de Santander","7.847487432","-72.47006734","3","5","0","2","3","0","0","","4","  ","  ","    60.0000000000000 ","  ","  ","  ","  ","     40.0000000000000 ","    60.0000000000000 ","2020-05-11 16:55:00"
"63001","Armenia","63","Quindio","4.535989502","-75.68075076","16","49","1","32","16","0","0","","443","  ","  ","    32.6530612244898 ","  ","  ","      2.0408163265306 ","      0.3281227441561 ","     65.3061224489796 ","    32.6530612244898 ","2020-05-11 16:55:00"
"63130","Calarcá","63","Quindio","4.515281846","-75.64908836","1","8","0","7","1","0","0","","25","  ","  ","    12.5000000000000 ","  ","  ","  ","  ","     87.5000000000000 ","    12.5000000000000 ","2020-05-11 16:55:00"
"63190","Circasia","63","Quindio","4.617792043","-75.63652823","0","3","0","3","0","0","0","","6","  ","  ","  ","  ","  ","  ","  ","   100.0000000000000 ","  ","2020-05-11 16:55:00"
"63212","Córdoba","63","Quindio","4.392485449","-75.68786636","1","1","0","0","1","0","0","","0","  ","  ","  100.0000000000000 ","  ","  ","  ","  ","  ","  100.0000000000000 ","2020-05-11 16:55:00"
"63272","Filandia","63","Quindio","4.674145572","-75.65868588","1","2","0","1","0","1","0","1","61","                                   1.6393442622951 ","                         50.0000000000000 ","  ","    50.0000000000000 ","  ","  ","  ","     50.0000000000000 ","    50.0000000000000 ","2020-05-11 16:55:00"
"63401","La Tebaida","63","Quindio","4.453650416","-75.78646018","2","3","0","1","2","0","0","","8","  ","  ","    66.6666666666667 ","  ","  ","  ","  ","     33.3333333333333 ","    66.6666666666667 ","2020-05-11 16:55:00"
"63470","Montenegro","63","Quindio","4.562959743","-75.75181224","1","5","1","3","1","0","0","","7","  ","  ","    20.0000000000000 ","  ","  ","    20.0000000000000 ","      2.6653872807719 ","     60.0000000000000 ","    20.0000000000000 ","2020-05-11 16:55:00"
"66001","Pereira","17","Risaralda","4.805680265","-75.71712306","58","146","7","81","57","0","1","1","770","                                   0.1298701298701 ","                           0.6849315068493 ","    39.0410958904110 ","  ","      0.6849315068493 ","      4.7945205479452 ","      1.4674221794574 ","     55.4794520547945 ","    39.7260273972603 ","2020-05-11 16:55:00"
"66170","Dosquebradas","17","Risaralda","4.827187832","-75.68246912","27","65","1","37","25","1","1","2","34","                                   5.8823529411765 ","                           3.0769230769231 ","    38.4615384615385 ","      1.5384615384615 ","      1.5384615384615 ","      1.5384615384615 ","      0.4468634653368 ","     56.9230769230769 ","    41.5384615384615 ","2020-05-11 16:55:00"
"66400","La Virginia","17","Risaralda","4.898666957","-75.88405843","2","2","0","0","2","0","0","","17","  ","  ","  100.0000000000000 ","  ","  ","  ","  ","  ","  100.0000000000000 ","2020-05-11 16:55:00"
"66682","Santa Rosa de Cabal","17","Risaralda","4.867526454","-75.62001066","1","3","0","2","1","0","0","","8","  ","  ","    33.3333333333333 ","  ","  ","  ","  ","     66.6666666666667 ","    33.3333333333333 ","2020-05-11 16:55:00"
"68001","Bucaramanga","23","Santander","7.116267276","-73.13259818","6","20","1","13","6","0","0","","980","  ","  ","    30.0000000000000 ","  ","  ","      5.0000000000000 ","      0.1646285650316 ","     65.0000000000000 ","    30.0000000000000 ","2020-05-11 16:55:00"
"68081","Barrancabermeja","23","Santander","7.064963864","-73.84995698","0","6","1","5","0","0","0","","199","  ","  ","  ","  ","  ","    16.6666666666667 ","      0.4745431335981 ","     83.3333333333333 ","  ","2020-05-11 16:55:00"
"68190","Cimitarra","23","Santander","6.320681867","-73.95258212","0","2","0","2","0","0","0","","10","  ","  ","  ","  ","  ","  ","  ","   100.0000000000000 ","  ","2020-05-11 16:55:00"
"68207","Concepción","23","Santander","6.768836528","-72.69459425","0","1","0","1","0","0","0","","4","  ","  ","  ","  ","  ","  ","  ","   100.0000000000000 ","  ","2020-05-11 16:55:00"
"68229","Curití","23","Santander","6.605106785","-73.06939052","0","1","0","1","0","0","0","","5","  ","  ","  ","  ","  ","  ","  ","   100.0000000000000 ","  ","2020-05-11 16:55:00"
"68276","Floridablanca","23","Santander","7.072360403","-73.09903262","1","9","1","7","1","0","0","","403","  ","  ","    11.1111111111111 ","  ","  ","    11.1111111111111 ","      0.3247849923351 ","     77.7777777777778 ","    11.1111111111111 ","2020-05-11 16:55:00"
"68547","Piedecuesta","23","Santander","6.997475804","-73.05466085","2","2","0","0","2","0","0","","184","  ","  ","  100.0000000000000 ","  ","  ","  ","  ","  ","  100.0000000000000 ","2020-05-11 16:55:00"
"68872","Villanueva","23","Santander","6.670077672","-73.17430669","1","1","0","0","1","0","0","","11","  ","  ","  100.0000000000000 ","  ","  ","  ","  ","  ","  100.0000000000000 ","2020-05-11 16:55:00"
"70001","Sincelejo","5","Sucre","9.302333104","-75.39548356","2","3","0","1","2","0","0","","817","  ","  ","    66.6666666666667 ","  ","  ","  ","  ","     33.3333333333333 ","    66.6666666666667 ","2020-05-11 16:55:00"
"70418","Los Palmitos","5","Sucre","9.380228408","-75.26874889","1","1","0","0","1","0","0","","3","  ","  ","  100.0000000000000 ","  ","  ","  ","  ","  ","  100.0000000000000 ","2020-05-11 16:55:00"
"73001","Ibagué","23","Tolima","4.439608991","-75.19371478","91","117","3","23","88","2","1","3","587","                                   0.5110732538330 ","                           2.5641025641026 ","    75.2136752136752 ","      1.7094017094017 ","      0.8547008547009 ","      2.5641025641026 ","      0.5544251442891 ","     19.6581196581197 ","    77.7777777777778 ","2020-05-11 16:55:00"
"73268","Espinal","23","Tolima","4.151314221","-74.88544976","2","4","1","1","2","0","0","","91","  ","  ","    50.0000000000000 ","  ","  ","    25.0000000000000 ","      1.4081532070689 ","     25.0000000000000 ","    50.0000000000000 ","2020-05-11 16:55:00"
"73319","Guamo","23","Tolima","4.031003906","-74.96812715","1","1","0","0","0","1","0","1","9","                                 11.1111111111111 ","                       100.0000000000000 ","  ","  100.0000000000000 ","  ","  ","  ","  ","  100.0000000000000 ","2020-05-11 16:55:00"
"73449","Melgar","23","Tolima","4.208154892","-74.6298504","5","7","2","0","5","0","0","","4","  ","  ","    71.4285714285714 ","  ","  ","    28.5714285714286 ","      5.3075739079667 ","  ","    71.4285714285714 ","2020-05-11 16:55:00"
"73624","Rovira","23","Tolima","4.238932685","-75.2408683","1","1","0","0","1","0","0","","5","  ","  ","  100.0000000000000 ","  ","  ","  ","  ","  ","  100.0000000000000 ","2020-05-11 16:55:00"
"76001","Cali","76","Valle del Cauca","3.414414305","-76.52156515","720","1094","61","313","603","82","35","117","2919","                                   4.0082219938335 ","                         10.6946983546618 ","    55.1188299817185 ","      7.4954296160878 ","      3.1992687385740 ","      5.5758683729433 ","      2.7079626531997 ","     28.6106032906764 ","    65.8135283363803 ","2020-05-11 16:55:00"
"76020","Alcalá","76","Valle del Cauca","4.674989542","-75.77981387","0","1","1","0","0","0","0","","4","  ","  ","  ","  ","  ","  100.0000000000000 ","      6.9954529555789 ","  ","  ","2020-05-11 16:55:00"
"76036","Andalucía","76","Valle del Cauca","4.171724416","-76.1679212","2","2","0","0","1","1","0","1","5","                                 20.0000000000000 ","                         50.0000000000000 ","    50.0000000000000 ","    50.0000000000000 ","  ","  ","  ","  ","  100.0000000000000 ","2020-05-11 16:55:00"
"76109","Buenaventura","76","Valle del Cauca","3.875802437","-77.0117402","54","62","4","4","48","5","1","6","125","                                   4.8000000000000 ","                           9.6774193548387 ","    77.4193548387097 ","      8.0645161290323 ","      1.6129032258065 ","      6.4516129032258 ","      1.2827625574437 ","       6.4516129032258 ","    87.0967741935484 ","2020-05-11 16:55:00"
"76111","Guadalajara de Buga","76","Valle del Cauca","3.900823544","-76.29896113","8","11","0","3","8","0","0","","165","  ","  ","    72.7272727272727 ","  ","  ","  ","  ","     27.2727272727273 ","    72.7272727272727 ","2020-05-11 16:55:00"
"76113","Bugalagrande","76","Valle del Cauca","4.208331592","-76.15680774","1","1","0","0","1","0","0","","5","  ","  ","  100.0000000000000 ","  ","  ","  ","  ","  ","  100.0000000000000 ","2020-05-11 16:55:00"
"76126","Calima","76","Valle del Cauca","3.933524463","-76.48439175","0","1","0","1","0","0","0","","5","  ","  ","  ","  ","  ","  ","  ","   100.0000000000000 ","  ","2020-05-11 16:55:00"
"76130","Candelaria","76","Valle del Cauca","3.407766466","-76.34642891","4","5","0","1","3","0","1","1","8","                                 12.5000000000000 ","                         20.0000000000000 ","    60.0000000000000 ","  ","    20.0000000000000 ","  ","  ","     20.0000000000000 ","    80.0000000000000 ","2020-05-11 16:55:00"
"76147","Cartago","76","Valle del Cauca","4.758755098","-75.94226404","5","13","0","8","5","0","0","","96","  ","  ","    38.4615384615385 ","  ","  ","  ","  ","     61.5384615384615 ","    38.4615384615385 ","2020-05-11 16:55:00"
"76233","Dagua","76","Valle del Cauca","3.657308485","-76.68887101","1","2","1","0","1","0","0","","5","  ","  ","    50.0000000000000 ","  ","  ","    50.0000000000000 ","      2.0401917780271 ","  ","    50.0000000000000 ","2020-05-11 16:55:00"
"76248","El Cerrito","76","Valle del Cauca","3.684258941","-76.31172554","10","14","1","3","10","0","0","","9","  ","  ","    71.4285714285714 ","  ","  ","      7.1428571428571 ","      1.7503019270824 ","     21.4285714285714 ","    71.4285714285714 ","2020-05-11 16:55:00"
"76250","El Dovio","76","Valle del Cauca","4.510452885","-76.23708411","0","4","1","3","0","0","0","","3","  ","  ","  ","  ","  ","    25.0000000000000 ","    11.6063138347261 ","     75.0000000000000 ","  ","2020-05-11 16:55:00"
"76275","Florida","76","Valle del Cauca","3.323918106","-76.23450174","5","9","1","3","5","0","0","","19","  ","  ","    55.5555555555556 ","  ","  ","    11.1111111111111 ","      1.7252980452373 ","     33.3333333333333 ","    55.5555555555556 ","2020-05-11 16:55:00"
"76306","Ginebra","76","Valle del Cauca","3.724181147","-76.26806789","0","1","1","0","0","0","0","","4","  ","  ","  ","  ","  ","  100.0000000000000 ","      4.3391477913738 ","  ","  ","2020-05-11 16:55:00"
"76318","Guacarí","76","Valle del Cauca","3.762909008","-76.33136735","1","2","0","1","1","0","0","","5","  ","  ","    50.0000000000000 ","  ","  ","  ","  ","     50.0000000000000 ","    50.0000000000000 ","2020-05-11 16:55:00"
"76364","Jamundí","76","Valle del Cauca","3.26227576","-76.54245873","20","27","1","6","18","2","0","2","64","                                   3.1250000000000 ","                           7.4074074074074 ","    66.6666666666667 ","      7.4074074074074 ","  ","      3.7037037037037 ","      0.5982757692331 ","     22.2222222222222 ","    74.0740740740741 ","2020-05-11 16:55:00"
"76400","La Unión","76","Valle del Cauca","4.533783288","-76.09960718","0","1","0","1","0","0","0","","7","  ","  ","  ","  ","  ","  ","  ","   100.0000000000000 ","  ","2020-05-11 16:55:00"
"76520","Palmira","76","Valle del Cauca","3.532349153","-76.29858255","21","51","4","26","19","2","0","2","224","                                   0.8928571428571 ","                           3.9215686274510 ","    37.2549019607843 ","      3.9215686274510 ","  ","      7.8431372549020 ","      1.1290345343438 ","     50.9803921568627 ","    41.1764705882353 ","2020-05-11 16:55:00"
"76606","Restrepo","76","Valle del Cauca","3.821348382","-76.52311704","1","1","0","0","1","0","0","","3","  ","  ","  100.0000000000000 ","  ","  ","  ","  ","  ","  100.0000000000000 ","2020-05-11 16:55:00"
"76622","Roldanillo","76","Valle del Cauca","4.4135962","-76.15228663","0","1","1","0","0","0","0","","15","  ","  ","  ","  ","  ","  100.0000000000000 ","      2.7184254879574 ","  ","  ","2020-05-11 16:55:00"
"76670","San Pedro","76","Valle del Cauca","3.994992607","-76.22853779","2","3","0","1","2","0","0","","5","  ","  ","    66.6666666666667 ","  ","  ","  ","  ","     33.3333333333333 ","    66.6666666666667 ","2020-05-11 16:55:00"
"76828","Trujillo","76","Valle del Cauca","4.212050806","-76.31880894","2","3","0","1","2","0","0","","4","  ","  ","    66.6666666666667 ","  ","  ","  ","  ","     33.3333333333333 ","    66.6666666666667 ","2020-05-11 16:55:00"
"76834","Tuluá","76","Valle del Cauca","4.085261239","-76.19769968","13","23","3","7","11","2","0","2","266","                                   0.7518796992481 ","                           8.6956521739130 ","    47.8260869565217 ","      8.6956521739130 ","  ","    13.0434782608696 ","      1.3710399795258 ","     30.4347826086957 ","    56.5217391304348 ","2020-05-11 16:55:00"
"76845","Ulloa","76","Valle del Cauca","4.702513911","-75.73774747","0","1","0","1","0","0","0","","3","  ","  ","  ","  ","  ","  ","  ","   100.0000000000000 ","  ","2020-05-11 16:55:00"
"76869","Vijes","76","Valle del Cauca","3.698587929","-76.44196521","5","6","0","1","5","0","0","","4","  ","  ","    83.3333333333333 ","  ","  ","  ","  ","     16.6666666666667 ","    83.3333333333333 ","2020-05-11 16:55:00"
"76890","Yotoco","76","Valle del Cauca","3.861214584","-76.38247445","2","3","0","1","2","0","0","","3","  ","  ","    66.6666666666667 ","  ","  ","  ","  ","     33.3333333333333 ","    66.6666666666667 ","2020-05-11 16:55:00"
"76892","Yumbo","76","Valle del Cauca","3.528968908","-76.49981978","13","25","0","12","12","1","0","1","12","                                   8.3333333333333 ","                           4.0000000000000 ","    48.0000000000000 ","      4.0000000000000 ","  ","  ","  ","     48.0000000000000 ","    52.0000000000000 ","2020-05-11 16:55:00"
