"DIVIPOLA","City_Municipality","ID_Deparment","Department","Latitude","Longitude","Active","Confirmed","Deaths","Recovered","House","Hospital","ICU","People_Hospitalized","Total_Hospital_Beds","Total_Hospital_Beds_Utilisation","Total_Hospitalization_Rate","Mild_Rate","Severe_Rate","Critical_Rate","Lethality_Rate","Mortality_Rate","Recovery_Rates","Active_Rate","Cases_Share_Of_Population","Deaths_Share_Of_Population","Last_Update"
"5001","Medellin","5","Antioquia","5.610109776","-74.88681663","1281","2083","15","787","1142","119","20","139","2885","0.048","0.067","0.548","0.057","0.010","0.007","0.5920841","0.378","0.615","1216","168895","2020-06-30 16:50:00"
"5030","Amaga","5","Antioquia","6.038808575","-75.70194607","3","5","0","2","3","0","0","0","5","0.000","0.000","0.600","0.000","0.000","0.000","0.0000000","0.400","0.600","6257","","2020-06-30 16:50:00"
"5034","Andes","5","Antioquia","5.656774852","-75.87879189","0","1","0","1","0","0","0","0","10","0.000","0.000","0.000","0.000","0.000","0.000","0.0000000","1.000","0.000","44199","","2020-06-30 16:50:00"
"5038","Angostura","5","Antioquia","6.885174591","-75.33511597","0","1","0","1","0","0","0","0","3","0.000","0.000","0.000","0.000","0.000","0.000","0.0000000","1.000","0.000","11536","","2020-06-30 16:50:00"
"5042","Santa Fe de Antioquia","5","Antioquia","6.556533296","-75.82707907","4","4","0","0","4","0","0","0","25","0.000","0.000","1.000","0.000","0.000","0.000","0.0000000","0.000","1.000","6751","","2020-06-30 16:50:00"
"5044","Anza","5","Antioquia","6.302658359","-75.85444158","5","5","0","0","5","0","0","0","2","0.000","0.000","1.000","0.000","0.000","0.000","0.0000000","0.000","1.000","1434","","2020-06-30 16:50:00"
"5045","Apartado","5","Antioquia","7.883417406","-76.62596065","68","111","0","43","66","2","0","2","158","0.013","0.018","0.595","0.018","0.000","0.000","0.0000000","0.387","0.613","1151","","2020-06-30 16:50:00"
"5051","Arboletes","5","Antioquia","8.850567734","-76.4270568","10","11","0","1","7","3","0","3","4","0.750","0.273","0.636","0.273","0.000","0.000","0.0000000","0.091","0.909","2774","","2020-06-30 16:50:00"
"5079","Barbosa","5","Antioquia","6.439226882","-75.33164423","5","11","0","6","4","1","0","1","7","0.143","0.091","0.364","0.091","0.000","0.000","0.0000000","0.545","0.455","4941","","2020-06-30 16:50:00"
"5088","Bello","5","Antioquia","6.334068836","-75.55466507","172","315","5","138","152","15","5","20","355","0.056","0.063","0.483","0.048","0.016","0.016","0.9055445","0.438","0.546","1753","110431","2020-06-30 16:50:00"
"5101","Ciudad Bolivar","5","Antioquia","5.850273232","-76.02150921","1","1","0","0","1","0","0","0","23","0.000","0.000","1.000","0.000","0.000","0.000","0.0000000","0.000","1.000","26313","","2020-06-30 16:50:00"
"5113","Buritica","5","Antioquia","6.719735175","-75.90753473","15","15","0","0","15","0","0","0","3","0.000","0.000","1.000","0.000","0.000","0.000","0.0000000","0.000","1.000","642","","2020-06-30 16:50:00"
"5120","Caceres","5","Antioquia","7.578315451","-75.35235749","1","2","0","1","1","0","0","0","5","0.000","0.000","0.500","0.000","0.000","0.000","0.0000000","0.500","0.500","15178","","2020-06-30 16:50:00"
"5129","Caldas","5","Antioquia","6.091296966","-75.63361872","10","17","0","7","9","1","0","1","49","0.020","0.059","0.529","0.059","0.000","0.000","0.0000000","0.412","0.588","4907","","2020-06-30 16:50:00"
"5138","Canasgordas","5","Antioquia","6.759477684","-76.03220994","3","5","0","2","3","0","0","0","3","0.000","0.000","0.600","0.000","0.000","0.000","0.0000000","0.400","0.600","3110","","2020-06-30 16:50:00"
"5142","Caracoli","5","Antioquia","6.409854727","-74.75744944","0","1","0","1","0","0","0","0","1","0.000","0.000","0.000","0.000","0.000","0.000","0.0000000","1.000","0.000","4532","","2020-06-30 16:50:00"
"5147","Carepa","5","Antioquia","7.755116346","-76.65321034","165","363","0","198","162","3","0","3","11","0.273","0.008","0.446","0.008","0.000","0.000","0.0000000","0.545","0.455","141","","2020-06-30 16:50:00"
"5148","El Carmen de Viboral","5","Antioquia","6.084551516","-75.33536246","2","3","0","1","2","0","0","0","11","0.000","0.000","0.667","0.000","0.000","0.000","0.0000000","0.333","0.667","20860","","2020-06-30 16:50:00"
"5154","Caucasia","5","Antioquia","7.977362333","-75.19829033","21","24","1","2","18","2","0","2","126","0.016","0.083","0.750","0.083","0.000","0.042","1.0479214","0.083","0.875","3976","95427","2020-06-30 16:50:00"
"5172","Chigorodo","5","Antioquia","7.666300439","-76.6812164","26","31","0","5","23","3","0","3","31","0.097","0.097","0.742","0.097","0.000","0.000","0.0000000","0.161","0.839","1930","","2020-06-30 16:50:00"
"5190","Cisneros","5","Antioquia","6.537761957","-75.08720761","0","1","0","1","0","0","0","0","6","0.000","0.000","0.000","0.000","0.000","0.000","0.0000000","1.000","0.000","9936","","2020-06-30 16:50:00"
"5197","Cocorna","5","Antioquia","6.058306335","-75.18548101","0","1","0","1","0","0","0","0","2","0.000","0.000","0.000","0.000","0.000","0.000","0.0000000","1.000","0.000","14833","","2020-06-30 16:50:00"
"5212","Copacabana","5","Antioquia","6.348640545","-75.5093439","16","47","0","31","15","0","0","0","6","0.000","0.000","0.319","0.000","0.000","0.000","0.0000000","0.660","0.340","1741","","2020-06-30 16:50:00"
"5234","Dabeiba","5","Antioquia","7.00032194","-76.26297665","3","3","0","0","3","0","0","0","5","0.000","0.000","1.000","0.000","0.000","0.000","0.0000000","0.000","1.000","7836","","2020-06-30 16:50:00"
"5237","Donmatias","5","Antioquia","6.484469957","-75.39272406","3","7","0","4","2","0","1","1","3","0.333","0.143","0.286","0.000","0.143","0.000","0.0000000","0.571","0.429","2816","","2020-06-30 16:50:00"
"5250","El Bagre","5","Antioquia","7.597521794","-74.79909729","1","3","0","2","0","1","0","1","12","0.083","0.333","0.000","0.333","0.000","0.000","0.0000000","0.667","0.333","17949","","2020-06-30 16:50:00"
"5266","Envigado","5","Antioquia","6.167004552","-75.58301014","52","90","0","38","50","2","0","2","131","0.015","0.022","0.556","0.022","0.000","0.000","0.0000000","0.422","0.578","2691","","2020-06-30 16:50:00"
"5284","Frontino","5","Antioquia","6.776065912","-76.13076514","0","3","0","3","0","0","0","0","5","0.000","0.000","0.000","0.000","0.000","0.000","0.0000000","1.000","0.000","6900","","2020-06-30 16:50:00"
"5306","Giraldo","5","Antioquia","6.680808016","-75.95215756","2","5","0","3","2","0","0","0","1","0.000","0.000","0.400","0.000","0.000","0.000","0.0000000","0.600","0.400","1150","","2020-06-30 16:50:00"
"5308","Girardota","5","Antioquia","6.379613834","-75.44446221","4","5","0","1","4","0","0","0","4","0.000","0.000","0.800","0.000","0.000","0.000","0.0000000","0.200","0.800","10888","","2020-06-30 16:50:00"
"5313","Granada","5","Antioquia","6.142896667","-75.18444508","0","1","1","0","0","0","0","0","1","0.000","0.000","0.000","0.000","0.000","1.000","10.2417042","0.000","0.000","9764","9764","2020-06-30 16:50:00"
"5318","Guarne","5","Antioquia","6.278064077","-75.44165392","18","21","0","3","16","2","0","2","4","0.500","0.095","0.762","0.095","0.000","0.000","0.0000000","0.143","0.857","2769","","2020-06-30 16:50:00"
"5321","Guatape","5","Antioquia","6.232592707","-75.16229259","0","2","0","2","0","0","0","0","2","0.000","0.000","0.000","0.000","0.000","0.000","0.0000000","1.000","0.000","4355","","2020-06-30 16:50:00"
"5353","Hispania","5","Antioquia","5.799461575","-75.90658827","3","3","0","0","3","0","0","0","1","0.000","0.000","1.000","0.000","0.000","0.000","0.0000000","0.000","1.000","1864","","2020-06-30 16:50:00"
"5360","Itagui","5","Antioquia","6.169597629","-75.61435871","171","220","0","49","163","8","0","8","168","0.048","0.036","0.741","0.036","0.000","0.000","0.0000000","0.223","0.777","1318","","2020-06-30 16:50:00"
"5361","Ituango","5","Antioquia","7.17162903","-75.76467317","306","560","0","254","304","1","1","2","8","0.250","0.004","0.543","0.002","0.002","0.000","0.0000000","0.454","0.546","50","","2020-06-30 16:50:00"
"5368","Jerico","5","Antioquia","5.789747931","-75.78549855","0","1","0","1","0","0","0","0","2","0.000","0.000","0.000","0.000","0.000","0.000","0.0000000","1.000","0.000","13706","","2020-06-30 16:50:00"
"5376","La Ceja","5","Antioquia","6.028055744","-75.42943089","21","29","0","8","19","2","0","2","120","0.017","0.069","0.655","0.069","0.000","0.000","0.0000000","0.276","0.724","2356","","2020-06-30 16:50:00"
"5380","La Estrella","5","Antioquia","6.15841974","-75.64519038","46","66","0","20","44","2","0","2","3","0.667","0.030","0.667","0.030","0.000","0.000","0.0000000","0.303","0.697","1144","","2020-06-30 16:50:00"
"5425","Maceo","5","Antioquia","6.552116913","-74.78716148","2","4","0","2","2","0","0","0","4","0.000","0.000","0.500","0.000","0.000","0.000","0.0000000","0.500","0.500","2062","","2020-06-30 16:50:00"
"5440","Marinilla","5","Antioquia","6.172269255","-75.33947788","4","8","0","4","4","0","0","0","4","0.000","0.000","0.500","0.000","0.000","0.000","0.0000000","0.500","0.500","8487","","2020-06-30 16:50:00"
"5467","Montebello","5","Antioquia","5.946325567","-75.52351091","0","3","0","3","0","0","0","0","2","0.000","0.000","0.000","0.000","0.000","0.000","0.0000000","1.000","0.000","2214","","2020-06-30 16:50:00"
"5475","Murindo","5","Antioquia","6.977691853","-76.81745806","4","4","0","0","4","0","0","0","3","0.000","0.000","1.000","0.000","0.000","0.000","0.0000000","0.000","1.000","1309","","2020-06-30 16:50:00"
"5480","Mutata","5","Antioquia","7.242875057","-76.4358754","6","6","0","0","6","0","0","0","6","0.000","0.000","1.000","0.000","0.000","0.000","0.0000000","0.000","1.000","2398","","2020-06-30 16:50:00"
"5483","Narino","5","Antioquia","5.610774585","-75.17626132","1","1","0","0","0","1","0","1","5","0.200","1.000","0.000","1.000","0.000","0.000","0.0000000","0.000","1.000","9947","","2020-06-30 16:50:00"
"5490","Necocli","5","Antioquia","8.426135983","-76.7845745","3","3","0","0","2","1","0","1","8","0.125","0.333","0.667","0.333","0.000","0.000","0.0000000","0.000","1.000","14706","","2020-06-30 16:50:00"
"5495","Nechi","5","Antioquia","8.094128661","-74.77647012","18","20","1","1","14","3","1","4","9","0.444","0.200","0.700","0.150","0.050","0.050","3.6557725","0.050","0.900","1368","27354","2020-06-30 16:50:00"
"5579","Puerto Berrio","5","Antioquia","6.48704114","-74.40994553","1","1","0","0","1","0","0","0","31","0.000","0.000","1.000","0.000","0.000","0.000","0.0000000","0.000","1.000","40713","","2020-06-30 16:50:00"
"5591","Puerto Triunfo","5","Antioquia","5.871212959","-74.64126293","1","1","0","0","1","0","0","0","5","0.000","0.000","1.000","0.000","0.000","0.000","0.0000000","0.000","1.000","18970","","2020-06-30 16:50:00"
"5604","Remedios","5","Antioquia","7.026094053","-74.69594426","1","1","0","0","1","0","0","0","6","0.000","0.000","1.000","0.000","0.000","0.000","0.0000000","0.000","1.000","29629","","2020-06-30 16:50:00"
"5607","Retiro","5","Antioquia","6.063379954","-75.50137516","1","2","0","1","1","0","0","0","12","0.000","0.000","0.500","0.000","0.000","0.000","0.0000000","0.500","0.500","12379","","2020-06-30 16:50:00"
"5615","Rionegro","5","Antioquia","6.14722409","-75.37676938","19","33","0","14","17","2","0","2","304","0.007","0.061","0.515","0.061","0.000","0.000","0.0000000","0.424","0.576","4333","","2020-06-30 16:50:00"
"5631","Sabaneta","5","Antioquia","6.150970181","-75.61558529","31","53","0","22","31","0","0","0","22","0.000","0.000","0.585","0.000","0.000","0.000","0.0000000","0.415","0.585","1660","","2020-06-30 16:50:00"
"5642","Salgar","5","Antioquia","5.96564031","-75.98204854","14","24","0","10","12","2","0","2","3","0.667","0.083","0.500","0.083","0.000","0.000","0.0000000","0.417","0.583","761","","2020-06-30 16:50:00"
"5652","San Francisco","5","Antioquia","5.964079131","-75.10268697","0","1","1","0","0","0","0","0","3","0.000","0.000","0.000","0.000","0.000","1.000","16.9808117","0.000","0.000","5889","5889","2020-06-30 16:50:00"
"5659","San Juan de Uraba","5","Antioquia","8.759341801","-76.52879434","2","2","0","0","1","1","0","1","3","0.333","0.500","0.500","0.500","0.000","0.000","0.0000000","0.000","1.000","10475","","2020-06-30 16:50:00"
"5665","San Pedro de Uraba","5","Antioquia","8.276886664","-76.38057789","0","1","0","1","0","0","0","0","5","0.000","0.000","0.000","0.000","0.000","0.000","0.0000000","1.000","0.000","32147","","2020-06-30 16:50:00"
"5670","San Roque","5","Antioquia","6.485948936","-75.01915757","0","1","0","1","0","0","0","0","7","0.000","0.000","0.000","0.000","0.000","0.000","0.0000000","1.000","0.000","21597","","2020-06-30 16:50:00"
"5679","Santa Barbara","5","Antioquia","5.875533398","-75.56735178","1","1","0","0","1","0","0","0","4","0.000","0.000","1.000","0.000","0.000","0.000","0.0000000","0.000","1.000","27186","","2020-06-30 16:50:00"
"5686","Santa Rosa de Osos","5","Antioquia","6.643326001","-75.46074502","1","3","0","2","1","0","0","0","6","0.000","0.000","0.333","0.000","0.000","0.000","0.0000000","0.667","0.333","12623","","2020-06-30 16:50:00"
"5697","El Santuario","5","Antioquia","6.137046858","-75.26584979","4","5","0","1","4","0","0","0","4","0.000","0.000","0.800","0.000","0.000","0.000","0.0000000","0.200","0.800","7321","","2020-06-30 16:50:00"
"5756","Sonson","5","Antioquia","5.714811641","-75.30939515","0","2","0","2","0","0","0","0","4","0.000","0.000","0.000","0.000","0.000","0.000","0.0000000","1.000","0.000","18313","","2020-06-30 16:50:00"
"5789","Tamesis","5","Antioquia","5.664466636","-75.71432069","5","7","0","2","5","0","0","0","4","0.000","0.000","0.714","0.000","0.000","0.000","0.0000000","0.286","0.714","2314","","2020-06-30 16:50:00"
"5790","Taraza","5","Antioquia","7.580120815","-75.40140596","3","6","0","3","3","0","0","0","5","0.000","0.000","0.500","0.000","0.000","0.000","0.0000000","0.500","0.500","4666","","2020-06-30 16:50:00"
"5837","Turbo","5","Antioquia","8.089116411","-76.72915844","82","141","1","58","81","1","0","1","51","0.020","0.007","0.574","0.007","0.000","0.007","0.7681022","0.411","0.582","923","130191","2020-06-30 16:50:00"
"5854","Valdivia","5","Antioquia","7.16534","-75.43919844","6","8","0","2","6","0","0","0","4","0.000","0.000","0.750","0.000","0.000","0.000","0.0000000","0.250","0.750","1763","","2020-06-30 16:50:00"
"5873","Vigia del Fuerte","5","Antioquia","6.588119845","-76.89618698","15","15","0","0","14","1","0","1","3","0.333","0.067","0.933","0.067","0.000","0.000","0.0000000","0.000","1.000","628","","2020-06-30 16:50:00"
"5887","Yarumal","5","Antioquia","6.963872352","-75.41883314","3","5","1","1","3","0","0","0","37","0.000","0.000","0.600","0.000","0.000","0.200","2.3431276","0.200","0.600","8536","42678","2020-06-30 16:50:00"
"5890","Yolombo","5","Antioquia","6.594592434","-75.01335058","1","3","0","2","1","0","0","0","26","0.000","0.000","0.333","0.000","0.000","0.000","0.0000000","0.667","0.333","7834","","2020-06-30 16:50:00"
"8001","Barranquilla","8","Atlantico","10.97592682","-74.79525905","7907","12753","674","4172","7122","632","113","745","2591","0.288","0.058","0.558","0.050","0.009","0.053","52.8938591","0.327","0.620","100","1891","2020-06-30 16:50:00"
"8078","Baranoa","8","Atlantico","10.79488048","-74.91609981","430","540","19","91","389","36","5","41","218","0.188","0.076","0.720","0.067","0.009","0.035","28.3370619","0.169","0.796","124","3529","2020-06-30 16:50:00"
"8137","Campo de la Cruz","8","Atlantico","10.37924013","-74.88315173","12","16","0","4","11","1","0","1","16","0.063","0.063","0.688","0.063","0.000","0.000","0.0000000","0.250","0.750","1473","","2020-06-30 16:50:00"
"8141","Candelaria","8","Atlantico","10.46121723","-74.8799126","31","33","1","1","31","0","0","0","2","0.000","0.000","0.939","0.000","0.000","0.030","5.8156441","0.030","0.939","521","17195","2020-06-30 16:50:00"
"8296","Galapa","8","Atlantico","10.919641","-74.8669381","499","699","33","167","481","16","1","17","5","3.400","0.024","0.688","0.023","0.001","0.047","49.2382984","0.239","0.714","96","2031","2020-06-30 16:50:00"
"8372","Juan de Acosta","8","Atlantico","10.83018223","-75.04079914","30","39","0","9","30","0","0","0","6","0.000","0.000","0.769","0.000","0.000","0.000","0.0000000","0.231","0.769","583","","2020-06-30 16:50:00"
"8421","Luruaco","8","Atlantico","10.61111642","-75.14224614","19","49","1","29","16","1","2","3","61","0.049","0.061","0.327","0.020","0.041","0.020","3.2988058","0.592","0.388","619","30314","2020-06-30 16:50:00"
"8433","Malambo","8","Atlantico","10.85628724","-74.77424057","656","1219","76","487","605","44","6","50","52","0.962","0.041","0.496","0.036","0.005","0.062","54.4545233","0.400","0.538","114","1836","2020-06-30 16:50:00"
"8436","Manati","8","Atlantico","10.44896238","-74.95703499","22","33","0","11","20","1","1","2","1","2.000","0.061","0.606","0.030","0.030","0.000","0.0000000","0.333","0.667","650","","2020-06-30 16:50:00"
"8520","Palmar de Varela","8","Atlantico","10.73858326","-74.75475789","76","154","4","74","69","7","0","7","36","0.194","0.045","0.448","0.045","0.000","0.026","12.8874283","0.481","0.494","202","7760","2020-06-30 16:50:00"
"8549","Piojo","8","Atlantico","10.74934442","-75.10747012","11","21","1","9","11","0","0","0","1","0.000","0.000","0.524","0.000","0.000","0.048","14.1063620","0.429","0.524","338","7089","2020-06-30 16:50:00"
"8558","Polonuevo","8","Atlantico","10.77772451","-74.85425725","104","139","2","33","98","4","2","6","3","2.000","0.043","0.705","0.029","0.014","0.014","10.2327961","0.237","0.748","141","9773","2020-06-30 16:50:00"
"8560","Ponedera","8","Atlantico","10.64179593","-74.75390044","43","59","1","15","39","3","0","3","11","0.273","0.051","0.661","0.051","0.000","0.017","3.8868159","0.254","0.729","436","25728","2020-06-30 16:50:00"
"8573","Puerto Colombia","8","Atlantico","11.02294005","-74.85196357","350","452","14","88","340","9","0","9","344","0.026","0.020","0.752","0.020","0.000","0.031","26.0955470","0.195","0.774","119","3832","2020-06-30 16:50:00"
"8606","Repelon","8","Atlantico","10.49334167","-75.12548162","30","32","2","0","23","6","0","6","1","6.000","0.188","0.719","0.188","0.000","0.063","7.1169312","0.000","0.938","878","14051","2020-06-30 16:50:00"
"8634","Sabanagrande","8","Atlantico","10.79107595","-74.75850721","211","373","9","153","192","16","2","18","41","0.439","0.048","0.515","0.043","0.005","0.024","25.6527192","0.410","0.566","94","3898","2020-06-30 16:50:00"
"8638","Sabanalarga","8","Atlantico","10.63283523","-74.92109368","204","342","8","130","191","12","1","13","114","0.114","0.038","0.558","0.035","0.003","0.023","7.9960819","0.380","0.596","293","12506","2020-06-30 16:50:00"
"8675","Santa Lucia","8","Atlantico","10.32327321","-74.95897145","18","29","1","10","18","0","0","0","0","","0.000","0.621","0.000","0.000","0.034","5.8465856","0.345","0.621","590","17104","2020-06-30 16:50:00"
"8685","Santo Tomas","8","Atlantico","10.75605629","-74.75411186","107","183","5","71","96","8","3","11","32","0.344","0.060","0.525","0.044","0.016","0.027","15.6250000","0.388","0.585","175","6400","2020-06-30 16:50:00"
"8758","Soledad","8","Atlantico","10.91017447","-74.78483338","3549","6001","292","2160","3247","246","47","293","327","0.896","0.049","0.541","0.041","0.008","0.049","43.9083879","0.360","0.591","111","2277","2020-06-30 16:50:00"
"8770","Suan","8","Atlantico","10.33543138","-74.88168748","24","27","0","3","21","3","0","3","1","3.000","0.111","0.778","0.111","0.000","0.000","0.0000000","0.111","0.889","466","","2020-06-30 16:50:00"
"8832","Tubara","8","Atlantico","10.87364774","-74.97867947","73","98","6","19","67","3","2","5","2","2.500","0.051","0.684","0.031","0.020","0.061","31.8369946","0.194","0.745","192","3141","2020-06-30 16:50:00"
"8849","Usiacuri","8","Atlantico","10.74297819","-74.97698261","51","69","2","16","50","1","0","1","1","1.000","0.014","0.725","0.014","0.000","0.029","15.2160682","0.232","0.739","190","6572","2020-06-30 16:50:00"
"11001","Bogota D.C.","11","Bogota D.C.","4.65017303","-74.107359","16581","30017","680","12756","14904","1502","142","1644","7247","0.227","0.055","0.497","0.050","0.005","0.023","8.7810428","0.425","0.552","258","11388","2020-06-30 16:50:00"
"13001","Cartagena de Indias","13","Bolivar","10.38498552","-75.49643103","3613","8149","323","4213","3339","203","62","265","1588","0.167","0.033","0.410","0.025","0.008","0.040","31.3977541","0.517","0.443","126","3185","2020-06-30 16:50:00"
"13030","Altos del Rosario","13","Bolivar","8.791606399","-74.16504945","1","1","0","0","0","1","0","1","2","0.500","1.000","0.000","1.000","0.000","0.000","0.0000000","0.000","1.000","11585","","2020-06-30 16:50:00"
"13042","Arenal","13","Bolivar","8.458630438","-73.94111583","2","2","0","0","2","0","0","0","4","0.000","0.000","1.000","0.000","0.000","0.000","0.0000000","0.000","1.000","3888","","2020-06-30 16:50:00"
"13052","Arjona","13","Bolivar","10.25663152","-75.34448845","104","161","5","52","100","3","1","4","10","0.400","0.025","0.621","0.019","0.006","0.031","6.7815001","0.323","0.646","458","14746","2020-06-30 16:50:00"
"13062","Arroyohondo","13","Bolivar","10.24279848","-75.01719268","1","1","0","0","0","1","0","1","1","1.000","1.000","0.000","1.000","0.000","0.000","0.0000000","0.000","1.000","8710","","2020-06-30 16:50:00"
"13074","Barranco de Loba","13","Bolivar","8.947730158","-74.10522428","0","1","1","0","0","0","0","0","6","0.000","0.000","0.000","0.000","0.000","1.000","6.5871813","0.000","0.000","15181","15181","2020-06-30 16:50:00"
"13140","Calamar","13","Bolivar","10.25196336","-74.91362928","29","31","1","1","29","0","0","0","7","0.000","0.000","0.935","0.000","0.000","0.032","4.3295666","0.032","0.935","745","23097","2020-06-30 16:50:00"
"13188","Cicuco","13","Bolivar","9.274745598","-74.64549419","3","3","0","0","1","2","0","2","1","2.000","0.667","0.333","0.667","0.000","0.000","0.0000000","0.000","1.000","4767","","2020-06-30 16:50:00"
"13222","Clemencia","13","Bolivar","10.56754177","-75.32851201","6","10","1","3","6","0","0","0","3","0.000","0.000","0.600","0.000","0.000","0.100","6.4712354","0.300","0.600","1545","15453","2020-06-30 16:50:00"
"13244","El Carmen de Bolivar","13","Bolivar","9.718579864","-75.12121573","34","48","4","10","32","1","1","2","49","0.041","0.042","0.667","0.021","0.021","0.083","5.5100214","0.208","0.708","1512","18149","2020-06-30 16:50:00"
"13430","Magangue","13","Bolivar","9.268563794","-74.77017457","120","132","6","6","92","27","0","27","220","0.123","0.205","0.697","0.205","0.000","0.045","4.2809441","0.045","0.909","1062","23359","2020-06-30 16:50:00"
"13433","Mahates","13","Bolivar","10.23325452","-75.19133659","40","55","1","14","39","1","0","1","10","0.100","0.018","0.709","0.018","0.000","0.018","3.4065747","0.255","0.727","534","29355","2020-06-30 16:50:00"
"13442","Maria la Baja","13","Bolivar","9.982645517","-75.30075935","4","9","1","4","3","0","1","1","1","1.000","0.111","0.333","0.000","0.111","0.111","2.0636853","0.444","0.444","5384","48457","2020-06-30 16:50:00"
"13458","Montecristo","13","Bolivar","8.297136275","-74.47170385","1","1","0","0","1","0","0","0","4","0.000","0.000","1.000","0.000","0.000","0.000","0.0000000","0.000","1.000","17604","","2020-06-30 16:50:00"
"13468","Mompos","13","Bolivar","9.243883757","-74.42786642","5","7","0","2","1","4","0","4","36","0.111","0.571","0.143","0.571","0.000","0.000","0.0000000","0.286","0.714","6630","","2020-06-30 16:50:00"
"13549","Pinillos","13","Bolivar","8.915452234","-74.46240354","2","2","0","0","1","1","0","1","4","0.250","0.500","0.500","0.500","0.000","0.000","0.0000000","0.000","1.000","12353","","2020-06-30 16:50:00"
"13620","San Cristobal","13","Bolivar","10.39285577","-75.06553417","10","11","0","1","10","0","0","0","1","0.000","0.000","0.909","0.000","0.000","0.000","0.0000000","0.091","0.909","779","","2020-06-30 16:50:00"
"13647","San Estanislao","13","Bolivar","10.3984757","-75.15325792","1","1","0","0","1","0","0","0","1","0.000","0.000","1.000","0.000","0.000","0.000","0.0000000","0.000","1.000","19128","","2020-06-30 16:50:00"
"13654","San Jacinto","13","Bolivar","9.830219073","-75.1210888","3","3","0","0","2","0","1","1","7","0.143","0.333","0.667","0.000","0.333","0.000","0.0000000","0.000","1.000","8184","","2020-06-30 16:50:00"
"13657","San Juan Nepomuceno","13","Bolivar","9.953454388","-75.08135293","14","22","1","7","14","0","0","0","8","0.000","0.000","0.636","0.000","0.000","0.045","2.5954476","0.318","0.636","1751","38529","2020-06-30 16:50:00"
"13667","San Martin de Loba","13","Bolivar","8.937090811","-74.03901175","1","1","0","0","1","0","0","0","6","0.000","0.000","1.000","0.000","0.000","0.000","0.0000000","0.000","1.000","14897","","2020-06-30 16:50:00"
"13670","San Pablo","13","Bolivar","7.476720672","-73.92416855","4","5","0","1","3","1","0","1","6","0.167","0.200","0.600","0.200","0.000","0.000","0.0000000","0.200","0.800","5748","","2020-06-30 16:50:00"
"13673","Santa Catalina","13","Bolivar","10.60505605","-75.28776411","7","12","0","5","6","1","0","1","5","0.200","0.083","0.500","0.083","0.000","0.000","0.0000000","0.417","0.583","1246","","2020-06-30 16:50:00"
"13683","Santa Rosa","13","Bolivar","10.44439608","-75.36983166","23","74","6","45","19","3","1","4","16","0.250","0.054","0.257","0.041","0.014","0.081","26.7749565","0.608","0.311","303","3735","2020-06-30 16:50:00"
"13688","Santa Rosa del Sur","13","Bolivar","7.962854831","-74.05284001","3","4","0","1","2","1","0","1","11","0.091","0.250","0.500","0.250","0.000","0.000","0.0000000","0.250","0.750","8642","","2020-06-30 16:50:00"
"13760","Soplaviento","13","Bolivar","10.38845743","-75.13642551","9","9","0","0","9","0","0","0","3","0.000","0.000","1.000","0.000","0.000","0.000","0.0000000","0.000","1.000","1204","","2020-06-30 16:50:00"
"13810","Tiquisio","13","Bolivar","8.507047679","-74.33825319","12","12","0","0","10","2","0","2","4","0.500","0.167","0.833","0.167","0.000","0.000","0.0000000","0.000","1.000","1586","","2020-06-30 16:50:00"
"13836","Turbaco","13","Bolivar","10.33276916","-75.42440917","122","244","8","114","117","4","1","5","70","0.071","0.020","0.480","0.016","0.004","0.033","7.0521862","0.467","0.500","465","14180","2020-06-30 16:50:00"
"13838","Turbana","13","Bolivar","10.27440205","-75.44250247","18","44","3","23","16","2","0","2","1","2.000","0.045","0.364","0.045","0.000","0.068","17.2294969","0.523","0.409","396","5804","2020-06-30 16:50:00"
"13873","Villanueva","13","Bolivar","10.44449833","-75.27475439","28","60","4","28","26","1","1","2","1","2.000","0.033","0.433","0.017","0.017","0.067","15.8535135","0.467","0.467","421","6308","2020-06-30 16:50:00"
"13894","Zambrano","13","Bolivar","9.7469139","-74.8138396","1","1","0","0","1","0","0","0","5","0.000","0.000","1.000","0.000","0.000","0.000","0.0000000","0.000","1.000","12322","","2020-06-30 16:50:00"
"15001","Tunja","15","Boyaca","5.539953238","-73.35548873","44","112","3","65","37","6","0","6","299","0.020","0.054","0.330","0.054","0.000","0.027","1.6735188","0.580","0.393","1601","59754","2020-06-30 16:50:00"
"15047","Aquitania","15","Boyaca","5.518603543","-72.88398481","0","2","0","2","0","0","0","0","3","0.000","0.000","0.000","0.000","0.000","0.000","0.0000000","1.000","0.000","7773","","2020-06-30 16:50:00"
"15109","Buenavista","15","Boyaca","5.512431151","-73.94230522","0","1","0","1","0","0","0","0","0","","0.000","0.000","0.000","0.000","0.000","0.0000000","1.000","0.000","4396","","2020-06-30 16:50:00"
"15131","Caldas","15","Boyaca","5.554575079","-73.865541","1","2","0","1","0","1","0","1","0","","0.500","0.000","0.500","0.000","0.000","0.0000000","0.500","0.500","1563","","2020-06-30 16:50:00"
"15176","Chiquinquira","15","Boyaca","5.61412789","-73.81838763","6","24","1","17","6","0","0","0","47","0.000","0.000","0.250","0.000","0.000","0.042","1.7260723","0.708","0.250","2414","57935","2020-06-30 16:50:00"
"15204","Combita","15","Boyaca","5.634545314","-73.32395642","3","8","0","5","3","0","0","0","0","","0.000","0.375","0.000","0.000","0.000","0.0000000","0.625","0.375","1660","","2020-06-30 16:50:00"
"15212","Coper","15","Boyaca","5.474983018","-74.04546072","0","1","0","1","0","0","0","0","0","","0.000","0.000","0.000","0.000","0.000","0.0000000","1.000","0.000","3571","","2020-06-30 16:50:00"
"15215","Corrales","15","Boyaca","5.828102208","-72.84479484","0","1","0","1","0","0","0","0","0","","0.000","0.000","0.000","0.000","0.000","0.0000000","1.000","0.000","2545","","2020-06-30 16:50:00"
"15223","Cubara","15","Boyaca","7.000092875","-72.11068776","1","3","0","2","0","0","0","0","3","0.000","0.000","0.000","0.000","0.000","0.000","0.0000000","0.667","0.333","3583","","2020-06-30 16:50:00"
"15224","Cucaita","15","Boyaca","5.544451559","-73.45433765","0","2","1","1","0","0","0","0","0","","0.000","0.000","0.000","0.000","0.500","26.4061262","0.500","0.000","1894","3787","2020-06-30 16:50:00"
"15238","Duitama","15","Boyaca","5.82298568","-73.03060967","22","49","0","27","16","5","0","5","110","0.045","0.102","0.327","0.102","0.000","0.000","0.0000000","0.551","0.449","2585","","2020-06-30 16:50:00"
"15272","Firavitoba","15","Boyaca","5.66892216","-72.99336145","2","3","0","1","2","0","0","0","0","","0.000","0.667","0.000","0.000","0.000","0.0000000","0.333","0.667","2267","","2020-06-30 16:50:00"
"15296","Gameza","15","Boyaca","5.802337805","-72.80552935","1","1","0","0","0","0","1","1","0","","1.000","0.000","0.000","1.000","0.000","0.0000000","0.000","1.000","4851","","2020-06-30 16:50:00"
"15299","Garagoa","15","Boyaca","5.083243463","-73.36442756","0","4","1","3","0","0","0","0","15","0.000","0.000","0.000","0.000","0.000","0.250","5.4579194","0.750","0.000","4581","18322","2020-06-30 16:50:00"
"15322","Guateque","15","Boyaca","5.007320895","-73.47120697","3","13","1","9","3","0","0","0","15","0.000","0.000","0.231","0.000","0.000","0.077","9.1709464","0.692","0.231","839","10904","2020-06-30 16:50:00"
"15325","Guayata","15","Boyaca","4.967122531","-73.4896964","2","2","0","0","1","1","0","1","0","","0.500","0.500","0.500","0.000","0.000","0.0000000","0.000","1.000","1696","","2020-06-30 16:50:00"
"15403","La Uvita","15","Boyaca","6.316206406","-72.5599847","1","1","0","0","1","0","0","0","0","","0.000","1.000","0.000","0.000","0.000","0.0000000","0.000","1.000","2730","","2020-06-30 16:50:00"
"15407","Villa de Leyva","15","Boyaca","5.632661849","-73.5246846","1","6","0","5","1","0","0","0","3","0.000","0.000","0.167","0.000","0.000","0.000","0.0000000","0.833","0.167","2829","","2020-06-30 16:50:00"
"15455","Miraflores","15","Boyaca","5.196515115","-73.14563048","1","2","0","1","1","0","0","0","6","0.000","0.000","0.500","0.000","0.000","0.000","0.0000000","0.500","0.500","4508","","2020-06-30 16:50:00"
"15469","Moniquira","15","Boyaca","5.876334811","-73.57337039","5","9","0","4","5","0","0","0","19","0.000","0.000","0.556","0.000","0.000","0.000","0.0000000","0.444","0.556","2560","","2020-06-30 16:50:00"
"15480","Muzo","15","Boyaca","5.532462867","-74.10275078","0","1","0","1","0","0","0","0","4","0.000","0.000","0.000","0.000","0.000","0.000","0.0000000","1.000","0.000","8394","","2020-06-30 16:50:00"
"15491","Nobsa","15","Boyaca","5.771042624","-72.93985317","1","1","0","0","1","0","0","0","0","","0.000","1.000","0.000","0.000","0.000","0.0000000","0.000","1.000","16446","","2020-06-30 16:50:00"
"15494","Nuevo Colon","15","Boyaca","5.355145864","-73.45713618","0","1","0","1","0","0","0","0","0","","0.000","0.000","0.000","0.000","0.000","0.0000000","1.000","0.000","5217","","2020-06-30 16:50:00"
"15500","Oicata","15","Boyaca","5.595234239","-73.30840398","0","1","0","1","0","0","0","0","22","0.000","0.000","0.000","0.000","0.000","0.000","0.0000000","1.000","0.000","2890","","2020-06-30 16:50:00"
"15516","Paipa","15","Boyaca","5.77994187","-73.11791688","2","6","1","3","0","1","0","1","4","0.250","0.167","0.000","0.167","0.000","0.167","2.8835895","0.500","0.333","5780","34679","2020-06-30 16:50:00"
"15531","Pauna","15","Boyaca","5.656322691","-73.97844872","0","1","0","1","0","0","0","0","2","0.000","0.000","0.000","0.000","0.000","0.000","0.0000000","1.000","0.000","7212","","2020-06-30 16:50:00"
"15533","Paya","15","Boyaca","5.625698707","-72.42377541","0","2","0","2","0","0","0","0","0","","0.000","0.000","0.000","0.000","0.000","0.0000000","1.000","0.000","1318","","2020-06-30 16:50:00"
"15572","Puerto Boyaca","15","Boyaca","5.977934952","-74.58799919","2","2","0","0","2","0","0","0","17","0.000","0.000","1.000","0.000","0.000","0.000","0.0000000","0.000","1.000","24136","","2020-06-30 16:50:00"
"15599","Ramiriqui","15","Boyaca","5.400221644","-73.33486896","2","2","0","0","2","0","0","0","4","0.000","0.000","1.000","0.000","0.000","0.000","0.0000000","0.000","1.000","5038","","2020-06-30 16:50:00"
"15646","Samaca","15","Boyaca","5.492314591","-73.48564359","2","4","1","1","2","0","0","0","3","0.000","0.000","0.500","0.000","0.000","0.250","5.3140610","0.250","0.500","4705","18818","2020-06-30 16:50:00"
"15676","San Miguel de Sema","15","Boyaca","5.518086388","-73.72200484","0","1","0","1","0","0","0","0","0","","0.000","0.000","0.000","0.000","0.000","0.0000000","1.000","0.000","3011","","2020-06-30 16:50:00"
"15686","Santana","15","Boyaca","6.057413107","-73.48122632","0","4","0","4","0","0","0","0","0","","0.000","0.000","0.000","0.000","0.000","0.0000000","1.000","0.000","1928","","2020-06-30 16:50:00"
"15693","Santa Rosa de Viterbo","15","Boyaca","5.874555597","-72.98246092","0","1","0","1","0","0","0","0","0","","0.000","0.000","0.000","0.000","0.000","0.0000000","1.000","0.000","13325","","2020-06-30 16:50:00"
"15696","Santa Sofia","15","Boyaca","5.713269421","-73.60270717","0","1","0","1","0","0","0","0","0","","0.000","0.000","0.000","0.000","0.000","0.0000000","1.000","0.000","3212","","2020-06-30 16:50:00"
"15757","Socha","15","Boyaca","5.996713021","-72.69196586","0","4","0","4","0","0","0","0","2","0.000","0.000","0.000","0.000","0.000","0.000","0.0000000","1.000","0.000","2022","","2020-06-30 16:50:00"
"15759","Sogamoso","15","Boyaca","5.72568939","-72.92304769","27","41","1","13","20","4","2","6","171","0.035","0.146","0.488","0.098","0.049","0.024","0.7627474","0.317","0.659","3198","131105","2020-06-30 16:50:00"
"15774","Susacon","15","Boyaca","6.230332074","-72.69028925","4","4","0","0","3","1","0","1","0","","0.250","0.750","0.250","0.000","0.000","0.0000000","0.000","1.000","676","","2020-06-30 16:50:00"
"15776","Sutamarchan","15","Boyaca","5.619781419","-73.6205861","3","17","0","14","3","0","0","0","0","","0.000","0.176","0.000","0.000","0.000","0.0000000","0.824","0.176","366","","2020-06-30 16:50:00"
"15790","Tasco","15","Boyaca","5.909821031","-72.78101116","0","1","1","0","0","0","0","0","0","","0.000","0.000","0.000","0.000","1.000","17.2651934","0.000","0.000","5792","5792","2020-06-30 16:50:00"
"15798","Tenza","15","Boyaca","5.077074351","-73.42058911","0","2","0","2","0","0","0","0","0","","0.000","0.000","0.000","0.000","0.000","0.0000000","1.000","0.000","1911","","2020-06-30 16:50:00"
"15808","Tinjaca","15","Boyaca","5.57971331","-73.64684734","0","1","0","1","0","0","0","0","0","","0.000","0.000","0.000","0.000","0.000","0.0000000","1.000","0.000","3351","","2020-06-30 16:50:00"
"15810","Tipacoque","15","Boyaca","6.418585803","-72.69317268","0","1","0","1","0","0","0","0","0","","0.000","0.000","0.000","0.000","0.000","0.0000000","1.000","0.000","3290","","2020-06-30 16:50:00"
"15814","Toca","15","Boyaca","5.56646915","-73.18479034","3","5","0","2","2","1","0","1","4","0.250","0.200","0.400","0.200","0.000","0.000","0.0000000","0.400","0.600","1779","","2020-06-30 16:50:00"
"15816","Togui","15","Boyaca","5.937438225","-73.51365506","0","14","0","14","0","0","0","0","0","","0.000","0.000","0.000","0.000","0.000","0.0000000","1.000","0.000","310","","2020-06-30 16:50:00"
"15822","Tota","15","Boyaca","5.560497374","-72.98589814","1","1","0","0","1","0","0","0","0","","0.000","1.000","0.000","0.000","0.000","0.0000000","0.000","1.000","5233","","2020-06-30 16:50:00"
"15835","Turmeque","15","Boyaca","5.323252768","-73.49184702","0","3","0","3","0","0","0","0","2","0.000","0.000","0.000","0.000","0.000","0.000","0.0000000","1.000","0.000","2052","","2020-06-30 16:50:00"
"15861","Ventaquemada","15","Boyaca","5.368733979","-73.52237325","0","6","0","6","0","0","0","0","0","","0.000","0.000","0.000","0.000","0.000","0.0000000","1.000","0.000","2682","","2020-06-30 16:50:00"
"15879","Viracacha","15","Boyaca","5.436788535","-73.29689965","0","1","0","1","0","0","0","0","0","","0.000","0.000","0.000","0.000","0.000","0.0000000","1.000","0.000","2809","","2020-06-30 16:50:00"
"17001","Manizales","17","Caldas","5.057688197","-75.49104898","47","130","2","81","42","3","1","4","796","0.005","0.031","0.323","0.023","0.008","0.015","0.4482697","0.623","0.362","3432","223080","2020-06-30 16:50:00"
"17013","Aguadas","17","Caldas","5.610244456","-75.45486967","0","1","0","1","0","0","0","0","8","0.000","0.000","0.000","0.000","0.000","0.000","0.0000000","1.000","0.000","23048","","2020-06-30 16:50:00"
"17042","Anserma","17","Caldas","5.236474391","-75.78434266","0","1","0","1","0","0","0","0","10","0.000","0.000","0.000","0.000","0.000","0.000","0.0000000","1.000","0.000","36691","","2020-06-30 16:50:00"
"17050","Aranzazu","17","Caldas","5.271141768","-75.49125461","1","1","0","0","1","0","0","0","6","0.000","0.000","1.000","0.000","0.000","0.000","0.0000000","0.000","1.000","10556","","2020-06-30 16:50:00"
"17174","Chinchina","17","Caldas","4.985812862","-75.60748073","2","10","0","8","1","1","0","1","38","0.026","0.100","0.100","0.100","0.000","0.000","0.0000000","0.800","0.200","5227","","2020-06-30 16:50:00"
"17380","La Dorada","17","Caldas","5.444406098","-74.65820562","18","81","2","61","16","2","0","2","61","0.033","0.025","0.198","0.025","0.000","0.025","2.7024836","0.753","0.222","914","37003","2020-06-30 16:50:00"
"17433","Manzanares","17","Caldas","5.255720253","-75.15282885","0","2","1","1","0","0","0","0","5","0.000","0.000","0.000","0.000","0.000","0.500","5.6198719","0.500","0.000","8897","17794","2020-06-30 16:50:00"
"17442","Marmato","17","Caldas","5.47400482","-75.60024162","0","1","0","1","0","0","0","0","5","0.000","0.000","0.000","0.000","0.000","0.000","0.0000000","1.000","0.000","9167","","2020-06-30 16:50:00"
"17444","Marquetalia","17","Caldas","5.297524561","-75.05309703","0","7","0","7","0","0","0","0","5","0.000","0.000","0.000","0.000","0.000","0.000","0.0000000","1.000","0.000","1927","","2020-06-30 16:50:00"
"17486","Neira","17","Caldas","5.166705703","-75.51984208","0","1","0","1","0","0","0","0","7","0.000","0.000","0.000","0.000","0.000","0.000","0.0000000","1.000","0.000","21114","","2020-06-30 16:50:00"
"17495","Norcasia","17","Caldas","5.574795393","-74.88954408","0","1","1","0","0","0","0","0","4","0.000","0.000","0.000","0.000","0.000","1.000","16.3185379","0.000","0.000","6128","6128","2020-06-30 16:50:00"
"17614","Riosucio","17","Caldas","5.423680913","-75.70206971","1","3","0","2","1","0","0","0","14","0.000","0.000","0.333","0.000","0.000","0.000","0.0000000","0.667","0.333","17319","","2020-06-30 16:50:00"
"17616","Risaralda","17","Caldas","5.164508957","-75.76721954","0","1","0","1","0","0","0","0","6","0.000","0.000","0.000","0.000","0.000","0.000","0.0000000","1.000","0.000","10568","","2020-06-30 16:50:00"
"17662","Samana","17","Caldas","5.413086301","-74.99225776","0","2","0","2","0","0","0","0","9","0.000","0.000","0.000","0.000","0.000","0.000","0.0000000","1.000","0.000","9984","","2020-06-30 16:50:00"
"17873","Villamaria","17","Caldas","5.043806686","-75.5137606","3","15","1","11","2","1","0","1","7","0.143","0.067","0.133","0.067","0.000","0.067","1.4830414","0.733","0.200","4495","67429","2020-06-30 16:50:00"
"17877","Viterbo","17","Caldas","5.062664236","-75.87060986","1","3","0","2","1","0","0","0","3","0.000","0.000","0.333","0.000","0.000","0.000","0.0000000","0.667","0.333","4284","","2020-06-30 16:50:00"
"18001","Florencia","18","Caqueta","1.61792293","-75.60856043","11","34","1","22","11","0","0","0","257","0.000","0.000","0.324","0.000","0.000","0.029","0.5779979","0.647","0.324","5089","173011","2020-06-30 16:50:00"
"18753","San Vicente del Caguan","18","Caqueta","2.119786131","-74.76734058","1","1","0","0","0","0","0","0","8","0.000","0.000","0.000","0.000","0.000","0.000","0.0000000","0.000","1.000","52593","","2020-06-30 16:50:00"
"19001","Popayan","19","Cauca","2.482503391","-76.57406468","83","141","3","55","70","9","4","13","660","0.020","0.092","0.496","0.064","0.028","0.021","0.9217241","0.390","0.589","2308","108492","2020-06-30 16:50:00"
"19050","Argelia","19","Cauca","2.256754909","-77.24945028","1","1","0","0","0","1","0","1","3","0.333","1.000","0.000","1.000","0.000","0.000","0.0000000","0.000","1.000","26588","","2020-06-30 16:50:00"
"19075","Balboa","19","Cauca","2.040478768","-77.21589814","7","7","0","0","6","1","0","1","3","0.333","0.143","0.857","0.143","0.000","0.000","0.0000000","0.000","1.000","3062","","2020-06-30 16:50:00"
"19110","Buenos Aires","19","Cauca","3.01542683","-76.64228059","1","2","0","1","0","1","0","1","3","0.333","0.500","0.000","0.500","0.000","0.000","0.0000000","0.500","0.500","16025","","2020-06-30 16:50:00"
"19130","Cajibio","19","Cauca","2.623338254","-76.57088427","0","1","1","0","0","0","0","0","4","0.000","0.000","0.000","0.000","0.000","1.000","2.3346485","0.000","0.000","42833","42833","2020-06-30 16:50:00"
"19137","Caldono","19","Cauca","2.798130826","-76.48444786","1","1","0","0","0","1","0","1","24","0.042","1.000","0.000","1.000","0.000","0.000","0.0000000","0.000","1.000","41770","","2020-06-30 16:50:00"
"19142","Caloto","19","Cauca","3.034070778","-76.40848704","2","4","0","2","2","0","0","0","4","0.000","0.000","0.500","0.000","0.000","0.000","0.0000000","0.500","0.500","7554","","2020-06-30 16:50:00"
"19212","Corinto","19","Cauca","3.173815457","-76.26131419","1","2","1","0","0","0","1","1","3","0.333","0.500","0.000","0.000","0.500","0.500","3.9308176","0.000","0.500","12720","25440","2020-06-30 16:50:00"
"19256","El Tambo","19","Cauca","2.45137136","-76.81077225","1","6","0","5","1","0","0","0","5","0.000","0.000","0.167","0.000","0.000","0.000","0.0000000","0.833","0.167","8962","","2020-06-30 16:50:00"
"19300","Guachene","19","Cauca","3.134153295","-76.39218874","1","3","0","2","1","0","0","0","0","","0.000","0.333","0.000","0.000","0.000","0.0000000","0.667","0.333","6673","","2020-06-30 16:50:00"
"19318","Guapi","19","Cauca","2.572918366","-77.88803347","5","7","2","0","2","2","1","3","9","0.333","0.429","0.286","0.286","0.143","0.286","7.2212594","0.000","0.714","3957","13848","2020-06-30 16:50:00"
"19418","Lopez de Micay","19","Cauca","2.846715932","-77.24769154","0","1","0","1","0","0","0","0","4","0.000","0.000","0.000","0.000","0.000","0.000","0.0000000","1.000","0.000","18932","","2020-06-30 16:50:00"
"19455","Miranda","19","Cauca","3.253095405","-76.22886987","14","22","2","6","11","3","0","3","3","1.000","0.136","0.500","0.136","0.000","0.091","6.2340253","0.273","0.636","1458","16041","2020-06-30 16:50:00"
"19532","Patia","19","Cauca","2.069200142","-77.05327491","0","1","0","1","0","0","0","0","7","0.000","0.000","0.000","0.000","0.000","0.000","0.0000000","1.000","0.000","37494","","2020-06-30 16:50:00"
"19548","Piendamo","19","Cauca","2.641987578","-76.52850592","6","22","1","15","6","0","0","0","5","0.000","0.000","0.273","0.000","0.000","0.045","2.3902287","0.682","0.273","1902","41837","2020-06-30 16:50:00"
"19573","Puerto Tejada","19","Cauca","3.233294127","-76.4173078","36","81","2","43","28","7","1","8","9","0.889","0.099","0.346","0.086","0.012","0.025","4.7854904","0.531","0.444","516","20897","2020-06-30 16:50:00"
"19622","Rosas","19","Cauca","2.260979699","-76.74035187","1","1","0","0","1","0","0","0","2","0.000","0.000","1.000","0.000","0.000","0.000","0.0000000","0.000","1.000","11539","","2020-06-30 16:50:00"
"19698","Santander de Quilichao","19","Cauca","3.016053901","-76.48537029","18","32","1","13","14","2","2","4","32","0.125","0.125","0.438","0.063","0.063","0.031","0.8849479","0.406","0.563","3531","113001","2020-06-30 16:50:00"
"19743","Silvia","19","Cauca","2.611815645","-76.37957042","3","4","0","1","3","0","0","0","10","0.000","0.000","0.750","0.000","0.000","0.000","0.0000000","0.250","0.750","9516","","2020-06-30 16:50:00"
"19807","Timbio","19","Cauca","2.349976425","-76.68423879","4","6","0","2","4","0","0","0","5","0.000","0.000","0.667","0.000","0.000","0.000","0.0000000","0.333","0.667","6048","","2020-06-30 16:50:00"
"19809","Timbiqui","19","Cauca","2.777413702","-77.66756524","6","16","2","8","1","5","0","5","4","1.250","0.313","0.063","0.313","0.000","0.125","7.5168189","0.500","0.375","1663","13304","2020-06-30 16:50:00"
"19821","Toribio","19","Cauca","2.951450409","-76.27112721","1","1","0","0","0","1","0","1","4","0.250","1.000","0.000","1.000","0.000","0.000","0.0000000","0.000","1.000","36694","","2020-06-30 16:50:00"
"19824","Totoro","19","Cauca","2.510229193","-76.40244251","0","1","0","1","0","0","0","0","4","0.000","0.000","0.000","0.000","0.000","0.000","0.0000000","1.000","0.000","25612","","2020-06-30 16:50:00"
"19845","Villa rica","19","Cauca","3.177577926","-76.45787266","11","13","1","1","10","1","0","1","1","1.000","0.077","0.769","0.077","0.000","0.077","4.6886722","0.077","0.846","1641","21328","2020-06-30 16:50:00"
"20001","Valledupar","20","Cesar","10.46048122","-73.25938931","308","656","13","335","269","36","3","39","1264","0.031","0.059","0.410","0.055","0.005","0.020","2.4392258","0.511","0.470","812","40997","2020-06-30 16:50:00"
"20011","Aguachica","20","Cesar","8.310336958","-73.59902859","29","38","1","8","26","3","0","3","185","0.016","0.079","0.684","0.079","0.000","0.026","0.8428008","0.211","0.763","3122","118652","2020-06-30 16:50:00"
"20013","Agustin Codazzi","20","Cesar","10.04045799","-73.23839617","52","83","1","30","46","4","2","6","59","0.102","0.072","0.554","0.048","0.024","0.012","1.5461686","0.361","0.627","779","64676","2020-06-30 16:50:00"
"20045","Becerril","20","Cesar","9.704606116","-73.27923167","0","2","0","2","0","0","0","0","7","0.000","0.000","0.000","0.000","0.000","0.000","0.0000000","1.000","0.000","11654","","2020-06-30 16:50:00"
"20060","Bosconia","20","Cesar","9.9750947","-73.88876766","46","56","0","10","46","0","0","0","95","0.000","0.000","0.821","0.000","0.000","0.000","0.0000000","0.179","0.821","774","","2020-06-30 16:50:00"
"20175","Chimichagua","20","Cesar","9.25827144","-73.81332845","3","3","0","0","2","1","0","1","9","0.111","0.333","0.667","0.333","0.000","0.000","0.0000000","0.000","1.000","12076","","2020-06-30 16:50:00"
"20178","Chiriguana","20","Cesar","9.361189611","-73.60014444","3","9","1","5","1","2","0","2","37","0.054","0.222","0.111","0.222","0.000","0.111","3.3747300","0.556","0.333","3292","29632","2020-06-30 16:50:00"
"20228","Curumani","20","Cesar","9.201810592","-73.54098652","7","12","0","5","4","3","0","3","14","0.214","0.250","0.333","0.250","0.000","0.000","0.0000000","0.417","0.583","3306","","2020-06-30 16:50:00"
"20238","El Copey","20","Cesar","10.14952543","-73.96271744","5","25","1","19","5","0","0","0","14","0.000","0.000","0.200","0.000","0.000","0.040","3.1595577","0.760","0.200","1266","31650","2020-06-30 16:50:00"
"20250","El Paso","20","Cesar","9.668470391","-73.74178848","2","3","0","1","0","2","0","2","6","0.333","0.667","0.000","0.667","0.000","0.000","0.0000000","0.333","0.667","13619","","2020-06-30 16:50:00"
"20295","Gamarra","20","Cesar","8.320449051","-73.74376","4","4","0","0","4","0","0","0","6","0.000","0.000","1.000","0.000","0.000","0.000","0.0000000","0.000","1.000","3966","","2020-06-30 16:50:00"
"20310","Gonzalez","20","Cesar","8.389604097","-73.38003986","13","29","0","16","12","0","0","0","1","0.000","0.000","0.414","0.000","0.000","0.000","0.0000000","0.552","0.448","158","","2020-06-30 16:50:00"
"20383","La Gloria","20","Cesar","8.619297878","-73.80321012","10","11","1","0","10","0","0","0","3","0.000","0.000","0.909","0.000","0.000","0.091","5.4206418","0.000","0.909","1677","18448","2020-06-30 16:50:00"
"20400","La Jagua de Ibirico","20","Cesar","9.5638873","-73.33422791","5","7","1","1","3","2","0","2","32","0.063","0.286","0.429","0.286","0.000","0.143","1.9628626","0.143","0.714","7278","50946","2020-06-30 16:50:00"
"20443","Manaure Balcon del Cesar","20","Cesar","10.39089864","-73.02832046","1","1","0","0","0","1","0","1","4","0.250","1.000","0.000","1.000","0.000","0.000","0.0000000","0.000","1.000","10835","","2020-06-30 16:50:00"
"20517","Pailitas","20","Cesar","8.956033206","-73.62581668","1","1","0","0","0","1","0","1","22","0.045","1.000","0.000","1.000","0.000","0.000","0.0000000","0.000","1.000","19705","","2020-06-30 16:50:00"
"20550","Pelaya","20","Cesar","8.688650964","-73.66635487","11","11","0","0","9","2","0","2","5","0.400","0.182","0.818","0.182","0.000","0.000","0.0000000","0.000","1.000","2026","","2020-06-30 16:50:00"
"20570","Pueblo Bello","20","Cesar","10.4150616","-73.58901062","1","3","1","1","1","0","0","0","3","0.000","0.000","0.333","0.000","0.000","0.333","3.3970853","0.333","0.333","9812","29437","2020-06-30 16:50:00"
"20614","Rio de Oro","20","Cesar","8.292287384","-73.3863952","9","18","2","7","6","3","0","3","4","0.750","0.167","0.333","0.167","0.000","0.111","11.2403754","0.389","0.500","989","8897","2020-06-30 16:50:00"
"20621","La Paz","20","Cesar","10.38748954","-73.17136291","14","25","0","11","14","0","0","0","2","0.000","0.000","0.560","0.000","0.000","0.000","0.0000000","0.440","0.560","1184","","2020-06-30 16:50:00"
"20710","San Alberto","20","Cesar","7.76082642","-73.39422534","2","2","0","0","2","0","0","0","7","0.000","0.000","1.000","0.000","0.000","0.000","0.0000000","0.000","1.000","14227","","2020-06-30 16:50:00"
"20750","San Diego","20","Cesar","10.33303286","-73.18121808","6","10","0","4","3","3","0","3","5","0.600","0.300","0.300","0.300","0.000","0.000","0.0000000","0.400","0.600","2047","","2020-06-30 16:50:00"
"20770","San Martin","20","Cesar","7.999895459","-73.51097518","9","14","2","3","7","2","0","2","6","0.333","0.143","0.500","0.143","0.000","0.143","6.9519274","0.214","0.643","2055","14385","2020-06-30 16:50:00"
"20787","Tamalameque","20","Cesar","8.861724986","-73.8121728","4","4","0","0","4","0","0","0","4","0.000","0.000","1.000","0.000","0.000","0.000","0.0000000","0.000","1.000","4047","","2020-06-30 16:50:00"
"23001","Monteria","23","Cordoba","8.745132591","-75.87557791","250","378","18","110","191","49","9","58","1144","0.051","0.153","0.505","0.130","0.024","0.048","3.5620006","0.291","0.661","1337","28074","2020-06-30 16:50:00"
"23068","Ayapel","23","Cordoba","8.314446629","-75.14629076","4","4","0","0","1","1","1","2","24","0.083","0.500","0.250","0.250","0.250","0.000","0.0000000","0.000","1.000","11812","","2020-06-30 16:50:00"
"23079","Buenavista","23","Cordoba","8.221165554","-75.48089871","3","4","0","1","3","0","0","0","6","0.000","0.000","0.750","0.000","0.000","0.000","0.0000000","0.250","0.750","5363","","2020-06-30 16:50:00"
"23090","Canalete","23","Cordoba","8.786944523","-76.24139652","0","7","0","7","0","0","0","0","3","0.000","0.000","0.000","0.000","0.000","0.000","0.0000000","1.000","0.000","2205","","2020-06-30 16:50:00"
"23162","Cerete","23","Cordoba","8.888611812","-75.79621652","49","64","1","14","34","7","7","14","55","0.255","0.219","0.531","0.109","0.109","0.016","0.9224326","0.219","0.766","1694","108409","2020-06-30 16:50:00"
"23168","Chima","23","Cordoba","9.149480457","-75.62689551","0","1","0","1","0","0","0","0","6","0.000","0.000","0.000","0.000","0.000","0.000","0.0000000","1.000","0.000","17905","","2020-06-30 16:50:00"
"23182","Chinu","23","Cordoba","9.105294089","-75.39971962","10","13","1","2","4","5","1","6","8","0.750","0.462","0.308","0.385","0.077","0.077","2.0536411","0.154","0.769","3746","48694","2020-06-30 16:50:00"
"23189","Cienaga de Oro","23","Cordoba","8.875502246","-75.62078664","8","12","1","3","5","1","2","3","6","0.500","0.250","0.417","0.083","0.167","0.083","1.6523190","0.250","0.667","5043","60521","2020-06-30 16:50:00"
"23300","Cotorra","23","Cordoba","9.037088051","-75.79914949","5","6","1","0","5","0","0","0","6","0.000","0.000","0.833","0.000","0.000","0.167","5.1153512","0.000","0.833","3258","19549","2020-06-30 16:50:00"
"23417","Lorica","23","Cordoba","9.240855143","-75.8159954","105","162","18","39","85","13","7","20","133","0.150","0.123","0.525","0.080","0.043","0.111","15.5896796","0.241","0.648","713","6415","2020-06-30 16:50:00"
"23419","Los Cordobas","23","Cordoba","8.892168997","-76.35519288","2","2","0","0","0","1","0","1","1","1.000","0.500","0.000","0.500","0.000","0.000","0.0000000","0.000","1.000","9657","","2020-06-30 16:50:00"
"23466","Montelibano","23","Cordoba","7.973777244","-75.41681813","3","8","2","3","2","1","0","1","35","0.029","0.125","0.250","0.125","0.000","0.250","2.3286953","0.375","0.375","10736","42943","2020-06-30 16:50:00"
"23500","Monitos","23","Cordoba","9.245280293","-76.12939619","1","1","0","0","1","0","0","0","6","0.000","0.000","1.000","0.000","0.000","0.000","0.0000000","0.000","1.000","30580","","2020-06-30 16:50:00"
"23555","Planeta Rica","23","Cordoba","8.408202562","-75.58324299","3","5","0","2","0","1","2","3","33","0.091","0.600","0.000","0.200","0.400","0.000","0.0000000","0.400","0.600","12955","","2020-06-30 16:50:00"
"23570","Pueblo Nuevo","23","Cordoba","8.504003297","-75.50797138","2","2","0","0","1","1","0","1","3","0.333","0.500","0.500","0.500","0.000","0.000","0.0000000","0.000","1.000","18243","","2020-06-30 16:50:00"
"23574","Puerto Escondido","23","Cordoba","9.005372178","-76.26041108","1","2","0","1","1","0","0","0","3","0.000","0.000","0.500","0.000","0.000","0.000","0.0000000","0.500","0.500","12182","","2020-06-30 16:50:00"
"23580","Puerto Libertador","23","Cordoba","7.888834815","-75.67179975","4","4","0","0","0","2","2","4","6","0.667","1.000","0.000","0.500","0.500","0.000","0.0000000","0.000","1.000","10893","","2020-06-30 16:50:00"
"23586","Purisima de la Concepcion","23","Cordoba","9.239299079","-75.72488526","0","2","0","2","0","0","0","0","13","0.000","0.000","0.000","0.000","0.000","0.000","0.0000000","1.000","0.000","8794","","2020-06-30 16:50:00"
"23660","Sahagun","23","Cordoba","8.943125416","-75.4459203","23","59","3","33","12","7","4","11","120","0.092","0.186","0.203","0.119","0.068","0.051","2.7215081","0.559","0.390","1868","36744","2020-06-30 16:50:00"
"23670","San Andres de Sotavento","23","Cordoba","9.145162943","-75.5088939","8","8","0","0","4","1","3","4","9","0.444","0.500","0.500","0.125","0.375","0.000","0.0000000","0.000","1.000","6005","","2020-06-30 16:50:00"
"23672","San Antero","23","Cordoba","9.376217345","-75.76077297","1","1","0","0","0","1","0","1","5","0.200","1.000","0.000","1.000","0.000","0.000","0.0000000","0.000","1.000","35035","","2020-06-30 16:50:00"
"23675","San Bernardo del Viento","23","Cordoba","9.352301989","-75.95474387","1","3","1","1","1","0","0","0","4","0.000","0.000","0.333","0.000","0.000","0.333","2.6972353","0.333","0.333","12358","37075","2020-06-30 16:50:00"
"23678","San Carlos","23","Cordoba","8.799106592","-75.69884549","0","1","1","0","0","0","0","0","13","0.000","0.000","0.000","0.000","0.000","1.000","3.6539024","0.000","0.000","27368","27368","2020-06-30 16:50:00"
"23686","San Pelayo","23","Cordoba","8.958010321","-75.83512552","3","3","0","0","2","1","0","1","3","0.333","0.333","0.667","0.333","0.000","0.000","0.0000000","0.000","1.000","17665","","2020-06-30 16:50:00"
"23807","Tierralta","23","Cordoba","8.170378684","-76.05969659","4","12","1","7","1","2","1","3","14","0.214","0.250","0.083","0.167","0.083","0.083","1.0506740","0.583","0.333","7931","95177","2020-06-30 16:50:00"
"23815","Tuchin","23","Cordoba","9.186965875","-75.55445092","9","11","1","1","6","3","0","3","4","0.750","0.273","0.545","0.273","0.000","0.091","1.8195713","0.091","0.818","4996","54958","2020-06-30 16:50:00"
"23855","Valencia","23","Cordoba","8.255016584","-76.15071869","9","11","0","2","4","3","2","5","6","0.833","0.455","0.364","0.273","0.182","0.000","0.0000000","0.182","0.818","3304","","2020-06-30 16:50:00"
"25001","Agua de Dios","25","Cundinamarca","4.375312017","-74.66921778","0","4","0","4","0","0","0","0","6","0.000","0.000","0.000","0.000","0.000","0.000","0.0000000","1.000","0.000","3081","","2020-06-30 16:50:00"
"25019","Alban","25","Cundinamarca","4.878022123","-74.43826109","0","1","0","1","0","0","0","0","0","","0.000","0.000","0.000","0.000","0.000","0.0000000","1.000","0.000","6879","","2020-06-30 16:50:00"
"25035","Anapoima","25","Cundinamarca","4.562956175","-74.52851753","36","79","0","43","34","2","0","2","0","","0.025","0.430","0.025","0.000","0.000","0.0000000","0.544","0.456","203","","2020-06-30 16:50:00"
"25040","Anolaima","25","Cundinamarca","4.761695213","-74.46384203","0","1","0","1","0","0","0","0","4","0.000","0.000","0.000","0.000","0.000","0.000","0.0000000","1.000","0.000","14577","","2020-06-30 16:50:00"
"25086","Beltran","25","Cundinamarca","4.802811459","-74.7418023","1","1","0","0","1","0","0","0","0","","0.000","1.000","0.000","0.000","0.000","0.0000000","0.000","1.000","1885","","2020-06-30 16:50:00"
"25099","Bojaca","25","Cundinamarca","4.741758118","-74.34849164","2","2","0","0","2","0","0","0","0","","0.000","1.000","0.000","0.000","0.000","0.0000000","0.000","1.000","5546","","2020-06-30 16:50:00"
"25120","Cabrera","25","Cundinamarca","3.98461914","-74.48418723","0","1","0","1","0","0","0","0","0","","0.000","0.000","0.000","0.000","0.000","0.0000000","1.000","0.000","5062","","2020-06-30 16:50:00"
"25123","Cachipay","25","Cundinamarca","4.730954629","-74.4357071","4","5","0","1","4","0","0","0","0","","0.000","0.800","0.000","0.000","0.000","0.0000000","0.200","0.800","2141","","2020-06-30 16:50:00"
"25126","Cajica","25","Cundinamarca","4.920809059","-74.02345397","35","78","0","43","32","3","0","3","23","0.130","0.038","0.410","0.038","0.000","0.000","0.0000000","0.551","0.449","1192","","2020-06-30 16:50:00"
"25151","Caqueza","25","Cundinamarca","4.40410106","-73.9464742","8","17","1","8","8","0","0","0","26","0.000","0.000","0.471","0.000","0.000","0.059","5.5691691","0.471","0.471","1056","17956","2020-06-30 16:50:00"
"25154","Carmen de Carupa","25","Cundinamarca","5.349115758","-73.90157376","1","1","0","0","1","0","0","0","6","0.000","0.000","1.000","0.000","0.000","0.000","0.0000000","0.000","1.000","7940","","2020-06-30 16:50:00"
"25175","Chia","25","Cundinamarca","4.866065424","-74.05034682","51","122","1","70","41","8","2","10","125","0.080","0.082","0.336","0.066","0.016","0.008","0.6685833","0.574","0.418","1226","149570","2020-06-30 16:50:00"
"25178","Chipaque","25","Cundinamarca","4.442671017","-74.04487563","4","15","2","9","4","0","0","0","0","","0.000","0.267","0.000","0.000","0.133","19.8846689","0.600","0.267","671","5029","2020-06-30 16:50:00"
"25181","Choachi","25","Cundinamarca","4.527047921","-73.92289448","0","1","0","1","0","0","0","0","0","","0.000","0.000","0.000","0.000","0.000","0.0000000","1.000","0.000","11528","","2020-06-30 16:50:00"
"25183","Choconta","25","Cundinamarca","5.145223894","-73.68352344","3","7","0","4","3","0","0","0","17","0.000","0.000","0.429","0.000","0.000","0.000","0.0000000","0.571","0.429","3183","","2020-06-30 16:50:00"
"25200","Cogua","25","Cundinamarca","5.061841798","-73.97849669","6","10","0","4","5","1","0","1","0","","0.100","0.500","0.100","0.000","0.000","0.0000000","0.400","0.600","2443","","2020-06-30 16:50:00"
"25214","Cota","25","Cundinamarca","4.812987769","-74.10272646","30","50","0","20","27","3","0","3","0","","0.060","0.540","0.060","0.000","0.000","0.0000000","0.400","0.600","740","","2020-06-30 16:50:00"
"25224","Cucunuba","25","Cundinamarca","5.249767987","-73.76621533","0","2","1","1","0","0","0","0","0","","0.000","0.000","0.000","0.000","0.500","12.1109362","0.500","0.000","4129","8257","2020-06-30 16:50:00"
"25245","El Colegio","25","Cundinamarca","4.579459662","-74.44255169","4","20","2","14","4","0","0","0","8","0.000","0.000","0.200","0.000","0.000","0.100","7.6405868","0.700","0.200","1309","13088","2020-06-30 16:50:00"
"25258","El Penon","25","Cundinamarca","5.249141171","-74.29128594","0","1","0","1","0","0","0","0","0","","0.000","0.000","0.000","0.000","0.000","0.0000000","1.000","0.000","4789","","2020-06-30 16:50:00"
"25260","El Rosal","25","Cundinamarca","4.852214275","-74.26366739","7","11","0","4","7","0","0","0","0","","0.000","0.636","0.000","0.000","0.000","0.0000000","0.364","0.636","2252","","2020-06-30 16:50:00"
"25269","Facatativa","25","Cundinamarca","4.813064178","-74.35022793","38","91","1","52","35","3","0","3","171","0.018","0.033","0.385","0.033","0.000","0.011","0.6411161","0.571","0.418","1714","155978","2020-06-30 16:50:00"
"25279","Fomeque","25","Cundinamarca","4.485474345","-73.89252259","0","12","0","12","0","0","0","0","12","0.000","0.000","0.000","0.000","0.000","0.000","0.0000000","1.000","0.000","1067","","2020-06-30 16:50:00"
"25286","Funza","25","Cundinamarca","4.712763015","-74.211525","52","118","0","66","44","7","1","8","10","0.800","0.068","0.373","0.059","0.008","0.000","0.0000000","0.559","0.441","891","","2020-06-30 16:50:00"
"25290","Fusagasuga","25","Cundinamarca","4.338480851","-74.36633393","13","55","3","39","11","1","0","1","92","0.011","0.018","0.200","0.018","0.000","0.055","1.9462447","0.709","0.236","2803","51381","2020-06-30 16:50:00"
"25295","Gachancipa","25","Cundinamarca","4.990918172","-73.87346922","0","9","0","9","0","0","0","0","0","","0.000","0.000","0.000","0.000","0.000","0.0000000","1.000","0.000","2153","","2020-06-30 16:50:00"
"25307","Girardot","25","Cundinamarca","4.313078337","-74.79779459","21","76","1","54","20","1","0","1","264","0.004","0.013","0.263","0.013","0.000","0.013","0.9108132","0.711","0.276","1445","109792","2020-06-30 16:50:00"
"25312","Granada","25","Cundinamarca","4.519763473","-74.35076611","6","7","0","1","6","0","0","0","0","","0.000","0.857","0.000","0.000","0.000","0.0000000","0.143","0.857","1133","","2020-06-30 16:50:00"
"25320","Guaduas","25","Cundinamarca","5.071870533","-74.60295627","0","1","0","1","0","0","0","0","10","0.000","0.000","0.000","0.000","0.000","0.000","0.0000000","1.000","0.000","33212","","2020-06-30 16:50:00"
"25322","Guasca","25","Cundinamarca","4.866719147","-73.87714344","3","3","0","0","3","0","0","0","0","","0.000","1.000","0.000","0.000","0.000","0.0000000","0.000","1.000","5645","","2020-06-30 16:50:00"
"25324","Guataqui","25","Cundinamarca","4.517417235","-74.78996878","0","1","0","1","0","0","0","0","0","","0.000","0.000","0.000","0.000","0.000","0.0000000","1.000","0.000","2772","","2020-06-30 16:50:00"
"25326","Guatavita","25","Cundinamarca","4.934139703","-73.83287404","2","3","0","1","2","0","0","0","6","0.000","0.000","0.667","0.000","0.000","0.000","0.0000000","0.333","0.667","2270","","2020-06-30 16:50:00"
"25372","Junin","25","Cundinamarca","4.790379974","-73.66292455","2","5","1","2","2","0","0","0","3","0.000","0.000","0.400","0.000","0.000","0.200","16.4636154","0.400","0.400","1215","6074","2020-06-30 16:50:00"
"25377","La Calera","25","Cundinamarca","4.720344521","-73.96974496","11","44","0","33","9","2","0","2","0","","0.045","0.205","0.045","0.000","0.000","0.0000000","0.750","0.250","748","","2020-06-30 16:50:00"
"25386","La Mesa","25","Cundinamarca","4.631044239","-74.46154474","3","26","1","22","3","0","0","0","31","0.000","0.000","0.115","0.000","0.000","0.038","2.7678596","0.846","0.115","1390","36129","2020-06-30 16:50:00"
"25394","La Palma","25","Cundinamarca","5.358816711","-74.39102017","1","1","0","0","1","0","0","0","7","0.000","0.000","1.000","0.000","0.000","0.000","0.0000000","0.000","1.000","9810","","2020-06-30 16:50:00"
"25402","La Vega","25","Cundinamarca","4.993077034","-74.33113821","1","1","0","0","1","0","0","0","8","0.000","0.000","1.000","0.000","0.000","0.000","0.0000000","0.000","1.000","18642","","2020-06-30 16:50:00"
"25407","Lenguazaque","25","Cundinamarca","5.306143499","-73.71149354","6","14","0","8","3","1","2","3","0","","0.214","0.214","0.071","0.143","0.000","0.0000000","0.571","0.429","771","","2020-06-30 16:50:00"
"25426","Macheta","25","Cundinamarca","5.080198921","-73.608325","2","3","0","1","1","1","0","1","0","","0.333","0.333","0.333","0.000","0.000","0.0000000","0.333","0.667","2093","","2020-06-30 16:50:00"
"25430","Madrid","25","Cundinamarca","4.736129766","-74.26562577","42","91","1","48","35","7","0","7","14","0.500","0.077","0.385","0.077","0.000","0.011","0.7865469","0.527","0.462","1397","127138","2020-06-30 16:50:00"
"25436","Manta","25","Cundinamarca","5.009058389","-73.54050247","0","2","0","2","0","0","0","0","0","","0.000","0.000","0.000","0.000","0.000","0.0000000","1.000","0.000","1947","","2020-06-30 16:50:00"
"25473","Mosquera","25","Cundinamarca","4.711371201","-74.23177508","95","185","8","82","86","7","1","8","8","1.000","0.043","0.465","0.038","0.005","0.043","5.3097932","0.443","0.514","814","18833","2020-06-30 16:50:00"
"25483","Narino","25","Cundinamarca","4.399836799","-74.82473179","1","1","0","0","1","0","0","0","0","","0.000","1.000","0.000","0.000","0.000","0.0000000","0.000","1.000","2464","","2020-06-30 16:50:00"
"25486","Nemocon","25","Cundinamarca","5.067364638","-73.87962974","1","1","0","0","0","1","0","1","10","0.100","1.000","0.000","1.000","0.000","0.000","0.0000000","0.000","1.000","14532","","2020-06-30 16:50:00"
"25488","Nilo","25","Cundinamarca","4.305801421","-74.61996587","3","9","0","6","2","0","1","1","0","","0.111","0.222","0.000","0.111","0.000","0.0000000","0.667","0.333","1336","","2020-06-30 16:50:00"
"25491","Nocaima","25","Cundinamarca","5.068933019","-74.37772796","1","1","0","0","0","1","0","1","0","","1.000","0.000","1.000","0.000","0.000","0.0000000","0.000","1.000","6562","","2020-06-30 16:50:00"
"25506","Venecia","25","Cundinamarca","4.088960943","-74.47817821","0","2","0","2","0","0","0","0","0","","0.000","0.000","0.000","0.000","0.000","0.0000000","1.000","0.000","2225","","2020-06-30 16:50:00"
"25513","Pacho","25","Cundinamarca","5.136942297","-74.15611662","9","25","1","15","5","4","0","4","33","0.121","0.160","0.200","0.160","0.000","0.040","3.8755184","0.600","0.360","1032","25803","2020-06-30 16:50:00"
"25535","Pasca","25","Cundinamarca","4.309854412","-74.30545993","7","15","0","8","7","0","0","0","0","","0.000","0.467","0.000","0.000","0.000","0.0000000","0.533","0.467","642","","2020-06-30 16:50:00"
"25572","Puerto Salgar","25","Cundinamarca","5.464956044","-74.6528007","0","1","1","0","0","0","0","0","6","0.000","0.000","0.000","0.000","0.000","1.000","5.9984404","0.000","0.000","16671","16671","2020-06-30 16:50:00"
"25599","Apulo","25","Cundinamarca","4.520347219","-74.59380454","1","3","0","2","1","0","0","0","0","","0.000","0.333","0.000","0.000","0.000","0.0000000","0.667","0.333","2916","","2020-06-30 16:50:00"
"25612","Ricaurte","25","Cundinamarca","4.293949747","-74.78454297","1","2","1","0","1","0","0","0","0","","0.000","0.500","0.000","0.000","0.500","6.9603954","0.000","0.500","7184","14367","2020-06-30 16:50:00"
"25645","San Antonio del Tequendama","25","Cundinamarca","4.616138045","-74.35144269","0","7","1","6","0","0","0","0","2","0.000","0.000","0.000","0.000","0.000","0.143","7.7948398","0.857","0.000","1833","12829","2020-06-30 16:50:00"
"25658","San Francisco","25","Cundinamarca","4.97291694","-74.28967198","0","3","0","3","0","0","0","0","0","","0.000","0.000","0.000","0.000","0.000","0.0000000","1.000","0.000","3948","","2020-06-30 16:50:00"
"25662","San Juan de Rioseco","25","Cundinamarca","4.847575999","-74.62191472","1","3","0","2","1","0","0","0","3","0.000","0.000","0.333","0.000","0.000","0.000","0.0000000","0.667","0.333","2846","","2020-06-30 16:50:00"
"25718","Sasaima","25","Cundinamarca","4.962166987","-74.43262795","3","4","0","1","3","0","0","0","57","0.000","0.000","0.750","0.000","0.000","0.000","0.0000000","0.250","0.750","2880","","2020-06-30 16:50:00"
"25736","Sesquile","25","Cundinamarca","5.044729613","-73.79612783","0","1","0","1","0","0","0","0","7","0.000","0.000","0.000","0.000","0.000","0.000","0.0000000","1.000","0.000","12645","","2020-06-30 16:50:00"
"25740","Sibate","25","Cundinamarca","4.489763593","-74.25899225","7","26","0","19","5","2","0","2","3","0.667","0.077","0.192","0.077","0.000","0.000","0.0000000","0.731","0.269","1410","","2020-06-30 16:50:00"
"25743","Silvania","25","Cundinamarca","4.381941157","-74.40552821","5","7","0","2","3","2","0","2","6","0.333","0.286","0.429","0.286","0.000","0.000","0.0000000","0.286","0.714","3356","","2020-06-30 16:50:00"
"25745","Simijaca","25","Cundinamarca","5.505428098","-73.85032035","3","3","0","0","2","1","0","1","0","","0.333","0.667","0.333","0.000","0.000","0.0000000","0.000","1.000","4687","","2020-06-30 16:50:00"
"25754","Soacha","25","Cundinamarca","4.585491658","-74.21452753","534","1034","15","485","452","75","7","82","194","0.423","0.079","0.437","0.073","0.007","0.015","1.9905832","0.469","0.516","729","50237","2020-06-30 16:50:00"
"25758","Sopo","25","Cundinamarca","4.906330809","-73.94577489","14","27","2","11","12","2","0","2","7","0.286","0.074","0.444","0.074","0.000","0.074","6.8967895","0.407","0.519","1074","14500","2020-06-30 16:50:00"
"25769","Subachoque","25","Cundinamarca","4.929079289","-74.17270846","9","20","0","11","9","0","0","0","36","0.000","0.000","0.450","0.000","0.000","0.000","0.0000000","0.550","0.450","837","","2020-06-30 16:50:00"
"25772","Suesca","25","Cundinamarca","5.103516839","-73.79828978","0","6","1","5","0","0","0","0","5","0.000","0.000","0.000","0.000","0.000","0.167","5.3358946","0.833","0.000","3124","18741","2020-06-30 16:50:00"
"25785","Tabio","25","Cundinamarca","4.917202192","-74.09618339","10","22","0","12","9","0","0","0","7","0.000","0.000","0.409","0.000","0.000","0.000","0.0000000","0.545","0.455","1100","","2020-06-30 16:50:00"
"25797","Tena","25","Cundinamarca","4.655339153","-74.38953312","1","4","0","3","1","0","0","0","0","","0.000","0.250","0.000","0.000","0.000","0.0000000","0.750","0.250","2633","","2020-06-30 16:50:00"
"25799","Tenjo","25","Cundinamarca","4.871960537","-74.14395621","3","33","2","28","3","0","0","0","7","0.000","0.000","0.091","0.000","0.000","0.061","8.3001328","0.848","0.091","730","12048","2020-06-30 16:50:00"
"25815","Tocaima","25","Cundinamarca","4.459270864","-74.63630492","3","5","0","2","3","0","0","0","14","0.000","0.000","0.600","0.000","0.000","0.000","0.0000000","0.400","0.600","3322","","2020-06-30 16:50:00"
"25817","Tocancipa","25","Cundinamarca","4.964786354","-73.91209121","11","26","0","15","8","0","1","1","0","","0.038","0.308","0.000","0.038","0.000","0.0000000","0.577","0.423","1758","","2020-06-30 16:50:00"
"25839","Ubala","25","Cundinamarca","4.743901408","-73.53397993","1","1","0","0","0","1","0","1","0","","1.000","0.000","1.000","0.000","0.000","0.0000000","0.000","1.000","7789","","2020-06-30 16:50:00"
"25841","Ubaque","25","Cundinamarca","4.483802095","-73.93346087","0","2","0","2","0","0","0","0","0","","0.000","0.000","0.000","0.000","0.000","0.0000000","1.000","0.000","3534","","2020-06-30 16:50:00"
"25843","Villa de de Ubate","25","Cundinamarca","5.307540984","-73.81434634","29","48","1","18","24","5","0","5","39","0.128","0.104","0.500","0.104","0.000","0.021","","0.375","0.604","","","2020-06-30 16:50:00"
"25845","Une","25","Cundinamarca","4.402450393","-74.02518226","0","2","0","2","0","0","0","0","0","","0.000","0.000","0.000","0.000","0.000","0.0000000","1.000","0.000","3686","","2020-06-30 16:50:00"
"25862","Vergara","25","Cundinamarca","5.117304568","-74.34636043","1","1","0","0","1","0","0","0","6","0.000","0.000","1.000","0.000","0.000","0.000","0.0000000","0.000","1.000","7167","","2020-06-30 16:50:00"
"25867","Viani","25","Cundinamarca","4.875205217","-74.56132662","0","1","1","0","0","0","0","0","0","","0.000","0.000","0.000","0.000","1.000","21.4270409","0.000","0.000","4667","4667","2020-06-30 16:50:00"
"25873","Villapinzon","25","Cundinamarca","5.216438372","-73.59535467","3","21","2","16","3","0","0","0","0","","0.000","0.143","0.000","0.000","0.095","10.8501058","0.762","0.143","878","9217","2020-06-30 16:50:00"
"25875","Villeta","25","Cundinamarca","5.012790639","-74.46970495","6","17","1","10","6","0","0","0","20","0.000","0.000","0.353","0.000","0.000","0.059","3.4331228","0.588","0.353","1713","29128","2020-06-30 16:50:00"
"25878","Viota","25","Cundinamarca","4.439355814","-74.52316032","2","4","0","2","2","0","0","0","10","0.000","0.000","0.500","0.000","0.000","0.000","0.0000000","0.500","0.500","3470","","2020-06-30 16:50:00"
"25885","Yacopi","25","Cundinamarca","5.459290341","-74.33802435","0","1","0","1","0","0","0","0","4","0.000","0.000","0.000","0.000","0.000","0.000","0.0000000","1.000","0.000","12564","","2020-06-30 16:50:00"
"25898","Zipacon","25","Cundinamarca","4.759924886","-74.37959142","1","4","0","3","1","0","0","0","0","","0.000","0.250","0.000","0.000","0.000","0.0000000","0.750","0.250","1256","","2020-06-30 16:50:00"
"25899","Zipaquira","25","Cundinamarca","5.025471685","-73.99447124","84","139","4","51","71","12","1","13","147","0.088","0.094","0.511","0.086","0.007","0.029","2.7331365","0.367","0.604","1053","36588","2020-06-30 16:50:00"
"27001","Quibdo","27","Choco","5.692195187","-76.62596936","794","1306","32","480","673","104","16","120","168","0.714","0.092","0.515","0.080","0.012","0.025","24.4601567","0.368","0.608","100","4088","2020-06-30 16:50:00"
"27006","Acandi","27","Choco","8.511405952","-77.28009788","1","1","0","0","1","0","0","0","11","0.000","0.000","1.000","0.000","0.000","0.000","0.0000000","0.000","1.000","14159","","2020-06-30 16:50:00"
"27025","Alto Baudo","27","Choco","5.516309869","-76.97439919","26","32","2","4","24","1","1","2","9","0.222","0.063","0.750","0.031","0.031","0.063","7.0688863","0.125","0.813","884","14147","2020-06-30 16:50:00"
"27050","Atrato","27","Choco","5.531373511","-76.63503746","13","14","0","1","13","0","0","0","9","0.000","0.000","0.929","0.000","0.000","0.000","0.0000000","0.071","0.929","443","","2020-06-30 16:50:00"
"27073","Bagado","27","Choco","5.41055496","-76.41529299","0","1","0","1","0","0","0","0","7","0.000","0.000","0.000","0.000","0.000","0.000","0.0000000","1.000","0.000","11262","","2020-06-30 16:50:00"
"27075","Bahia Solano","27","Choco","6.22224546","-77.40275035","14","16","1","1","12","1","1","2","8","0.250","0.125","0.750","0.063","0.063","0.063","9.7285728","0.063","0.875","642","10279","2020-06-30 16:50:00"
"27077","Bajo Baudo","27","Choco","4.954626672","-77.36540999","1","2","1","0","0","1","0","1","6","0.167","0.500","0.000","0.500","0.000","0.500","3.2817012","0.000","0.500","15236","30472","2020-06-30 16:50:00"
"27099","Bojaya","27","Choco","6.556257444","-76.88346949","3","7","0","4","0","2","1","3","6","0.500","0.429","0.000","0.286","0.143","0.000","0.0000000","0.571","0.429","1761","","2020-06-30 16:50:00"
"27135","El Canton San Pablo","27","Choco","5.33533532","-76.72685005","2","4","1","1","2","0","0","0","4","0.000","0.000","0.500","0.000","0.000","0.250","","0.250","0.500","","","2020-06-30 16:50:00"
"27160","Certegui","27","Choco","5.37041379","-76.60802121","0","3","0","3","0","0","0","0","4","0.000","0.000","0.000","0.000","0.000","0.000","0.0000000","1.000","0.000","1920","","2020-06-30 16:50:00"
"27205","Condoto","27","Choco","5.091003208","-76.65068266","3","6","0","3","3","0","0","0","11","0.000","0.000","0.500","0.000","0.000","0.000","0.0000000","0.500","0.500","2061","","2020-06-30 16:50:00"
"27245","El Carmen de Atrato","27","Choco","5.899751361","-76.14222986","21","22","0","1","21","0","0","0","4","0.000","0.000","0.955","0.000","0.000","0.000","0.0000000","0.045","0.955","373","","2020-06-30 16:50:00"
"27361","Istmina","27","Choco","5.153946496","-76.68518032","18","48","1","29","16","2","0","2","25","0.080","0.042","0.333","0.042","0.000","0.021","3.2461209","0.604","0.375","642","30806","2020-06-30 16:50:00"
"27413","Lloro","27","Choco","5.498150801","-76.54521063","4","5","1","0","2","2","0","2","5","0.400","0.400","0.400","0.400","0.000","0.200","10.0877635","0.000","0.800","1983","9913","2020-06-30 16:50:00"
"27430","Medio Baudo","27","Choco","5.193563954","-76.94960604","1","2","0","1","1","0","0","0","11","0.000","0.000","0.500","0.000","0.000","0.000","0.0000000","0.500","0.500","7842","","2020-06-30 16:50:00"
"27450","Medio San Juan","27","Choco","5.100240747","-76.69335794","3","3","0","0","2","1","0","1","4","0.250","0.333","0.667","0.333","0.000","0.000","0.0000000","0.000","1.000","3609","","2020-06-30 16:50:00"
"27600","Rio Quito","27","Choco","5.483727751","-76.74101656","21","24","1","2","19","2","0","2","1","2.000","0.083","0.792","0.083","0.000","0.042","11.8371212","0.083","0.875","352","8448","2020-06-30 16:50:00"
"27615","Riosucio","27","Choco","7.436631552","-77.11310959","3","4","1","0","3","0","0","0","16","0.000","0.000","0.750","0.000","0.000","0.250","1.8105446","0.000","0.750","13808","55232","2020-06-30 16:50:00"
"27787","Tado","27","Choco","5.264139949","-76.55876602","6","13","1","6","4","2","0","2","10","0.200","0.154","0.308","0.154","0.000","0.077","5.5825378","0.462","0.462","1378","17913","2020-06-30 16:50:00"
"27800","Unguia","27","Choco","8.042760782","-77.09175303","1","1","0","0","0","0","1","1","4","0.250","1.000","0.000","0.000","1.000","0.000","0.0000000","0.000","1.000","12822","","2020-06-30 16:50:00"
"27810","Union Panamericana","27","Choco","5.281095852","-76.62840607","16","30","4","10","16","0","0","0","3","0.000","0.000","0.533","0.000","0.000","0.133","57.2901747","0.333","0.533","233","1746","2020-06-30 16:50:00"
"41001","Neiva","41","Huila","2.935604415","-75.27772259","38","189","5","146","37","1","0","1","566","0.002","0.005","0.196","0.005","0.000","0.026","1.3720884","0.772","0.201","1928","72882","2020-06-30 16:50:00"
"41006","Acevedo","41","Huila","1.805263228","-75.88853156","1","3","0","2","1","0","0","0","5","0.000","0.000","0.333","0.000","0.000","0.000","0.0000000","0.667","0.333","8433","","2020-06-30 16:50:00"
"41013","Agrado","41","Huila","2.259729394","-75.77190358","0","2","0","2","0","0","0","0","2","0.000","0.000","0.000","0.000","0.000","0.000","0.0000000","1.000","0.000","4469","","2020-06-30 16:50:00"
"41016","Aipe","41","Huila","3.223597562","-75.23903118","1","5","0","4","1","0","0","0","4","0.000","0.000","0.200","0.000","0.000","0.000","0.0000000","0.800","0.200","3309","","2020-06-30 16:50:00"
"41020","Algeciras","41","Huila","2.522447597","-75.31537288","0","8","0","8","0","0","0","0","3","0.000","0.000","0.000","0.000","0.000","0.000","0.0000000","1.000","0.000","2822","","2020-06-30 16:50:00"
"41132","Campoalegre","41","Huila","2.686827401","-75.32573546","2","4","0","2","2","0","0","0","2","0.000","0.000","0.500","0.000","0.000","0.000","0.0000000","0.500","0.500","7839","","2020-06-30 16:50:00"
"41298","Garzon","41","Huila","2.196994421","-75.62769374","5","12","0","7","5","0","0","0","66","0.000","0.000","0.417","0.000","0.000","0.000","0.0000000","0.583","0.417","6178","","2020-06-30 16:50:00"
"41306","Gigante","41","Huila","2.388235625","-75.54121989","0","25","1","24","0","0","0","0","4","0.000","0.000","0.000","0.000","0.000","0.040","4.0443258","0.960","0.000","989","24726","2020-06-30 16:50:00"
"41359","Isnos","41","Huila","1.92946706","-76.21763745","1","5","2","2","0","0","0","0","3","0.000","0.000","0.000","0.000","0.000","0.400","7.7763521","0.400","0.200","5144","12860","2020-06-30 16:50:00"
"41396","La Plata","41","Huila","2.389646694","-75.89145131","3","9","0","6","3","0","0","0","26","0.000","0.000","0.333","0.000","0.000","0.000","0.0000000","0.667","0.333","6931","","2020-06-30 16:50:00"
"41483","Nataga","41","Huila","2.545352901","-75.80878532","3","3","0","0","1","1","0","1","4","0.250","0.333","0.333","0.333","0.000","0.000","0.0000000","0.000","1.000","2191","","2020-06-30 16:50:00"
"41503","Oporapa","41","Huila","2.025054002","-75.99517781","0","13","0","13","0","0","0","0","3","0.000","0.000","0.000","0.000","0.000","0.000","0.0000000","1.000","0.000","917","","2020-06-30 16:50:00"
"41518","Paicol","41","Huila","2.449548949","-75.77299232","0","2","1","1","0","0","0","0","2","0.000","0.000","0.000","0.000","0.000","0.500","14.8765248","0.500","0.000","3361","6722","2020-06-30 16:50:00"
"41524","Palermo","41","Huila","2.888406236","-75.43371912","2","9","0","7","2","0","0","0","4","0.000","0.000","0.222","0.000","0.000","0.000","0.0000000","0.778","0.222","2987","","2020-06-30 16:50:00"
"41530","Palestina","41","Huila","1.723444181","-76.13312235","0","1","0","1","0","0","0","0","1","0.000","0.000","0.000","0.000","0.000","0.000","0.0000000","1.000","0.000","11395","","2020-06-30 16:50:00"
"41551","Pitalito","41","Huila","1.852578355","-76.0487449","7","20","0","13","5","0","0","0","81","0.000","0.000","0.250","0.000","0.000","0.000","0.0000000","0.650","0.350","6432","","2020-06-30 16:50:00"
"41615","Rivera","41","Huila","2.777570516","-75.25854672","0","1","0","1","0","0","0","0","5","0.000","0.000","0.000","0.000","0.000","0.000","0.0000000","1.000","0.000","25131","","2020-06-30 16:50:00"
"41660","Saladoblanco","41","Huila","1.992494881","-76.04414126","0","1","0","1","0","0","0","0","4","0.000","0.000","0.000","0.000","0.000","0.000","0.0000000","1.000","0.000","10567","","2020-06-30 16:50:00"
"41668","San Agustin","41","Huila","1.881081298","-76.27035968","3","5","0","2","2","1","0","1","7","0.143","0.200","0.400","0.200","0.000","0.000","0.0000000","0.400","0.600","6745","","2020-06-30 16:50:00"
"41799","Tello","41","Huila","3.067538095","-75.13877304","13","15","0","2","12","1","0","1","4","0.250","0.067","0.800","0.067","0.000","0.000","0.0000000","0.133","0.867","787","","2020-06-30 16:50:00"
"41807","Timana","41","Huila","1.974224443","-75.932087","0","8","1","7","0","0","0","0","4","0.000","0.000","0.000","0.000","0.000","0.125","4.5310376","0.875","0.000","2759","22070","2020-06-30 16:50:00"
"41885","Yaguara","41","Huila","2.664694213","-75.51802329","0","1","0","1","0","0","0","0","2","0.000","0.000","0.000","0.000","0.000","0.000","0.0000000","1.000","0.000","7824","","2020-06-30 16:50:00"
"44001","Riohacha","44","La Guajira","11.52875138","-72.91148891","51","69","2","16","45","6","0","6","289","0.021","0.087","0.652","0.087","0.000","0.029","0.9908888","0.232","0.739","2925","100920","2020-06-30 16:50:00"
"44035","Albania","44","La Guajira","11.15748865","-72.59852163","1","6","0","5","0","1","0","1","2","0.500","0.167","0.000","0.167","0.000","0.000","0.0000000","0.833","0.167","5378","","2020-06-30 16:50:00"
"44078","Barrancas","44","La Guajira","10.95866671","-72.79357567","11","12","0","1","10","1","0","1","42","0.024","0.083","0.833","0.083","0.000","0.000","0.0000000","0.083","0.917","3196","","2020-06-30 16:50:00"
"44090","Dibulla","44","La Guajira","11.2715694","-73.30761979","4","6","0","2","3","0","1","1","6","0.167","0.167","0.500","0.000","0.167","0.000","0.0000000","0.333","0.667","7010","","2020-06-30 16:50:00"
"44098","Distraccion","44","La Guajira","10.89847259","-72.88739268","35","38","0","3","34","0","1","1","40","0.025","0.026","0.895","0.000","0.026","0.000","0.0000000","0.079","0.921","375","","2020-06-30 16:50:00"
"44279","Fonseca","44","La Guajira","10.88430067","-72.84666224","3","6","1","2","2","1","0","1","5","0.200","0.167","0.333","0.167","0.000","0.167","2.2449713","0.333","0.500","7424","44544","2020-06-30 16:50:00"
"44378","Hatonuevo","44","La Guajira","11.06874303","-72.75901658","0","1","0","1","0","0","0","0","2","0.000","0.000","0.000","0.000","0.000","0.000","0.0000000","1.000","0.000","22033","","2020-06-30 16:50:00"
"44430","Maicao","44","La Guajira","11.37832678","-72.24190502","206","262","14","42","184","15","6","21","232","0.091","0.080","0.702","0.057","0.023","0.053","7.5646235","0.160","0.786","706","13219","2020-06-30 16:50:00"
"44560","Manaure","44","La Guajira","11.77405659","-72.43966737","0","1","0","1","0","0","0","0","5","0.000","0.000","0.000","0.000","0.000","0.000","0.0000000","1.000","0.000","93431","","2020-06-30 16:50:00"
"44650","San Juan del Cesar","44","La Guajira","10.76957868","-73.00059321","3","10","1","6","2","1","0","1","136","0.007","0.100","0.200","0.100","0.000","0.100","2.0167796","0.600","0.300","4958","49584","2020-06-30 16:50:00"
"44847","Uribia","44","La Guajira","11.71464582","-72.26476063","23","28","1","4","22","1","0","1","34","0.029","0.036","0.786","0.036","0.000","0.036","0.5260832","0.143","0.821","6789","190084","2020-06-30 16:50:00"
"44874","Villanueva","44","La Guajira","10.60881169","-72.97762278","1","1","0","0","1","0","0","0","5","0.000","0.000","1.000","0.000","0.000","0.000","0.0000000","0.000","1.000","29236","","2020-06-30 16:50:00"
"47001","Santa Marta","47","Magdalena","11.2294335","-74.19089412","539","1006","41","426","461","63","13","76","989","0.077","0.076","0.458","0.063","0.013","0.041","7.6121587","0.423","0.536","535","13137","2020-06-30 16:50:00"
"47053","Aracataca","47","Magdalena","10.58980001","-74.18676284","2","4","0","2","0","2","0","2","7","0.286","0.500","0.000","0.500","0.000","0.000","0.0000000","0.500","0.500","10373","","2020-06-30 16:50:00"
"47058","Ariguani","47","Magdalena","9.767720804","-73.99780998","1","1","0","0","0","1","0","1","6","0.167","1.000","0.000","1.000","0.000","0.000","0.0000000","0.000","1.000","31794","","2020-06-30 16:50:00"
"47161","Cerro de San Antonio","47","Magdalena","10.32565943","-74.868473","0","2","1","1","0","0","0","0","6","0.000","0.000","0.000","0.000","0.000","0.500","10.0593502","0.500","0.000","4971","9941","2020-06-30 16:50:00"
"47189","Cienaga","47","Magdalena","11.00665688","-74.24128616","257","467","40","170","221","32","4","36","102","0.353","0.077","0.473","0.069","0.009","0.086","32.1701156","0.364","0.550","266","3108","2020-06-30 16:50:00"
"47245","El Banco","47","Magdalena","9.008733009","-73.97428121","50","64","2","12","44","5","1","6","86","0.070","0.094","0.688","0.078","0.016","0.031","2.8693993","0.188","0.781","1089","34851","2020-06-30 16:50:00"
"47258","El Pinon","47","Magdalena","10.40309454","-74.82329109","1","2","0","1","0","1","0","1","5","0.200","0.500","0.000","0.500","0.000","0.000","0.0000000","0.500","0.500","12042","","2020-06-30 16:50:00"
"47268","El Reten","47","Magdalena","10.61066766","-74.2684561","13","15","0","2","13","0","0","0","3","0.000","0.000","0.867","0.000","0.000","0.000","0.0000000","0.133","0.867","1403","","2020-06-30 16:50:00"
"47288","Fundacion","47","Magdalena","10.5140924","-74.19134346","18","23","1","4","12","5","1","6","117","0.051","0.261","0.522","0.217","0.043","0.043","1.4186208","0.174","0.783","3065","70491","2020-06-30 16:50:00"
"47318","Guamal","47","Magdalena","9.144385832","-74.22369928","1","1","0","0","1","0","0","0","7","0.000","0.000","1.000","0.000","0.000","0.000","0.0000000","0.000","1.000","27918","","2020-06-30 16:50:00"
"47545","Pijino del Carmen","47","Magdalena","9.331953112","-74.45821824","0","1","1","0","0","0","0","0","3","0.000","0.000","0.000","0.000","0.000","1.000","7.7471336","0.000","0.000","12908","12908","2020-06-30 16:50:00"
"47551","Pivijay","47","Magdalena","10.46069324","-74.61351795","2","3","1","0","1","1","0","1","20","0.050","0.333","0.333","0.333","0.000","0.333","2.5658789","0.000","0.667","12991","38973","2020-06-30 16:50:00"
"47555","Plato","47","Magdalena","9.796769868","-74.78468286","2","2","0","0","2","0","0","0","52","0.000","0.000","1.000","0.000","0.000","0.000","0.0000000","0.000","1.000","32009","","2020-06-30 16:50:00"
"47570","Puebloviejo","47","Magdalena","10.99482965","-74.28248423","35","184","20","129","29","5","1","6","5","1.200","0.033","0.158","0.027","0.005","0.109","62.1349571","0.701","0.190","175","1609","2020-06-30 16:50:00"
"47605","Remolino","47","Magdalena","10.70217005","-74.71614047","2","2","0","0","1","1","0","1","2","0.500","0.500","0.500","0.500","0.000","0.000","0.0000000","0.000","1.000","5965","","2020-06-30 16:50:00"
"47692","San Sebastian de Buenavista","47","Magdalena","9.24050525","-74.35167514","0","1","1","0","0","0","0","0","5","0.000","0.000","0.000","0.000","0.000","1.000","4.8318516","0.000","0.000","20696","20696","2020-06-30 16:50:00"
"47707","Santa Ana","47","Magdalena","9.321837859","-74.56765762","3","3","0","0","1","2","0","2","11","0.182","0.667","0.333","0.667","0.000","0.000","0.0000000","0.000","1.000","8692","","2020-06-30 16:50:00"
"47745","Sitionuevo","47","Magdalena","10.77540964","-74.72016921","26","52","5","21","23","3","0","3","5","0.600","0.058","0.442","0.058","0.000","0.096","17.1473645","0.404","0.500","561","5832","2020-06-30 16:50:00"
"47980","Zona Bananera","47","Magdalena","10.76302682","-74.14008184","5","21","6","10","3","2","0","2","7","0.286","0.095","0.143","0.095","0.000","0.286","8.1154559","0.476","0.238","3521","12322","2020-06-30 16:50:00"
"50001","Villavicencio","50","Meta","4.1238615","-73.62709204","215","1151","10","926","199","12","3","15","793","0.019","0.013","0.173","0.010","0.003","0.009","1.8338462","0.805","0.187","474","54530","2020-06-30 16:50:00"
"50006","Acacias","50","Meta","3.990120663","-73.76593665","17","32","0","15","17","0","0","0","11","0.000","0.000","0.531","0.000","0.000","0.000","0.0000000","0.469","0.531","2870","","2020-06-30 16:50:00"
"50124","Cabuyaro","50","Meta","4.285923848","-72.79197878","0","1","1","0","0","0","0","0","4","0.000","0.000","0.000","0.000","0.000","1.000","16.1498708","0.000","0.000","6192","6192","2020-06-30 16:50:00"
"50226","Cumaral","50","Meta","4.269537766","-73.48610878","4","6","0","2","4","0","0","0","4","0.000","0.000","0.667","0.000","0.000","0.000","0.0000000","0.333","0.667","3866","","2020-06-30 16:50:00"
"50313","Granada","50","Meta","3.546694724","-73.70571533","7","20","0","13","7","0","0","0","87","0.000","0.000","0.350","0.000","0.000","0.000","0.0000000","0.650","0.350","3529","","2020-06-30 16:50:00"
"50568","Puerto Gaitan","50","Meta","4.314487455","-72.08307894","15","20","0","5","14","1","0","1","13","0.077","0.050","0.700","0.050","0.000","0.000","0.0000000","0.250","0.750","2180","","2020-06-30 16:50:00"
"50573","Puerto Lopez","50","Meta","4.093406425","-72.95743626","0","5","2","3","0","0","0","0","7","0.000","0.000","0.000","0.000","0.000","0.400","6.5980470","0.600","0.000","6062","15156","2020-06-30 16:50:00"
"50606","Restrepo","50","Meta","4.260731994","-73.56460418","3","8","2","3","2","1","0","1","6","0.167","0.125","0.250","0.125","0.000","0.250","10.7192625","0.375","0.375","2332","9329","2020-06-30 16:50:00"
"50680","San Carlos de Guaroa","50","Meta","3.71053664","-73.24140912","1","2","0","1","0","1","0","1","5","0.200","0.500","0.000","0.500","0.000","0.000","0.0000000","0.500","0.500","6438","","2020-06-30 16:50:00"
"50683","San Juan de Arama","50","Meta","3.373727874","-73.87583154","0","3","0","3","0","0","0","0","5","0.000","0.000","0.000","0.000","0.000","0.000","0.0000000","1.000","0.000","2955","","2020-06-30 16:50:00"
"50689","San Martin","50","Meta","3.701879876","-73.69561782","2","2","0","0","2","0","0","0","13","0.000","0.000","1.000","0.000","0.000","0.000","0.0000000","0.000","1.000","13250","","2020-06-30 16:50:00"
"52001","Pasto","52","Narino","1.212124365","-77.27857635","402","672","19","251","354","40","5","45","893","0.050","0.067","0.527","0.060","0.007","0.028","4.8396669","0.374","0.598","584","20663","2020-06-30 16:50:00"
"52019","Alban","52","Narino","1.474978015","-77.08071233","6","6","0","0","6","0","0","0","0","","0.000","1.000","0.000","0.000","0.000","0.0000000","0.000","1.000","1553","","2020-06-30 16:50:00"
"52022","Aldana","52","Narino","0.882181195","-77.70035656","2","13","0","11","2","0","0","0","0","","0.000","0.154","0.000","0.000","0.000","0.0000000","0.846","0.154","566","","2020-06-30 16:50:00"
"52036","Ancuya","52","Narino","1.263299977","-77.51451329","1","2","0","1","1","0","0","0","0","","0.000","0.500","0.000","0.000","0.000","0.0000000","0.500","0.500","4302","","2020-06-30 16:50:00"
"52051","Arboleda","52","Narino","1.503536564","-77.13539889","1","2","0","1","1","0","0","0","0","","0.000","0.500","0.000","0.000","0.000","0.0000000","0.500","0.500","4210","","2020-06-30 16:50:00"
"52079","Barbacoas","52","Narino","1.670345194","-78.13989493","13","17","2","2","9","3","1","4","12","0.333","0.235","0.529","0.176","0.059","0.118","3.5381948","0.118","0.765","3325","28263","2020-06-30 16:50:00"
"52083","Belen","52","Narino","1.595676066","-77.01566573","0","1","0","1","0","0","0","0","0","","0.000","0.000","0.000","0.000","0.000","0.0000000","1.000","0.000","6301","","2020-06-30 16:50:00"
"52203","Colon","52","Narino","1.643874302","-77.01977704","1","1","0","0","1","0","0","0","0","","0.000","1.000","0.000","0.000","0.000","0.0000000","0.000","1.000","8316","","2020-06-30 16:50:00"
"52210","Contadero","52","Narino","0.910457863","-77.54940902","1","5","0","4","1","0","0","0","1","0.000","0.000","0.200","0.000","0.000","0.000","0.0000000","0.800","0.200","1447","","2020-06-30 16:50:00"
"52215","Cordoba","52","Narino","0.854564418","-77.51789656","1","3","0","2","1","0","0","0","1","0.000","0.000","0.333","0.000","0.000","0.000","0.0000000","0.667","0.333","5159","","2020-06-30 16:50:00"
"52224","Cuaspud","52","Narino","0.862978103","-77.72894683","0","7","1","6","0","0","0","0","0","","0.000","0.000","0.000","0.000","0.143","10.8719287","0.857","0.000","1314","9198","2020-06-30 16:50:00"
"52227","Cumbal","52","Narino","0.906185361","-77.79227662","11","48","0","37","9","1","1","2","5","0.400","0.042","0.188","0.021","0.021","0.000","0.0000000","0.771","0.229","772","","2020-06-30 16:50:00"
"52233","Cumbitara","52","Narino","1.646845971","-77.57814673","5","8","0","3","5","0","0","0","0","","0.000","0.625","0.000","0.000","0.000","0.0000000","0.375","0.625","721","","2020-06-30 16:50:00"
"52240","Chachagui","52","Narino","1.36032802","-77.28170144","8","12","0","4","7","1","0","1","10","0.100","0.083","0.583","0.083","0.000","0.000","0.0000000","0.333","0.667","1275","","2020-06-30 16:50:00"
"52250","El Charco","52","Narino","2.477550593","-78.109849","27","76","2","47","25","2","0","2","9","0.222","0.026","0.329","0.026","0.000","0.026","8.8691796","0.618","0.355","297","11275","2020-06-30 16:50:00"
"52254","El Penol","52","Narino","1.452892601","-77.43785937","3","3","0","0","3","0","0","0","0","","0.000","1.000","0.000","0.000","0.000","0.0000000","0.000","1.000","2481","","2020-06-30 16:50:00"
"52260","El Tambo","52","Narino","1.407643422","-77.39020466","1","2","1","0","1","0","0","0","6","0.000","0.000","0.500","0.000","0.000","0.500","7.2416540","0.000","0.500","6905","13809","2020-06-30 16:50:00"
"52287","Funes","52","Narino","1.001135181","-77.4489786","1","1","0","0","1","0","0","0","0","","0.000","1.000","0.000","0.000","0.000","0.0000000","0.000","1.000","7135","","2020-06-30 16:50:00"
"52317","Guachucal","52","Narino","0.959743484","-77.73158986","3","8","0","5","3","0","0","0","4","0.000","0.000","0.375","0.000","0.000","0.000","0.0000000","0.625","0.375","2417","","2020-06-30 16:50:00"
"52320","Guaitarilla","52","Narino","1.129632504","-77.54968882","21","24","1","2","20","0","0","0","3","0.000","0.000","0.833","0.000","0.000","0.042","8.8300221","0.083","0.875","472","11325","2020-06-30 16:50:00"
"52354","Imues","52","Narino","1.055137709","-77.49617816","1","2","0","1","1","0","0","0","0","","0.000","0.500","0.000","0.000","0.000","0.0000000","0.500","0.500","3723","","2020-06-30 16:50:00"
"52356","Ipiales","52","Narino","0.827734241","-77.64640075","125","334","9","200","107","16","2","18","105","0.171","0.054","0.320","0.048","0.006","0.027","7.7696053","0.599","0.374","347","12871","2020-06-30 16:50:00"
"52378","La Cruz","52","Narino","1.601339314","-76.97053174","2","3","0","1","2","0","0","0","7","0.000","0.000","0.667","0.000","0.000","0.000","0.0000000","0.333","0.667","6214","","2020-06-30 16:50:00"
"52381","La Florida","52","Narino","1.299192232","-77.40643084","3","11","1","7","2","1","0","1","0","","0.091","0.182","0.091","0.000","0.091","10.0897992","0.636","0.273","901","9911","2020-06-30 16:50:00"
"52385","La Llanada","52","Narino","1.472636197","-77.58071165","3","7","2","2","3","0","0","0","0","","0.000","0.429","0.000","0.000","0.286","30.9119011","0.286","0.429","924","3235","2020-06-30 16:50:00"
"52390","La Tola","52","Narino","2.398212191","-78.19039205","7","43","0","36","7","0","0","0","1","0.000","0.000","0.163","0.000","0.000","0.000","0.0000000","0.837","0.163","173","","2020-06-30 16:50:00"
"52399","La Union","52","Narino","1.600268613","-77.13115435","6","9","0","3","4","1","1","2","22","0.091","0.222","0.444","0.111","0.111","0.000","0.0000000","0.333","0.667","3528","","2020-06-30 16:50:00"
"52411","Linares","52","Narino","1.351145073","-77.52193996","1","1","0","0","0","0","0","0","1","0.000","0.000","0.000","0.000","0.000","0.000","0.0000000","0.000","1.000","10012","","2020-06-30 16:50:00"
"52427","Magui","52","Narino","1.765313671","-78.18106078","134","138","2","2","132","2","0","2","0","","0.014","0.957","0.014","0.000","0.014","7.8299338","0.014","0.971","185","12772","2020-06-30 16:50:00"
"52435","Mallama","52","Narino","1.14083897","-77.86442829","5","37","1","31","5","0","0","0","1","0.000","0.000","0.135","0.000","0.000","0.027","11.1781802","0.838","0.135","242","8946","2020-06-30 16:50:00"
"52473","Mosquera","52","Narino","2.507116414","-78.45298541","5","54","3","46","4","1","0","1","0","","0.019","0.074","0.019","0.000","0.056","23.8435861","0.852","0.093","233","4194","2020-06-30 16:50:00"
"52480","Narino","52","Narino","1.288978992","-77.35797213","5","13","0","8","2","2","1","3","1","3.000","0.231","0.154","0.154","0.077","0.000","0.0000000","0.615","0.385","334","","2020-06-30 16:50:00"
"52490","Olaya Herrera","52","Narino","2.347584488","-78.32561871","34","73","2","37","29","4","1","5","0","","0.068","0.397","0.055","0.014","0.027","7.9333598","0.507","0.466","345","12605","2020-06-30 16:50:00"
"52520","Francisco Pizarro","52","Narino","2.040809056","-78.65818187","13","37","0","24","11","2","0","2","0","","0.054","0.297","0.054","0.000","0.000","0.0000000","0.649","0.351","383","","2020-06-30 16:50:00"
"52560","Potosi","52","Narino","0.806340417","-77.57279178","3","13","1","9","2","0","0","0","0","","0.000","0.154","0.000","0.000","0.077","9.9423345","0.692","0.231","774","10058","2020-06-30 16:50:00"
"52573","Puerres","52","Narino","0.885125175","-77.50421065","4","5","0","1","4","0","0","0","0","","0.000","0.800","0.000","0.000","0.000","0.0000000","0.200","0.800","1673","","2020-06-30 16:50:00"
"52585","Pupiales","52","Narino","0.867139628","-77.63350443","6","16","0","10","4","1","1","2","1","2.000","0.125","0.250","0.063","0.063","0.000","0.0000000","0.625","0.375","1076","","2020-06-30 16:50:00"
"52612","Ricaurte","52","Narino","1.212931458","-77.99544487","0","10","0","10","0","0","0","0","4","0.000","0.000","0.000","0.000","0.000","0.000","0.0000000","1.000","0.000","2006","","2020-06-30 16:50:00"
