"DIVIPOLA","City_Municipality","ID_Deparment","Department","Latitude","Longitude","Active","Confirmed","Deaths","Recovered","House","Hospital","ICU","People_Hospitalized","Total_Hospital_Beds","Total_Hospital_Beds_Utilisation","Total_Hospitalization_Rate","Mild_Rate","Severe_Rate","Critical_Rate","Lethality_Rate","Mortality_Rate","Recovery_Rates","Active_Rate","Cases_Share_Of_Population","Deaths_Share_Of_Population","Last_Update"
"5001","Medellin","5","Antioquia","5.610109776","-74.88681663","2164","3168","29","975","1937","194","30","224","2885","0.078","0.071","0.611","0.061","0.009","0.009","1.1446959","0.308","0.683","800","87359","2020-07-06 17:39:00"
"5030","Amaga","5","Antioquia","6.038808575","-75.70194607","3","6","1","2","3","0","0","0","5","0.000","0.000","0.500","0.000","0.000","0.167","3.1966244","0.333","0.500","5214","31283","2020-07-06 17:39:00"
"5034","Andes","5","Antioquia","5.656774852","-75.87879189","1","2","0","1","0","1","0","1","10","0.100","0.500","0.000","0.500","0.000","0.000","0.0000000","0.500","0.500","22100","","2020-07-06 17:39:00"
"5038","Angostura","5","Antioquia","6.885174591","-75.33511597","0","1","0","1","0","0","0","0","3","0.000","0.000","0.000","0.000","0.000","0.000","0.0000000","1.000","0.000","11536","","2020-07-06 17:39:00"
"5042","Santa Fe de Antioquia","5","Antioquia","6.556533296","-75.82707907","9","10","0","1","9","0","0","0","25","0.000","0.000","0.900","0.000","0.000","0.000","0.0000000","0.100","0.900","2700","","2020-07-06 17:39:00"
"5044","Anza","5","Antioquia","6.302658359","-75.85444158","5","5","0","0","5","0","0","0","2","0.000","0.000","1.000","0.000","0.000","0.000","0.0000000","0.000","1.000","1434","","2020-07-06 17:39:00"
"5045","Apartado","5","Antioquia","7.883417406","-76.62596065","221","283","0","62","212","9","0","9","158","0.057","0.032","0.749","0.032","0.000","0.000","0.0000000","0.219","0.781","451","","2020-07-06 17:39:00"
"5051","Arboletes","5","Antioquia","8.850567734","-76.4270568","41","42","0","1","36","5","0","5","4","1.250","0.119","0.857","0.119","0.000","0.000","0.0000000","0.024","0.976","726","","2020-07-06 17:39:00"
"5079","Barbosa","5","Antioquia","6.439226882","-75.33164423","4","13","0","9","3","1","0","1","7","0.143","0.077","0.231","0.077","0.000","0.000","0.0000000","0.692","0.308","4181","","2020-07-06 17:39:00"
"5088","Bello","5","Antioquia","6.334068836","-75.55466507","262","429","7","160","233","23","6","29","355","0.082","0.068","0.543","0.054","0.014","0.016","1.2677623","0.373","0.611","1287","78879","2020-07-06 17:39:00"
"5093","Betulia","5","Antioquia","6.115255594","-75.98451587","1","1","0","0","1","0","0","0","5","0.000","0.000","1.000","0.000","0.000","0.000","0.0000000","0.000","1.000","15896","","2020-07-06 17:39:00"
"5101","Ciudad Bolivar","5","Antioquia","5.850273232","-76.02150921","2","3","1","0","2","0","0","0","23","0.000","0.000","0.667","0.000","0.000","0.333","3.8004028","0.000","0.667","8771","26313","2020-07-06 17:39:00"
"5107","Briceno","5","Antioquia","7.114882947","-75.54813022","0","1","0","1","0","0","0","0","5","0.000","0.000","0.000","0.000","0.000","0.000","0.0000000","1.000","0.000","8120","","2020-07-06 17:39:00"
"5113","Buritica","5","Antioquia","6.719735175","-75.90753473","46","47","0","1","46","0","0","0","3","0.000","0.000","0.979","0.000","0.000","0.000","0.0000000","0.021","0.979","205","","2020-07-06 17:39:00"
"5120","Caceres","5","Antioquia","7.578315451","-75.35235749","1","2","0","1","1","0","0","0","5","0.000","0.000","0.500","0.000","0.000","0.000","0.0000000","0.500","0.500","15178","","2020-07-06 17:39:00"
"5125","Caicedo","5","Antioquia","6.405567003","-75.98281889","1","1","0","0","1","0","0","0","1","0.000","0.000","1.000","0.000","0.000","0.000","0.0000000","0.000","1.000","8536","","2020-07-06 17:39:00"
"5129","Caldas","5","Antioquia","6.091296966","-75.63361872","21","30","0","9","20","1","0","1","49","0.020","0.033","0.667","0.033","0.000","0.000","0.0000000","0.300","0.700","2781","","2020-07-06 17:39:00"
"5138","Canasgordas","5","Antioquia","6.759477684","-76.03220994","3","6","0","3","3","0","0","0","3","0.000","0.000","0.500","0.000","0.000","0.000","0.0000000","0.500","0.500","2592","","2020-07-06 17:39:00"
"5142","Caracoli","5","Antioquia","6.409854727","-74.75744944","0","1","0","1","0","0","0","0","1","0.000","0.000","0.000","0.000","0.000","0.000","0.0000000","1.000","0.000","4532","","2020-07-06 17:39:00"
"5147","Carepa","5","Antioquia","7.755116346","-76.65321034","92","381","1","288","89","3","0","3","11","0.273","0.008","0.234","0.008","0.000","0.003","1.9553018","0.756","0.241","134","51143","2020-07-06 17:39:00"
"5148","El Carmen de Viboral","5","Antioquia","6.084551516","-75.33536246","3","5","0","2","3","0","0","0","11","0.000","0.000","0.600","0.000","0.000","0.000","0.0000000","0.400","0.600","12516","","2020-07-06 17:39:00"
"5154","Caucasia","5","Antioquia","7.977362333","-75.19829033","35","40","2","3","33","1","0","1","126","0.008","0.025","0.825","0.025","0.000","0.050","2.0958429","0.075","0.875","2386","47714","2020-07-06 17:39:00"
"5172","Chigorodo","5","Antioquia","7.666300439","-76.6812164","31","44","0","13","28","3","0","3","31","0.097","0.068","0.636","0.068","0.000","0.000","0.0000000","0.295","0.705","1360","","2020-07-06 17:39:00"
"5190","Cisneros","5","Antioquia","6.537761957","-75.08720761","0","1","0","1","0","0","0","0","6","0.000","0.000","0.000","0.000","0.000","0.000","0.0000000","1.000","0.000","9936","","2020-07-06 17:39:00"
"5197","Cocorna","5","Antioquia","6.058306335","-75.18548101","0","1","0","1","0","0","0","0","2","0.000","0.000","0.000","0.000","0.000","0.000","0.0000000","1.000","0.000","14833","","2020-07-06 17:39:00"
"5212","Copacabana","5","Antioquia","6.348640545","-75.5093439","28","62","0","34","26","1","0","1","6","0.167","0.016","0.419","0.016","0.000","0.000","0.0000000","0.548","0.452","1320","","2020-07-06 17:39:00"
"5234","Dabeiba","5","Antioquia","7.00032194","-76.26297665","3","3","0","0","3","0","0","0","5","0.000","0.000","1.000","0.000","0.000","0.000","0.0000000","0.000","1.000","7836","","2020-07-06 17:39:00"
"5237","Donmatias","5","Antioquia","6.484469957","-75.39272406","5","10","1","4","5","0","0","0","3","0.000","0.000","0.500","0.000","0.000","0.100","5.0738241","0.400","0.500","1971","19709","2020-07-06 17:39:00"
"5240","Ebejico","5","Antioquia","6.326056658","-75.76622047","2","2","0","0","2","0","0","0","2","0.000","0.000","1.000","0.000","0.000","0.000","0.0000000","0.000","1.000","6067","","2020-07-06 17:39:00"
"5250","El Bagre","5","Antioquia","7.597521794","-74.79909729","1","3","0","2","0","1","0","1","12","0.083","0.333","0.000","0.333","0.000","0.000","0.0000000","0.667","0.333","17949","","2020-07-06 17:39:00"
"5264","Entrerrios","5","Antioquia","6.566481448","-75.5178008","1","1","0","0","1","0","0","0","2","0.000","0.000","1.000","0.000","0.000","0.000","0.0000000","0.000","1.000","11728","","2020-07-06 17:39:00"
"5266","Envigado","5","Antioquia","6.167004552","-75.58301014","75","126","0","51","72","3","0","3","131","0.023","0.024","0.571","0.024","0.000","0.000","0.0000000","0.405","0.595","1922","","2020-07-06 17:39:00"
"5284","Frontino","5","Antioquia","6.776065912","-76.13076514","0","3","0","3","0","0","0","0","5","0.000","0.000","0.000","0.000","0.000","0.000","0.0000000","1.000","0.000","6900","","2020-07-06 17:39:00"
"5306","Giraldo","5","Antioquia","6.680808016","-75.95215756","1","5","0","4","1","0","0","0","1","0.000","0.000","0.200","0.000","0.000","0.000","0.0000000","0.800","0.200","1150","","2020-07-06 17:39:00"
"5308","Girardota","5","Antioquia","6.379613834","-75.44446221","12","14","0","2","12","0","0","0","4","0.000","0.000","0.857","0.000","0.000","0.000","0.0000000","0.143","0.857","3889","","2020-07-06 17:39:00"
"5313","Granada","5","Antioquia","6.142896667","-75.18444508","0","1","1","0","0","0","0","0","1","0.000","0.000","0.000","0.000","0.000","1.000","10.2417042","0.000","0.000","9764","9764","2020-07-06 17:39:00"
"5318","Guarne","5","Antioquia","6.278064077","-75.44165392","21","25","0","4","19","2","0","2","4","0.500","0.080","0.760","0.080","0.000","0.000","0.0000000","0.160","0.840","2326","","2020-07-06 17:39:00"
"5321","Guatape","5","Antioquia","6.232592707","-75.16229259","0","2","0","2","0","0","0","0","2","0.000","0.000","0.000","0.000","0.000","0.000","0.0000000","1.000","0.000","4355","","2020-07-06 17:39:00"
"5347","Heliconia","5","Antioquia","6.206757461","-75.73432238","1","1","0","0","1","0","0","0","2","0.000","0.000","1.000","0.000","0.000","0.000","0.0000000","0.000","1.000","5395","","2020-07-06 17:39:00"
"5353","Hispania","5","Antioquia","5.799461575","-75.90658827","6","6","0","0","6","0","0","0","1","0.000","0.000","1.000","0.000","0.000","0.000","0.0000000","0.000","1.000","932","","2020-07-06 17:39:00"
"5360","Itagui","5","Antioquia","6.169597629","-75.61435871","237","307","1","69","224","13","0","13","168","0.077","0.042","0.730","0.042","0.000","0.003","0.3448347","0.225","0.772","945","289994","2020-07-06 17:39:00"
"5361","Ituango","5","Antioquia","7.17162903","-75.76467317","347","671","0","324","345","1","1","2","8","0.250","0.003","0.514","0.001","0.001","0.000","0.0000000","0.483","0.517","41","","2020-07-06 17:39:00"
"5368","Jerico","5","Antioquia","5.789747931","-75.78549855","0","1","0","1","0","0","0","0","2","0.000","0.000","0.000","0.000","0.000","0.000","0.0000000","1.000","0.000","13706","","2020-07-06 17:39:00"
"5376","La Ceja","5","Antioquia","6.028055744","-75.42943089","16","32","0","16","15","1","0","1","120","0.008","0.031","0.469","0.031","0.000","0.000","0.0000000","0.500","0.500","2135","","2020-07-06 17:39:00"
"5380","La Estrella","5","Antioquia","6.15841974","-75.64519038","47","79","0","32","45","2","0","2","3","0.667","0.025","0.570","0.025","0.000","0.000","0.0000000","0.405","0.595","956","","2020-07-06 17:39:00"
"5425","Maceo","5","Antioquia","6.552116913","-74.78716148","2","4","0","2","2","0","0","0","4","0.000","0.000","0.500","0.000","0.000","0.000","0.0000000","0.500","0.500","2062","","2020-07-06 17:39:00"
"5440","Marinilla","5","Antioquia","6.172269255","-75.33947788","5","9","0","4","5","0","0","0","4","0.000","0.000","0.556","0.000","0.000","0.000","0.0000000","0.444","0.556","7544","","2020-07-06 17:39:00"
"5467","Montebello","5","Antioquia","5.946325567","-75.52351091","0","3","0","3","0","0","0","0","2","0.000","0.000","0.000","0.000","0.000","0.000","0.0000000","1.000","0.000","2214","","2020-07-06 17:39:00"
"5475","Murindo","5","Antioquia","6.977691853","-76.81745806","14","14","0","0","14","0","0","0","3","0.000","0.000","1.000","0.000","0.000","0.000","0.0000000","0.000","1.000","374","","2020-07-06 17:39:00"
"5480","Mutata","5","Antioquia","7.242875057","-76.4358754","12","12","0","0","12","0","0","0","6","0.000","0.000","1.000","0.000","0.000","0.000","0.0000000","0.000","1.000","1199","","2020-07-06 17:39:00"
"5490","Necocli","5","Antioquia","8.426135983","-76.7845745","9","10","1","0","7","2","0","2","8","0.250","0.200","0.700","0.200","0.000","0.100","2.2666485","0.000","0.900","4412","44118","2020-07-06 17:39:00"
"5495","Nechi","5","Antioquia","8.094128661","-74.77647012","22","26","2","2","18","2","2","4","9","0.444","0.154","0.692","0.077","0.077","0.077","7.3115449","0.077","0.846","1052","13677","2020-07-06 17:39:00"
"5579","Puerto Berrio","5","Antioquia","6.48704114","-74.40994553","1","1","0","0","1","0","0","0","31","0.000","0.000","1.000","0.000","0.000","0.000","0.0000000","0.000","1.000","40713","","2020-07-06 17:39:00"
"5591","Puerto Triunfo","5","Antioquia","5.871212959","-74.64126293","2","2","0","0","2","0","0","0","5","0.000","0.000","1.000","0.000","0.000","0.000","0.0000000","0.000","1.000","9485","","2020-07-06 17:39:00"
"5604","Remedios","5","Antioquia","7.026094053","-74.69594426","1","1","0","0","1","0","0","0","6","0.000","0.000","1.000","0.000","0.000","0.000","0.0000000","0.000","1.000","29629","","2020-07-06 17:39:00"
"5607","Retiro","5","Antioquia","6.063379954","-75.50137516","3","5","0","2","2","1","0","1","12","0.083","0.200","0.400","0.200","0.000","0.000","0.0000000","0.400","0.600","4951","","2020-07-06 17:39:00"
"5615","Rionegro","5","Antioquia","6.14722409","-75.37676938","14","35","0","21","12","2","0","2","304","0.007","0.057","0.343","0.057","0.000","0.000","0.0000000","0.600","0.400","4086","","2020-07-06 17:39:00"
"5631","Sabaneta","5","Antioquia","6.150970181","-75.61558529","49","77","0","28","49","0","0","0","22","0.000","0.000","0.636","0.000","0.000","0.000","0.0000000","0.364","0.636","1143","","2020-07-06 17:39:00"
"5642","Salgar","5","Antioquia","5.96564031","-75.98204854","15","25","0","10","14","1","0","1","3","0.333","0.040","0.560","0.040","0.000","0.000","0.0000000","0.400","0.600","730","","2020-07-06 17:39:00"
"5649","San Carlos","5","Antioquia","6.187991569","-74.98795256","1","1","0","0","0","1","0","1","4","0.250","1.000","0.000","1.000","0.000","0.000","0.0000000","0.000","1.000","15811","","2020-07-06 17:39:00"
"5652","San Francisco","5","Antioquia","5.964079131","-75.10268697","0","1","1","0","0","0","0","0","3","0.000","0.000","0.000","0.000","0.000","1.000","16.9808117","0.000","0.000","5889","5889","2020-07-06 17:39:00"
"5659","San Juan de Uraba","5","Antioquia","8.759341801","-76.52879434","10","10","0","0","9","1","0","1","3","0.333","0.100","0.900","0.100","0.000","0.000","0.0000000","0.000","1.000","2095","","2020-07-06 17:39:00"
"5665","San Pedro de Uraba","5","Antioquia","8.276886664","-76.38057789","0","1","0","1","0","0","0","0","5","0.000","0.000","0.000","0.000","0.000","0.000","0.0000000","1.000","0.000","32147","","2020-07-06 17:39:00"
"5670","San Roque","5","Antioquia","6.485948936","-75.01915757","0","1","0","1","0","0","0","0","7","0.000","0.000","0.000","0.000","0.000","0.000","0.0000000","1.000","0.000","21597","","2020-07-06 17:39:00"
"5674","San Vicente Ferrer","5","Antioquia","6.282155852","-75.33261381","1","1","0","0","1","0","0","0","4","0.000","0.000","1.000","0.000","0.000","0.000","0.0000000","0.000","1.000","22469","","2020-07-06 17:39:00"
"5679","Santa Barbara","5","Antioquia","5.875533398","-75.56735178","1","1","0","0","1","0","0","0","4","0.000","0.000","1.000","0.000","0.000","0.000","0.0000000","0.000","1.000","27186","","2020-07-06 17:39:00"
"5686","Santa Rosa de Osos","5","Antioquia","6.643326001","-75.46074502","1","3","0","2","1","0","0","0","6","0.000","0.000","0.333","0.000","0.000","0.000","0.0000000","0.667","0.333","12623","","2020-07-06 17:39:00"
"5697","El Santuario","5","Antioquia","6.137046858","-75.26584979","8","10","0","2","8","0","0","0","4","0.000","0.000","0.800","0.000","0.000","0.000","0.0000000","0.200","0.800","3661","","2020-07-06 17:39:00"
"5736","Segovia","5","Antioquia","7.079639679","-74.70159107","1","1","0","0","0","1","0","1","6","0.167","1.000","0.000","1.000","0.000","0.000","0.0000000","0.000","1.000","39379","","2020-07-06 17:39:00"
"5756","Sonson","5","Antioquia","5.714811641","-75.30939515","0","2","0","2","0","0","0","0","4","0.000","0.000","0.000","0.000","0.000","0.000","0.0000000","1.000","0.000","18313","","2020-07-06 17:39:00"
"5789","Tamesis","5","Antioquia","5.664466636","-75.71432069","2","7","0","5","2","0","0","0","4","0.000","0.000","0.286","0.000","0.000","0.000","0.0000000","0.714","0.286","2314","","2020-07-06 17:39:00"
"5790","Taraza","5","Antioquia","7.580120815","-75.40140596","3","6","0","3","3","0","0","0","5","0.000","0.000","0.500","0.000","0.000","0.000","0.0000000","0.500","0.500","4666","","2020-07-06 17:39:00"
"5837","Turbo","5","Antioquia","8.089116411","-76.72915844","82","195","4","109","78","3","1","4","51","0.078","0.021","0.400","0.015","0.005","0.021","3.0724090","0.559","0.421","668","32548","2020-07-06 17:39:00"
"5854","Valdivia","5","Antioquia","7.16534","-75.43919844","8","13","0","5","8","0","0","0","4","0.000","0.000","0.615","0.000","0.000","0.000","0.0000000","0.385","0.615","1085","","2020-07-06 17:39:00"
"5861","Venecia","5","Antioquia","5.964733583","-75.73550324","1","1","0","0","1","0","0","0","4","0.000","0.000","1.000","0.000","0.000","0.000","0.0000000","0.000","1.000","11715","","2020-07-06 17:39:00"
"5873","Vigia del Fuerte","5","Antioquia","6.588119845","-76.89618698","16","16","0","0","14","2","0","2","3","0.667","0.125","0.875","0.125","0.000","0.000","0.0000000","0.000","1.000","589","","2020-07-06 17:39:00"
"5887","Yarumal","5","Antioquia","6.963872352","-75.41883314","4","7","1","2","4","0","0","0","37","0.000","0.000","0.571","0.000","0.000","0.143","2.3431276","0.286","0.571","6097","42678","2020-07-06 17:39:00"
"5890","Yolombo","5","Antioquia","6.594592434","-75.01335058","2","4","0","2","1","1","0","1","26","0.038","0.250","0.250","0.250","0.000","0.000","0.0000000","0.500","0.500","5875","","2020-07-06 17:39:00"
"5895","Zaragoza","5","Antioquia","7.488583075","-74.86707471","3","3","0","0","0","3","0","3","8","0.375","1.000","0.000","1.000","0.000","0.000","0.0000000","0.000","1.000","8568","","2020-07-06 17:39:00"
"8001","Barranquilla","8","Atlantico","10.97592682","-74.79525905","8936","15369","908","5525","8021","754","111","865","2591","0.334","0.056","0.522","0.049","0.007","0.059","71.2576025","0.359","0.581","83","1403","2020-07-06 17:39:00"
"8078","Baranoa","8","Atlantico","10.79488048","-74.91609981","550","678","21","107","507","37","6","43","218","0.197","0.063","0.748","0.055","0.009","0.031","31.3199105","0.158","0.811","99","3193","2020-07-06 17:39:00"
"8137","Campo de la Cruz","8","Atlantico","10.37924013","-74.88315173","21","28","1","6","20","1","0","1","16","0.063","0.036","0.714","0.036","0.000","0.036","4.2432215","0.214","0.750","842","23567","2020-07-06 17:39:00"
"8141","Candelaria","8","Atlantico","10.46121723","-74.8799126","37","43","1","5","36","1","0","1","2","0.500","0.023","0.837","0.023","0.000","0.023","5.8156441","0.116","0.860","400","17195","2020-07-06 17:39:00"
"8296","Galapa","8","Atlantico","10.919641","-74.8669381","503","792","46","243","483","17","2","19","5","3.800","0.024","0.610","0.021","0.003","0.058","68.6352039","0.307","0.635","85","1457","2020-07-06 17:39:00"
"8372","Juan de Acosta","8","Atlantico","10.83018223","-75.04079914","40","51","1","10","40","0","0","0","6","0.000","0.000","0.784","0.000","0.000","0.020","4.3952180","0.196","0.784","446","22752","2020-07-06 17:39:00"
"8421","Luruaco","8","Atlantico","10.61111642","-75.14224614","25","56","1","30","21","2","2","4","61","0.066","0.071","0.375","0.036","0.036","0.018","3.2988058","0.536","0.446","541","30314","2020-07-06 17:39:00"
"8433","Malambo","8","Atlantico","10.85628724","-74.77424057","754","1450","93","603","689","55","8","63","52","1.212","0.043","0.475","0.038","0.006","0.064","66.6351404","0.416","0.520","96","1501","2020-07-06 17:39:00"
"8436","Manati","8","Atlantico","10.44896238","-74.95703499","30","41","0","11","28","1","1","2","1","2.000","0.049","0.683","0.024","0.024","0.000","0.0000000","0.268","0.732","523","","2020-07-06 17:39:00"
"8520","Palmar de Varela","8","Atlantico","10.73858326","-74.75475789","86","170","4","80","79","7","0","7","36","0.194","0.041","0.465","0.041","0.000","0.024","12.8874283","0.471","0.506","183","7760","2020-07-06 17:39:00"
"8549","Piojo","8","Atlantico","10.74934442","-75.10747012","23","33","1","9","23","0","0","0","1","0.000","0.000","0.697","0.000","0.000","0.030","14.1063620","0.273","0.697","215","7089","2020-07-06 17:39:00"
"8558","Polonuevo","8","Atlantico","10.77772451","-74.85425725","112","154","4","38","106","4","2","6","3","2.000","0.039","0.688","0.026","0.013","0.026","20.4655922","0.247","0.727","127","4886","2020-07-06 17:39:00"
"8560","Ponedera","8","Atlantico","10.64179593","-74.75390044","46","69","1","22","40","3","1","4","11","0.364","0.058","0.580","0.043","0.014","0.014","3.8868159","0.319","0.667","373","25728","2020-07-06 17:39:00"
"8573","Puerto Colombia","8","Atlantico","11.02294005","-74.85196357","399","530","22","109","386","11","0","11","344","0.032","0.021","0.728","0.021","0.000","0.042","41.0072881","0.206","0.753","101","2439","2020-07-06 17:39:00"
"8606","Repelon","8","Atlantico","10.49334167","-75.12548162","36","40","3","1","30","5","0","5","1","5.000","0.125","0.750","0.125","0.000","0.075","10.6753968","0.025","0.900","703","9367","2020-07-06 17:39:00"
"8634","Sabanagrande","8","Atlantico","10.79107595","-74.75850721","210","395","10","175","187","20","2","22","41","0.537","0.056","0.473","0.051","0.005","0.025","28.5030213","0.443","0.532","89","3508","2020-07-06 17:39:00"
"8638","Sabanalarga","8","Atlantico","10.63283523","-74.92109368","260","424","11","153","246","12","1","13","114","0.114","0.031","0.580","0.028","0.002","0.026","10.9946126","0.361","0.613","236","9095","2020-07-06 17:39:00"
"8675","Santa Lucia","8","Atlantico","10.32327321","-74.95897145","32","43","1","10","32","0","0","0","0","","0.000","0.744","0.000","0.000","0.023","5.8465856","0.233","0.744","398","17104","2020-07-06 17:39:00"
"8685","Santo Tomas","8","Atlantico","10.75605629","-74.75411186","134","219","6","79","121","10","3","13","32","0.406","0.059","0.553","0.046","0.014","0.027","18.7500000","0.361","0.612","146","5333","2020-07-06 17:39:00"
"8758","Soledad","8","Atlantico","10.91017447","-74.78483338","4041","7113","377","2695","3651","317","56","373","327","1.141","0.052","0.513","0.045","0.008","0.053","56.6899391","0.379","0.568","93","1764","2020-07-06 17:39:00"
"8770","Suan","8","Atlantico","10.33543138","-74.88168748","27","31","0","4","23","4","0","4","1","4.000","0.129","0.742","0.129","0.000","0.000","0.0000000","0.129","0.871","406","","2020-07-06 17:39:00"
"8832","Tubara","8","Atlantico","10.87364774","-74.97867947","79","107","6","22","72","4","2","6","2","3.000","0.056","0.673","0.037","0.019","0.056","31.8369946","0.206","0.738","176","3141","2020-07-06 17:39:00"
"8849","Usiacuri","8","Atlantico","10.74297819","-74.97698261","59","84","2","23","58","1","0","1","1","1.000","0.012","0.690","0.012","0.000","0.024","15.2160682","0.274","0.702","156","6572","2020-07-06 17:39:00"
"11001","Bogota D.C.","11","Bogota D.C.","4.65017303","-74.107359","21852","37641","859","14930","19688","1977","139","2116","7247","0.292","0.056","0.523","0.053","0.004","0.023","11.0925231","0.397","0.581","206","9015","2020-07-06 17:39:00"
"13001","Cartagena de Indias","13","Bolivar","10.38498552","-75.49643103","4099","9578","361","5118","3821","211","54","265","1588","0.167","0.028","0.399","0.022","0.006","0.038","35.0916076","0.534","0.428","107","2850","2020-07-06 17:39:00"
"13006","Achi","13","Bolivar","8.569110393","-74.55706395","3","3","0","0","0","3","0","3","7","0.429","1.000","0.000","1.000","0.000","0.000","0.0000000","0.000","1.000","8300","","2020-07-06 17:39:00"
"13042","Arenal","13","Bolivar","8.458630438","-73.94111583","1","2","0","1","1","0","0","0","4","0.000","0.000","0.500","0.000","0.000","0.000","0.0000000","0.500","0.500","3888","","2020-07-06 17:39:00"
"13052","Arjona","13","Bolivar","10.25663152","-75.34448845","109","181","7","65","104","4","1","5","10","0.500","0.028","0.575","0.022","0.006","0.039","9.4941001","0.359","0.602","407","10533","2020-07-06 17:39:00"
"13062","Arroyohondo","13","Bolivar","10.24279848","-75.01719268","1","1","0","0","0","1","0","1","1","1.000","1.000","0.000","1.000","0.000","0.000","0.0000000","0.000","1.000","8710","","2020-07-06 17:39:00"
"13074","Barranco de Loba","13","Bolivar","8.947730158","-74.10522428","0","2","2","0","0","0","0","0","6","0.000","0.000","0.000","0.000","0.000","1.000","13.1743627","0.000","0.000","7591","7591","2020-07-06 17:39:00"
"13140","Calamar","13","Bolivar","10.25196336","-74.91362928","33","45","1","11","33","0","0","0","7","0.000","0.000","0.733","0.000","0.000","0.022","4.3295666","0.244","0.733","513","23097","2020-07-06 17:39:00"
"13188","Cicuco","13","Bolivar","9.274745598","-74.64549419","4","4","0","0","3","1","0","1","1","1.000","0.250","0.750","0.250","0.000","0.000","0.0000000","0.000","1.000","3576","","2020-07-06 17:39:00"
"13222","Clemencia","13","Bolivar","10.56754177","-75.32851201","6","12","2","4","5","0","0","0","3","0.000","0.000","0.417","0.000","0.000","0.167","12.9424707","0.333","0.500","1288","7727","2020-07-06 17:39:00"
"13244","El Carmen de Bolivar","13","Bolivar","9.718579864","-75.12121573","40","55","4","11","35","3","1","4","49","0.082","0.073","0.636","0.055","0.018","0.073","5.5100214","0.200","0.727","1320","18149","2020-07-06 17:39:00"
"13430","Magangue","13","Bolivar","9.268563794","-74.77017457","153","170","9","8","122","29","0","29","220","0.132","0.171","0.718","0.171","0.000","0.053","6.4214161","0.047","0.900","824","15573","2020-07-06 17:39:00"
"13433","Mahates","13","Bolivar","10.23325452","-75.19133659","41","60","1","18","38","2","0","2","10","0.200","0.033","0.633","0.033","0.000","0.017","3.4065747","0.300","0.683","489","29355","2020-07-06 17:39:00"
"13442","Maria la Baja","13","Bolivar","9.982645517","-75.30075935","13","18","1","4","12","0","1","1","1","1.000","0.056","0.667","0.000","0.056","0.056","2.0636853","0.222","0.722","2692","48457","2020-07-06 17:39:00"
"13458","Montecristo","13","Bolivar","8.297136275","-74.47170385","1","1","0","0","1","0","0","0","4","0.000","0.000","1.000","0.000","0.000","0.000","0.0000000","0.000","1.000","17604","","2020-07-06 17:39:00"
"13468","Mompos","13","Bolivar","9.243883757","-74.42786642","5","6","0","1","1","3","0","3","36","0.083","0.500","0.167","0.500","0.000","0.000","0.0000000","0.167","0.833","7735","","2020-07-06 17:39:00"
"13549","Pinillos","13","Bolivar","8.915452234","-74.46240354","2","2","0","0","1","0","0","0","4","0.000","0.000","0.500","0.000","0.000","0.000","0.0000000","0.000","1.000","12353","","2020-07-06 17:39:00"
"13620","San Cristobal","13","Bolivar","10.39285577","-75.06553417","11","12","0","1","11","0","0","0","1","0.000","0.000","0.917","0.000","0.000","0.000","0.0000000","0.083","0.917","714","","2020-07-06 17:39:00"
"13647","San Estanislao","13","Bolivar","10.3984757","-75.15325792","1","1","0","0","1","0","0","0","1","0.000","0.000","1.000","0.000","0.000","0.000","0.0000000","0.000","1.000","19128","","2020-07-06 17:39:00"
"13654","San Jacinto","13","Bolivar","9.830219073","-75.1210888","2","3","0","1","1","0","1","1","7","0.143","0.333","0.333","0.000","0.333","0.000","0.0000000","0.333","0.667","8184","","2020-07-06 17:39:00"
"13657","San Juan Nepomuceno","13","Bolivar","9.953454388","-75.08135293","13","22","1","8","13","0","0","0","8","0.000","0.000","0.591","0.000","0.000","0.045","2.5954476","0.364","0.591","1751","38529","2020-07-06 17:39:00"
"13670","San Pablo","13","Bolivar","7.476720672","-73.92416855","6","7","0","1","5","1","0","1","6","0.167","0.143","0.714","0.143","0.000","0.000","0.0000000","0.143","0.857","4106","","2020-07-06 17:39:00"
"13673","Santa Catalina","13","Bolivar","10.60505605","-75.28776411","6","12","0","6","5","1","0","1","5","0.200","0.083","0.417","0.083","0.000","0.000","0.0000000","0.500","0.500","1246","","2020-07-06 17:39:00"
"13683","Santa Rosa","13","Bolivar","10.44439608","-75.36983166","20","75","7","48","16","2","1","3","16","0.188","0.040","0.213","0.027","0.013","0.093","31.2374492","0.640","0.267","299","3201","2020-07-06 17:39:00"
"13688","Santa Rosa del Sur","13","Bolivar","7.962854831","-74.05284001","1","4","0","3","0","1","0","1","11","0.091","0.250","0.000","0.250","0.000","0.000","0.0000000","0.750","0.250","8642","","2020-07-06 17:39:00"
"13760","Soplaviento","13","Bolivar","10.38845743","-75.13642551","10","10","0","0","10","0","0","0","3","0.000","0.000","1.000","0.000","0.000","0.000","0.0000000","0.000","1.000","1084","","2020-07-06 17:39:00"
"13810","Tiquisio","13","Bolivar","8.507047679","-74.33825319","13","14","0","1","10","2","0","2","4","0.500","0.143","0.714","0.143","0.000","0.000","0.0000000","0.071","0.929","1360","","2020-07-06 17:39:00"
"13836","Turbaco","13","Bolivar","10.33276916","-75.42440917","153","302","8","141","148","3","1","4","70","0.057","0.013","0.490","0.010","0.003","0.026","7.0521862","0.467","0.507","376","14180","2020-07-06 17:39:00"
"13838","Turbana","13","Bolivar","10.27440205","-75.44250247","28","55","3","24","26","2","0","2","1","2.000","0.036","0.473","0.036","0.000","0.055","17.2294969","0.436","0.509","317","5804","2020-07-06 17:39:00"
"13873","Villanueva","13","Bolivar","10.44449833","-75.27475439","28","64","4","32","26","1","1","2","1","2.000","0.031","0.406","0.016","0.016","0.063","15.8535135","0.500","0.438","394","6308","2020-07-06 17:39:00"
"13894","Zambrano","13","Bolivar","9.7469139","-74.8138396","2","2","0","0","2","0","0","0","5","0.000","0.000","1.000","0.000","0.000","0.000","0.0000000","0.000","1.000","6161","","2020-07-06 17:39:00"
"15001","Tunja","15","Boyaca","5.539953238","-73.35548873","56","132","4","72","47","8","0","8","299","0.027","0.061","0.356","0.061","0.000","0.030","2.2313584","0.545","0.424","1358","44816","2020-07-06 17:39:00"
"15047","Aquitania","15","Boyaca","5.518603543","-72.88398481","0","2","0","2","0","0","0","0","3","0.000","0.000","0.000","0.000","0.000","0.000","0.0000000","1.000","0.000","7773","","2020-07-06 17:39:00"
"15109","Buenavista","15","Boyaca","5.512431151","-73.94230522","0","1","0","1","0","0","0","0","0","","0.000","0.000","0.000","0.000","0.000","0.0000000","1.000","0.000","4396","","2020-07-06 17:39:00"
"15131","Caldas","15","Boyaca","5.554575079","-73.865541","0","1","0","1","0","0","0","0","0","","0.000","0.000","0.000","0.000","0.000","0.0000000","1.000","0.000","3126","","2020-07-06 17:39:00"
"15176","Chiquinquira","15","Boyaca","5.61412789","-73.81838763","12","31","1","18","12","0","0","0","47","0.000","0.000","0.387","0.000","0.000","0.032","1.7260723","0.581","0.387","1869","57935","2020-07-06 17:39:00"
"15204","Combita","15","Boyaca","5.634545314","-73.32395642","0","8","0","8","0","0","0","0","0","","0.000","0.000","0.000","0.000","0.000","0.0000000","1.000","0.000","1660","","2020-07-06 17:39:00"
"15212","Coper","15","Boyaca","5.474983018","-74.04546072","0","1","0","1","0","0","0","0","0","","0.000","0.000","0.000","0.000","0.000","0.0000000","1.000","0.000","3571","","2020-07-06 17:39:00"
"15215","Corrales","15","Boyaca","5.828102208","-72.84479484","0","1","0","1","0","0","0","0","0","","0.000","0.000","0.000","0.000","0.000","0.0000000","1.000","0.000","2545","","2020-07-06 17:39:00"
"15218","Covarachia","15","Boyaca","6.50017746","-72.73897793","0","1","1","0","0","0","0","0","0","","0.000","0.000","0.000","0.000","1.000","37.0096225","0.000","0.000","2702","2702","2020-07-06 17:39:00"
"15223","Cubara","15","Boyaca","7.000092875","-72.11068776","1","3","0","2","0","0","0","0","3","0.000","0.000","0.000","0.000","0.000","0.000","0.0000000","0.667","0.333","3583","","2020-07-06 17:39:00"
"15224","Cucaita","15","Boyaca","5.544451559","-73.45433765","0","2","1","1","0","0","0","0","0","","0.000","0.000","0.000","0.000","0.500","26.4061262","0.500","0.000","1894","3787","2020-07-06 17:39:00"
"15238","Duitama","15","Boyaca","5.82298568","-73.03060967","38","66","0","28","29","8","0","8","110","0.073","0.121","0.439","0.121","0.000","0.000","0.0000000","0.424","0.576","1919","","2020-07-06 17:39:00"
"15272","Firavitoba","15","Boyaca","5.66892216","-72.99336145","0","3","0","3","0","0","0","0","0","","0.000","0.000","0.000","0.000","0.000","0.0000000","1.000","0.000","2267","","2020-07-06 17:39:00"
"15296","Gameza","15","Boyaca","5.802337805","-72.80552935","1","1","0","0","0","0","1","1","0","","1.000","0.000","0.000","1.000","0.000","0.0000000","0.000","1.000","4851","","2020-07-06 17:39:00"
"15299","Garagoa","15","Boyaca","5.083243463","-73.36442756","0","4","1","3","0","0","0","0","15","0.000","0.000","0.000","0.000","0.000","0.250","5.4579194","0.750","0.000","4581","18322","2020-07-06 17:39:00"
"15322","Guateque","15","Boyaca","5.007320895","-73.47120697","2","14","1","11","2","0","0","0","15","0.000","0.000","0.143","0.000","0.000","0.071","9.1709464","0.786","0.143","779","10904","2020-07-06 17:39:00"
"15325","Guayata","15","Boyaca","4.967122531","-73.4896964","1","2","0","1","0","1","0","1","0","","0.500","0.000","0.500","0.000","0.000","0.0000000","0.500","0.500","1696","","2020-07-06 17:39:00"
"15407","Villa de Leyva","15","Boyaca","5.632661849","-73.5246846","0","5","0","5","0","0","0","0","3","0.000","0.000","0.000","0.000","0.000","0.000","0.0000000","1.000","0.000","3395","","2020-07-06 17:39:00"
"15455","Miraflores","15","Boyaca","5.196515115","-73.14563048","0","1","0","1","0","0","0","0","6","0.000","0.000","0.000","0.000","0.000","0.000","0.0000000","1.000","0.000","9015","","2020-07-06 17:39:00"
"15469","Moniquira","15","Boyaca","5.876334811","-73.57337039","4","9","0","5","4","0","0","0","19","0.000","0.000","0.444","0.000","0.000","0.000","0.0000000","0.556","0.444","2560","","2020-07-06 17:39:00"
"15480","Muzo","15","Boyaca","5.532462867","-74.10275078","0","1","0","1","0","0","0","0","4","0.000","0.000","0.000","0.000","0.000","0.000","0.0000000","1.000","0.000","8394","","2020-07-06 17:39:00"
"15491","Nobsa","15","Boyaca","5.771042624","-72.93985317","1","1","0","0","1","0","0","0","0","","0.000","1.000","0.000","0.000","0.000","0.0000000","0.000","1.000","16446","","2020-07-06 17:39:00"
"15494","Nuevo Colon","15","Boyaca","5.355145864","-73.45713618","0","1","0","1","0","0","0","0","0","","0.000","0.000","0.000","0.000","0.000","0.0000000","1.000","0.000","5217","","2020-07-06 17:39:00"
"15500","Oicata","15","Boyaca","5.595234239","-73.30840398","0","1","0","1","0","0","0","0","22","0.000","0.000","0.000","0.000","0.000","0.000","0.0000000","1.000","0.000","2890","","2020-07-06 17:39:00"
"15516","Paipa","15","Boyaca","5.77994187","-73.11791688","2","6","1","3","0","1","0","1","4","0.250","0.167","0.000","0.167","0.000","0.167","2.8835895","0.500","0.333","5780","34679","2020-07-06 17:39:00"
"15531","Pauna","15","Boyaca","5.656322691","-73.97844872","0","1","0","1","0","0","0","0","2","0.000","0.000","0.000","0.000","0.000","0.000","0.0000000","1.000","0.000","7212","","2020-07-06 17:39:00"
"15533","Paya","15","Boyaca","5.625698707","-72.42377541","0","2","0","2","0","0","0","0","0","","0.000","0.000","0.000","0.000","0.000","0.0000000","1.000","0.000","1318","","2020-07-06 17:39:00"
"15572","Puerto Boyaca","15","Boyaca","5.977934952","-74.58799919","4","4","0","0","4","0","0","0","17","0.000","0.000","1.000","0.000","0.000","0.000","0.0000000","0.000","1.000","12068","","2020-07-06 17:39:00"
"15599","Ramiriqui","15","Boyaca","5.400221644","-73.33486896","2","2","0","0","2","0","0","0","4","0.000","0.000","1.000","0.000","0.000","0.000","0.0000000","0.000","1.000","5038","","2020-07-06 17:39:00"
"15646","Samaca","15","Boyaca","5.492314591","-73.48564359","2","4","1","1","2","0","0","0","3","0.000","0.000","0.500","0.000","0.000","0.250","5.3140610","0.250","0.500","4705","18818","2020-07-06 17:39:00"
"15676","San Miguel de Sema","15","Boyaca","5.518086388","-73.72200484","0","1","0","1","0","0","0","0","0","","0.000","0.000","0.000","0.000","0.000","0.0000000","1.000","0.000","3011","","2020-07-06 17:39:00"
"15686","Santana","15","Boyaca","6.057413107","-73.48122632","0","4","0","4","0","0","0","0","0","","0.000","0.000","0.000","0.000","0.000","0.0000000","1.000","0.000","1928","","2020-07-06 17:39:00"
"15693","Santa Rosa de Viterbo","15","Boyaca","5.874555597","-72.98246092","1","2","0","1","1","0","0","0","0","","0.000","0.500","0.000","0.000","0.000","0.0000000","0.500","0.500","6663","","2020-07-06 17:39:00"
"15696","Santa Sofia","15","Boyaca","5.713269421","-73.60270717","0","1","0","1","0","0","0","0","0","","0.000","0.000","0.000","0.000","0.000","0.0000000","1.000","0.000","3212","","2020-07-06 17:39:00"
"15757","Socha","15","Boyaca","5.996713021","-72.69196586","0","4","0","4","0","0","0","0","2","0.000","0.000","0.000","0.000","0.000","0.000","0.0000000","1.000","0.000","2022","","2020-07-06 17:39:00"
"15759","Sogamoso","15","Boyaca","5.72568939","-72.92304769","39","55","1","15","31","5","2","7","171","0.041","0.127","0.564","0.091","0.036","0.018","0.7627474","0.273","0.709","2384","131105","2020-07-06 17:39:00"
"15774","Susacon","15","Boyaca","6.230332074","-72.69028925","4","4","0","0","3","1","0","1","0","","0.250","0.750","0.250","0.000","0.000","0.0000000","0.000","1.000","676","","2020-07-06 17:39:00"
"15776","Sutamarchan","15","Boyaca","5.619781419","-73.6205861","3","17","0","14","3","0","0","0","0","","0.000","0.176","0.000","0.000","0.000","0.0000000","0.824","0.176","366","","2020-07-06 17:39:00"
"15790","Tasco","15","Boyaca","5.909821031","-72.78101116","0","1","1","0","0","0","0","0","0","","0.000","0.000","0.000","0.000","1.000","17.2651934","0.000","0.000","5792","5792","2020-07-06 17:39:00"
"15798","Tenza","15","Boyaca","5.077074351","-73.42058911","0","2","0","2","0","0","0","0","0","","0.000","0.000","0.000","0.000","0.000","0.0000000","1.000","0.000","1911","","2020-07-06 17:39:00"
"15808","Tinjaca","15","Boyaca","5.57971331","-73.64684734","0","1","0","1","0","0","0","0","0","","0.000","0.000","0.000","0.000","0.000","0.0000000","1.000","0.000","3351","","2020-07-06 17:39:00"
"15810","Tipacoque","15","Boyaca","6.418585803","-72.69317268","0","1","0","1","0","0","0","0","0","","0.000","0.000","0.000","0.000","0.000","0.0000000","1.000","0.000","3290","","2020-07-06 17:39:00"
"15814","Toca","15","Boyaca","5.56646915","-73.18479034","3","5","0","2","2","1","0","1","4","0.250","0.200","0.400","0.200","0.000","0.000","0.0000000","0.400","0.600","1779","","2020-07-06 17:39:00"
"15816","Togui","15","Boyaca","5.937438225","-73.51365506","0","14","0","14","0","0","0","0","0","","0.000","0.000","0.000","0.000","0.000","0.0000000","1.000","0.000","310","","2020-07-06 17:39:00"
"15835","Turmeque","15","Boyaca","5.323252768","-73.49184702","0","3","0","3","0","0","0","0","2","0.000","0.000","0.000","0.000","0.000","0.000","0.0000000","1.000","0.000","2052","","2020-07-06 17:39:00"
"15861","Ventaquemada","15","Boyaca","5.368733979","-73.52237325","1","7","0","6","1","0","0","0","0","","0.000","0.143","0.000","0.000","0.000","0.0000000","0.857","0.143","2299","","2020-07-06 17:39:00"
"15879","Viracacha","15","Boyaca","5.436788535","-73.29689965","0","1","0","1","0","0","0","0","0","","0.000","0.000","0.000","0.000","0.000","0.0000000","1.000","0.000","2809","","2020-07-06 17:39:00"
"17001","Manizales","17","Caldas","5.057688197","-75.49104898","47","141","2","92","40","5","1","6","796","0.008","0.043","0.284","0.035","0.007","0.014","0.4482697","0.652","0.333","3164","223080","2020-07-06 17:39:00"
"17013","Aguadas","17","Caldas","5.610244456","-75.45486967","0","1","0","1","0","0","0","0","8","0.000","0.000","0.000","0.000","0.000","0.000","0.0000000","1.000","0.000","23048","","2020-07-06 17:39:00"
"17042","Anserma","17","Caldas","5.236474391","-75.78434266","1","2","0","1","1","0","0","0","10","0.000","0.000","0.500","0.000","0.000","0.000","0.0000000","0.500","0.500","18346","","2020-07-06 17:39:00"
"17050","Aranzazu","17","Caldas","5.271141768","-75.49125461","1","1","0","0","1","0","0","0","6","0.000","0.000","1.000","0.000","0.000","0.000","0.0000000","0.000","1.000","10556","","2020-07-06 17:39:00"
"17174","Chinchina","17","Caldas","4.985812862","-75.60748073","2","10","0","8","1","1","0","1","38","0.026","0.100","0.100","0.100","0.000","0.000","0.0000000","0.800","0.200","5227","","2020-07-06 17:39:00"
"17380","La Dorada","17","Caldas","5.444406098","-74.65820562","10","81","2","69","8","2","0","2","61","0.033","0.025","0.099","0.025","0.000","0.025","2.7024836","0.852","0.123","914","37003","2020-07-06 17:39:00"
"17433","Manzanares","17","Caldas","5.255720253","-75.15282885","0","2","1","1","0","0","0","0","5","0.000","0.000","0.000","0.000","0.000","0.500","5.6198719","0.500","0.000","8897","17794","2020-07-06 17:39:00"
"17442","Marmato","17","Caldas","5.47400482","-75.60024162","0","1","0","1","0","0","0","0","5","0.000","0.000","0.000","0.000","0.000","0.000","0.0000000","1.000","0.000","9167","","2020-07-06 17:39:00"
"17444","Marquetalia","17","Caldas","5.297524561","-75.05309703","0","7","0","7","0","0","0","0","5","0.000","0.000","0.000","0.000","0.000","0.000","0.0000000","1.000","0.000","1927","","2020-07-06 17:39:00"
"17486","Neira","17","Caldas","5.166705703","-75.51984208","0","1","0","1","0","0","0","0","7","0.000","0.000","0.000","0.000","0.000","0.000","0.0000000","1.000","0.000","21114","","2020-07-06 17:39:00"
"17495","Norcasia","17","Caldas","5.574795393","-74.88954408","0","1","1","0","0","0","0","0","4","0.000","0.000","0.000","0.000","0.000","1.000","16.3185379","0.000","0.000","6128","6128","2020-07-06 17:39:00"
"17614","Riosucio","17","Caldas","5.423680913","-75.70206971","2","4","0","2","2","0","0","0","14","0.000","0.000","0.500","0.000","0.000","0.000","0.0000000","0.500","0.500","12989","","2020-07-06 17:39:00"
"17616","Risaralda","17","Caldas","5.164508957","-75.76721954","0","1","0","1","0","0","0","0","6","0.000","0.000","0.000","0.000","0.000","0.000","0.0000000","1.000","0.000","10568","","2020-07-06 17:39:00"
"17662","Samana","17","Caldas","5.413086301","-74.99225776","0","2","0","2","0","0","0","0","9","0.000","0.000","0.000","0.000","0.000","0.000","0.0000000","1.000","0.000","9984","","2020-07-06 17:39:00"
"17873","Villamaria","17","Caldas","5.043806686","-75.5137606","2","15","1","12","1","1","0","1","7","0.143","0.067","0.067","0.067","0.000","0.067","1.4830414","0.800","0.133","4495","67429","2020-07-06 17:39:00"
"17877","Viterbo","17","Caldas","5.062664236","-75.87060986","1","3","0","2","1","0","0","0","3","0.000","0.000","0.333","0.000","0.000","0.000","0.0000000","0.667","0.333","4284","","2020-07-06 17:39:00"
"18001","Florencia","18","Caqueta","1.61792293","-75.60856043","32","55","1","22","26","6","0","6","257","0.023","0.109","0.473","0.109","0.000","0.018","0.5779979","0.400","0.582","3146","173011","2020-07-06 17:39:00"
"18247","El Doncello","18","Caqueta","1.679872476","-75.28356287","1","1","0","0","0","1","0","1","8","0.125","1.000","0.000","1.000","0.000","0.000","0.0000000","0.000","1.000","19284","","2020-07-06 17:39:00"
"18753","San Vicente del Caguan","18","Caqueta","2.119786131","-74.76734058","1","1","0","0","0","0","0","0","8","0.000","0.000","0.000","0.000","0.000","0.000","0.0000000","0.000","1.000","52593","","2020-07-06 17:39:00"
"18785","Solita","18","Caqueta","0.876668003","-75.61973409","3","3","0","0","3","0","0","0","4","0.000","0.000","1.000","0.000","0.000","0.000","0.0000000","0.000","1.000","2115","","2020-07-06 17:39:00"
"19001","Popayan","19","Cauca","2.482503391","-76.57406468","154","220","3","63","136","13","5","18","660","0.027","0.082","0.618","0.059","0.023","0.014","0.9217241","0.286","0.700","1479","108492","2020-07-06 17:39:00"
"19050","Argelia","19","Cauca","2.256754909","-77.24945028","1","1","0","0","0","1","0","1","3","0.333","1.000","0.000","1.000","0.000","0.000","0.0000000","0.000","1.000","26588","","2020-07-06 17:39:00"
"19075","Balboa","19","Cauca","2.040478768","-77.21589814","8","8","0","0","7","1","0","1","3","0.333","0.125","0.875","0.125","0.000","0.000","0.0000000","0.000","1.000","2680","","2020-07-06 17:39:00"
"19110","Buenos Aires","19","Cauca","3.01542683","-76.64228059","0","2","1","1","0","0","0","0","3","0.000","0.000","0.000","0.000","0.000","0.500","3.1202222","0.500","0.000","16025","32049","2020-07-06 17:39:00"
"19130","Cajibio","19","Cauca","2.623338254","-76.57088427","0","1","1","0","0","0","0","0","4","0.000","0.000","0.000","0.000","0.000","1.000","2.3346485","0.000","0.000","42833","42833","2020-07-06 17:39:00"
"19137","Caldono","19","Cauca","2.798130826","-76.48444786","2","2","0","0","1","1","0","1","24","0.042","0.500","0.500","0.500","0.000","0.000","0.0000000","0.000","1.000","20885","","2020-07-06 17:39:00"
"19142","Caloto","19","Cauca","3.034070778","-76.40848704","3","5","0","2","2","1","0","1","4","0.250","0.200","0.400","0.200","0.000","0.000","0.0000000","0.400","0.600","6043","","2020-07-06 17:39:00"
"19212","Corinto","19","Cauca","3.173815457","-76.26131419","1","2","1","0","0","0","1","1","3","0.333","0.500","0.000","0.000","0.500","0.500","3.9308176","0.000","0.500","12720","25440","2020-07-06 17:39:00"
"19256","El Tambo","19","Cauca","2.45137136","-76.81077225","1","6","0","5","1","0","0","0","5","0.000","0.000","0.167","0.000","0.000","0.000","0.0000000","0.833","0.167","8962","","2020-07-06 17:39:00"
"19300","Guachene","19","Cauca","3.134153295","-76.39218874","1","3","0","2","1","0","0","0","0","","0.000","0.333","0.000","0.000","0.000","0.0000000","0.667","0.333","6673","","2020-07-06 17:39:00"
"19318","Guapi","19","Cauca","2.572918366","-77.88803347","41","44","3","0","35","3","3","6","9","0.667","0.136","0.795","0.068","0.068","0.068","10.8318891","0.000","0.932","629","9232","2020-07-06 17:39:00"
"19418","Lopez de Micay","19","Cauca","2.846715932","-77.24769154","0","1","0","1","0","0","0","0","4","0.000","0.000","0.000","0.000","0.000","0.000","0.0000000","1.000","0.000","18932","","2020-07-06 17:39:00"
"19450","Mercaderes","19","Cauca","1.775772495","-77.16584432","1","1","0","0","0","1","0","1","2","0.500","1.000","0.000","1.000","0.000","0.000","0.0000000","0.000","1.000","23097","","2020-07-06 17:39:00"
"19455","Miranda","19","Cauca","3.253095405","-76.22886987","18","28","2","8","13","4","1","5","3","1.667","0.179","0.464","0.143","0.036","0.071","6.2340253","0.286","0.643","1146","16041","2020-07-06 17:39:00"
"19473","Morales","19","Cauca","2.754558567","-76.62922056","1","1","0","0","1","0","0","0","4","0.000","0.000","1.000","0.000","0.000","0.000","0.0000000","0.000","1.000","40084","","2020-07-06 17:39:00"
"19513","Padilla","19","Cauca","3.220853836","-76.31329089","3","3","0","0","1","2","0","2","1","2.000","0.667","0.333","0.667","0.000","0.000","0.0000000","0.000","1.000","3331","","2020-07-06 17:39:00"
"19532","Patia","19","Cauca","2.069200142","-77.05327491","0","1","0","1","0","0","0","0","7","0.000","0.000","0.000","0.000","0.000","0.000","0.0000000","1.000","0.000","37494","","2020-07-06 17:39:00"
"19548","Piendamo","19","Cauca","2.641987578","-76.52850592","5","24","1","18","3","1","1","2","5","0.400","0.083","0.125","0.042","0.042","0.042","2.3902287","0.750","0.208","1743","41837","2020-07-06 17:39:00"
"19573","Puerto Tejada","19","Cauca","3.233294127","-76.4173078","36","91","3","52","25","8","3","11","9","1.222","0.121","0.275","0.088","0.033","0.033","7.1782356","0.571","0.396","459","13931","2020-07-06 17:39:00"
"19622","Rosas","19","Cauca","2.260979699","-76.74035187","1","1","0","0","1","0","0","0","2","0.000","0.000","1.000","0.000","0.000","0.000","0.0000000","0.000","1.000","11539","","2020-07-06 17:39:00"
"19698","Santander de Quilichao","19","Cauca","3.016053901","-76.48537029","23","40","1","16","18","3","2","5","32","0.156","0.125","0.450","0.075","0.050","0.025","0.8849479","0.400","0.575","2825","113001","2020-07-06 17:39:00"
"19743","Silvia","19","Cauca","2.611815645","-76.37957042","5","7","1","1","5","0","0","0","10","0.000","0.000","0.714","0.000","0.000","0.143","2.6272233","0.143","0.714","5438","38063","2020-07-06 17:39:00"
"19807","Timbio","19","Cauca","2.349976425","-76.68423879","4","6","0","2","4","0","0","0","5","0.000","0.000","0.667","0.000","0.000","0.000","0.0000000","0.333","0.667","6048","","2020-07-06 17:39:00"
"19809","Timbiqui","19","Cauca","2.777413702","-77.66756524","7","18","2","9","0","7","0","7","4","1.750","0.389","0.000","0.389","0.000","0.111","7.5168189","0.500","0.389","1478","13304","2020-07-06 17:39:00"
"19824","Totoro","19","Cauca","2.510229193","-76.40244251","0","1","0","1","0","0","0","0","4","0.000","0.000","0.000","0.000","0.000","0.000","0.0000000","1.000","0.000","25612","","2020-07-06 17:39:00"
"19845","Villa rica","19","Cauca","3.177577926","-76.45787266","24","27","1","2","21","2","1","3","1","3.000","0.111","0.778","0.074","0.037","0.037","4.6886722","0.074","0.889","790","21328","2020-07-06 17:39:00"
"20001","Valledupar","20","Cesar","10.46048122","-73.25938931","366","812","18","428","320","42","3","45","1264","0.036","0.055","0.394","0.052","0.004","0.022","3.3773895","0.527","0.451","656","29609","2020-07-06 17:39:00"
"20011","Aguachica","20","Cesar","8.310336958","-73.59902859","28","52","1","23","23","5","0","5","185","0.027","0.096","0.442","0.096","0.000","0.019","0.8428008","0.442","0.538","2282","118652","2020-07-06 17:39:00"
"20013","Agustin Codazzi","20","Cesar","10.04045799","-73.23839617","44","102","1","57","38","4","2","6","59","0.102","0.059","0.373","0.039","0.020","0.010","1.5461686","0.559","0.431","634","64676","2020-07-06 17:39:00"
"20045","Becerril","20","Cesar","9.704606116","-73.27923167","4","7","0","3","4","0","0","0","7","0.000","0.000","0.571","0.000","0.000","0.000","0.0000000","0.429","0.571","3330","","2020-07-06 17:39:00"
"20060","Bosconia","20","Cesar","9.9750947","-73.88876766","66","82","0","16","65","1","0","1","95","0.011","0.012","0.793","0.012","0.000","0.000","0.0000000","0.195","0.805","528","","2020-07-06 17:39:00"
"20175","Chimichagua","20","Cesar","9.25827144","-73.81332845","12","13","0","1","11","1","0","1","9","0.111","0.077","0.846","0.077","0.000","0.000","0.0000000","0.077","0.923","2787","","2020-07-06 17:39:00"
"20178","Chiriguana","20","Cesar","9.361189611","-73.60014444","5","11","1","5","3","2","0","2","37","0.054","0.182","0.273","0.182","0.000","0.091","3.3747300","0.455","0.455","2694","29632","2020-07-06 17:39:00"
"20228","Curumani","20","Cesar","9.201810592","-73.54098652","10","17","1","6","7","3","0","3","14","0.214","0.176","0.412","0.176","0.000","0.059","2.5209872","0.353","0.588","2333","39667","2020-07-06 17:39:00"
"20238","El Copey","20","Cesar","10.14952543","-73.96271744","7","28","1","20","7","0","0","0","14","0.000","0.000","0.250","0.000","0.000","0.036","3.1595577","0.714","0.250","1130","31650","2020-07-06 17:39:00"
"20250","El Paso","20","Cesar","9.668470391","-73.74178848","2","4","0","2","0","2","0","2","6","0.333","0.500","0.000","0.500","0.000","0.000","0.0000000","0.500","0.500","10215","","2020-07-06 17:39:00"
"20295","Gamarra","20","Cesar","8.320449051","-73.74376","7","8","1","0","7","0","0","0","6","0.000","0.000","0.875","0.000","0.000","0.125","6.3035804","0.000","0.875","1983","15864","2020-07-06 17:39:00"
"20310","Gonzalez","20","Cesar","8.389604097","-73.38003986","3","31","0","28","2","0","0","0","1","0.000","0.000","0.065","0.000","0.000","0.000","0.0000000","0.903","0.097","147","","2020-07-06 17:39:00"
"20383","La Gloria","20","Cesar","8.619297878","-73.80321012","6","14","1","7","6","0","0","0","3","0.000","0.000","0.429","0.000","0.000","0.071","5.4206418","0.500","0.429","1318","18448","2020-07-06 17:39:00"
"20400","La Jagua de Ibirico","20","Cesar","9.5638873","-73.33422791","11","15","2","2","9","2","0","2","32","0.063","0.133","0.600","0.133","0.000","0.133","3.9257253","0.133","0.733","3396","25473","2020-07-06 17:39:00"
"20443","Manaure Balcon del Cesar","20","Cesar","10.39089864","-73.02832046","2","2","0","0","0","2","0","2","4","0.500","1.000","0.000","1.000","0.000","0.000","0.0000000","0.000","1.000","5418","","2020-07-06 17:39:00"
"20517","Pailitas","20","Cesar","8.956033206","-73.62581668","2","2","0","0","1","1","0","1","22","0.045","0.500","0.500","0.500","0.000","0.000","0.0000000","0.000","1.000","9853","","2020-07-06 17:39:00"
"20550","Pelaya","20","Cesar","8.688650964","-73.66635487","12","12","0","0","10","2","0","2","5","0.400","0.167","0.833","0.167","0.000","0.000","0.0000000","0.000","1.000","1858","","2020-07-06 17:39:00"
"20570","Pueblo Bello","20","Cesar","10.4150616","-73.58901062","2","4","0","2","1","1","0","1","3","0.333","0.250","0.250","0.250","0.000","0.000","0.0000000","0.500","0.500","7359","","2020-07-06 17:39:00"
"20614","Rio de Oro","20","Cesar","8.292287384","-73.3863952","6","19","2","11","3","3","0","3","4","0.750","0.158","0.158","0.158","0.000","0.105","11.2403754","0.579","0.316","936","8897","2020-07-06 17:39:00"
"20621","La Paz","20","Cesar","10.38748954","-73.17136291","16","33","0","17","14","2","0","2","2","1.000","0.061","0.424","0.061","0.000","0.000","0.0000000","0.515","0.485","897","","2020-07-06 17:39:00"
"20710","San Alberto","20","Cesar","7.76082642","-73.39422534","2","2","0","0","2","0","0","0","7","0.000","0.000","1.000","0.000","0.000","0.000","0.0000000","0.000","1.000","14227","","2020-07-06 17:39:00"
"20750","San Diego","20","Cesar","10.33303286","-73.18121808","6","11","0","5","3","3","0","3","5","0.600","0.273","0.273","0.273","0.000","0.000","0.0000000","0.455","0.545","1861","","2020-07-06 17:39:00"
"20770","San Martin","20","Cesar","7.999895459","-73.51097518","12","21","2","7","10","2","0","2","6","0.333","0.095","0.476","0.095","0.000","0.095","6.9519274","0.333","0.571","1370","14385","2020-07-06 17:39:00"
"20787","Tamalameque","20","Cesar","8.861724986","-73.8121728","18","19","0","1","17","1","0","1","4","0.250","0.053","0.895","0.053","0.000","0.000","0.0000000","0.053","0.947","852","","2020-07-06 17:39:00"
"23001","Monteria","23","Cordoba","8.745132591","-75.87557791","368","541","32","141","283","71","12","83","1144","0.073","0.153","0.523","0.131","0.022","0.059","6.3324455","0.261","0.680","934","15792","2020-07-06 17:39:00"
"23068","Ayapel","23","Cordoba","8.314446629","-75.14629076","4","4","0","0","1","1","1","2","24","0.083","0.500","0.250","0.250","0.250","0.000","0.0000000","0.000","1.000","11812","","2020-07-06 17:39:00"
"23079","Buenavista","23","Cordoba","8.221165554","-75.48089871","1","5","1","3","1","0","0","0","6","0.000","0.000","0.200","0.000","0.000","0.200","4.6617873","0.600","0.200","4290","21451","2020-07-06 17:39:00"
"23090","Canalete","23","Cordoba","8.786944523","-76.24139652","2","9","0","7","2","0","0","0","3","0.000","0.000","0.222","0.000","0.000","0.000","0.0000000","0.778","0.222","1715","","2020-07-06 17:39:00"
"23162","Cerete","23","Cordoba","8.888611812","-75.79621652","81","103","5","17","57","18","5","23","55","0.418","0.223","0.553","0.175","0.049","0.049","4.6121632","0.165","0.786","1053","21682","2020-07-06 17:39:00"
"23168","Chima","23","Cordoba","9.149480457","-75.62689551","0","1","0","1","0","0","0","0","6","0.000","0.000","0.000","0.000","0.000","0.000","0.0000000","1.000","0.000","17905","","2020-07-06 17:39:00"
"23182","Chinu","23","Cordoba","9.105294089","-75.39971962","16","19","1","2","9","5","2","7","8","0.875","0.368","0.474","0.263","0.105","0.053","2.0536411","0.105","0.842","2563","48694","2020-07-06 17:39:00"
"23189","Cienaga de Oro","23","Cordoba","8.875502246","-75.62078664","9","16","1","6","5","2","2","4","6","0.667","0.250","0.313","0.125","0.125","0.063","1.6523190","0.375","0.563","3783","60521","2020-07-06 17:39:00"
"23300","Cotorra","23","Cordoba","9.037088051","-75.79914949","5","7","1","1","4","1","0","1","6","0.167","0.143","0.571","0.143","0.000","0.143","5.1153512","0.143","0.714","2793","19549","2020-07-06 17:39:00"
"23350","La Apartada","23","Cordoba","8.05245366","-75.33901631","1","1","0","0","1","0","0","0","7","0.000","0.000","1.000","0.000","0.000","0.000","0.0000000","0.000","1.000","15218","","2020-07-06 17:39:00"
"23417","Lorica","23","Cordoba","9.240855143","-75.8159954","146","215","22","47","104","35","6","41","133","0.308","0.191","0.484","0.163","0.028","0.102","19.0540529","0.219","0.679","537","5248","2020-07-06 17:39:00"
"23419","Los Cordobas","23","Cordoba","8.892168997","-76.35519288","3","3","0","0","1","1","0","1","1","1.000","0.333","0.333","0.333","0.000","0.000","0.0000000","0.000","1.000","6438","","2020-07-06 17:39:00"
"23466","Montelibano","23","Cordoba","7.973777244","-75.41681813","6","11","2","3","5","1","0","1","35","0.029","0.091","0.455","0.091","0.000","0.182","2.3286953","0.273","0.545","7808","42943","2020-07-06 17:39:00"
"23500","Monitos","23","Cordoba","9.245280293","-76.12939619","1","1","0","0","1","0","0","0","6","0.000","0.000","1.000","0.000","0.000","0.000","0.0000000","0.000","1.000","30580","","2020-07-06 17:39:00"
"23555","Planeta Rica","23","Cordoba","8.408202562","-75.58324299","8","10","0","2","4","2","2","4","33","0.121","0.400","0.400","0.200","0.200","0.000","0.0000000","0.200","0.800","6478","","2020-07-06 17:39:00"
"23570","Pueblo Nuevo","23","Cordoba","8.504003297","-75.50797138","2","2","0","0","1","1","0","1","3","0.333","0.500","0.500","0.500","0.000","0.000","0.0000000","0.000","1.000","18243","","2020-07-06 17:39:00"
"23574","Puerto Escondido","23","Cordoba","9.005372178","-76.26041108","0","2","0","2","0","0","0","0","3","0.000","0.000","0.000","0.000","0.000","0.000","0.0000000","1.000","0.000","12182","","2020-07-06 17:39:00"
"23580","Puerto Libertador","23","Cordoba","7.888834815","-75.67179975","6","7","1","0","1","3","2","5","6","0.833","0.714","0.143","0.429","0.286","0.143","2.2949992","0.000","0.857","6225","43573","2020-07-06 17:39:00"
"23586","Purisima de la Concepcion","23","Cordoba","9.239299079","-75.72488526","0","2","0","2","0","0","0","0","13","0.000","0.000","0.000","0.000","0.000","0.000","0.0000000","1.000","0.000","8794","","2020-07-06 17:39:00"
"23660","Sahagun","23","Cordoba","8.943125416","-75.4459203","28","73","5","40","17","6","5","11","120","0.092","0.151","0.233","0.082","0.068","0.068","4.5358468","0.548","0.384","1510","22047","2020-07-06 17:39:00"
"23670","San Andres de Sotavento","23","Cordoba","9.145162943","-75.5088939","10","10","0","0","5","1","4","5","9","0.556","0.500","0.500","0.100","0.400","0.000","0.0000000","0.000","1.000","4804","","2020-07-06 17:39:00"
"23672","San Antero","23","Cordoba","9.376217345","-75.76077297","3","3","0","0","2","1","0","1","5","0.200","0.333","0.667","0.333","0.000","0.000","0.0000000","0.000","1.000","11678","","2020-07-06 17:39:00"
"23675","San Bernardo del Viento","23","Cordoba","9.352301989","-75.95474387","2","4","1","1","2","0","0","0","4","0.000","0.000","0.500","0.000","0.000","0.250","2.6972353","0.250","0.500","9269","37075","2020-07-06 17:39:00"
"23678","San Carlos","23","Cordoba","8.799106592","-75.69884549","0","1","1","0","0","0","0","0","13","0.000","0.000","0.000","0.000","0.000","1.000","3.6539024","0.000","0.000","27368","27368","2020-07-06 17:39:00"
"23686","San Pelayo","23","Cordoba","8.958010321","-75.83512552","4","5","0","1","3","1","0","1","3","0.333","0.200","0.600","0.200","0.000","0.000","0.0000000","0.200","0.800","10599","","2020-07-06 17:39:00"
"23807","Tierralta","23","Cordoba","8.170378684","-76.05969659","9","18","2","7","4","4","1","5","14","0.357","0.278","0.222","0.222","0.056","0.111","2.1013480","0.389","0.500","5288","47589","2020-07-06 17:39:00"
"23815","Tuchin","23","Cordoba","9.186965875","-75.55445092","10","15","4","1","7","2","1","3","4","0.750","0.200","0.467","0.133","0.067","0.267","7.2782852","0.067","0.667","3664","13740","2020-07-06 17:39:00"
"23855","Valencia","23","Cordoba","8.255016584","-76.15071869","10","14","1","3","5","4","1","5","6","0.833","0.357","0.357","0.286","0.071","0.071","2.7515615","0.214","0.714","2596","36343","2020-07-06 17:39:00"
"25001","Agua de Dios","25","Cundinamarca","4.375312017","-74.66921778","0","4","0","4","0","0","0","0","6","0.000","0.000","0.000","0.000","0.000","0.000","0.0000000","1.000","0.000","3081","","2020-07-06 17:39:00"
"25019","Alban","25","Cundinamarca","4.878022123","-74.43826109","1","2","0","1","1","0","0","0","0","","0.000","0.500","0.000","0.000","0.000","0.0000000","0.500","0.500","3440","","2020-07-06 17:39:00"
"25035","Anapoima","25","Cundinamarca","4.562956175","-74.52851753","30","82","0","52","28","2","0","2","0","","0.024","0.341","0.024","0.000","0.000","0.0000000","0.634","0.366","196","","2020-07-06 17:39:00"
"25040","Anolaima","25","Cundinamarca","4.761695213","-74.46384203","0","1","0","1","0","0","0","0","4","0.000","0.000","0.000","0.000","0.000","0.000","0.0000000","1.000","0.000","14577","","2020-07-06 17:39:00"
"25086","Beltran","25","Cundinamarca","4.802811459","-74.7418023","2","2","0","0","2","0","0","0","0","","0.000","1.000","0.000","0.000","0.000","0.0000000","0.000","1.000","943","","2020-07-06 17:39:00"
"25099","Bojaca","25","Cundinamarca","4.741758118","-74.34849164","4","4","0","0","4","0","0","0","0","","0.000","1.000","0.000","0.000","0.000","0.0000000","0.000","1.000","2773","","2020-07-06 17:39:00"
"25120","Cabrera","25","Cundinamarca","3.98461914","-74.48418723","0","1","0","1","0","0","0","0","0","","0.000","0.000","0.000","0.000","0.000","0.0000000","1.000","0.000","5062","","2020-07-06 17:39:00"
"25123","Cachipay","25","Cundinamarca","4.730954629","-74.4357071","2","5","0","3","2","0","0","0","0","","0.000","0.400","0.000","0.000","0.000","0.0000000","0.600","0.400","2141","","2020-07-06 17:39:00"
"25126","Cajica","25","Cundinamarca","4.920809059","-74.02345397","45","93","0","48","41","4","0","4","23","0.174","0.043","0.441","0.043","0.000","0.000","0.0000000","0.516","0.484","1000","","2020-07-06 17:39:00"
"25151","Caqueza","25","Cundinamarca","4.40410106","-73.9464742","11","21","1","9","10","1","0","1","26","0.038","0.048","0.476","0.048","0.000","0.048","5.5691691","0.429","0.524","855","17956","2020-07-06 17:39:00"
"25154","Carmen de Carupa","25","Cundinamarca","5.349115758","-73.90157376","1","1","0","0","1","0","0","0","6","0.000","0.000","1.000","0.000","0.000","0.000","0.0000000","0.000","1.000","7940","","2020-07-06 17:39:00"
"25175","Chia","25","Cundinamarca","4.866065424","-74.05034682","69","153","3","81","59","8","1","9","125","0.072","0.059","0.386","0.052","0.007","0.020","2.0057498","0.529","0.451","978","49857","2020-07-06 17:39:00"
"25178","Chipaque","25","Cundinamarca","4.442671017","-74.04487563","4","15","2","9","4","0","0","0","0","","0.000","0.267","0.000","0.000","0.133","19.8846689","0.600","0.267","671","5029","2020-07-06 17:39:00"
"25181","Choachi","25","Cundinamarca","4.527047921","-73.92289448","1","2","0","1","0","1","0","1","0","","0.500","0.000","0.500","0.000","0.000","0.0000000","0.500","0.500","5764","","2020-07-06 17:39:00"
"25183","Choconta","25","Cundinamarca","5.145223894","-73.68352344","2","7","0","5","2","0","0","0","17","0.000","0.000","0.286","0.000","0.000","0.000","0.0000000","0.714","0.286","3183","","2020-07-06 17:39:00"
"25200","Cogua","25","Cundinamarca","5.061841798","-73.97849669","9","13","1","3","8","0","0","0","0","","0.000","0.615","0.000","0.000","0.077","4.0926578","0.231","0.692","1880","24434","2020-07-06 17:39:00"
"25214","Cota","25","Cundinamarca","4.812987769","-74.10272646","34","57","0","23","30","4","0","4","0","","0.070","0.526","0.070","0.000","0.000","0.0000000","0.404","0.596","649","","2020-07-06 17:39:00"
"25224","Cucunuba","25","Cundinamarca","5.249767987","-73.76621533","0","2","1","1","0","0","0","0","0","","0.000","0.000","0.000","0.000","0.500","12.1109362","0.500","0.000","4129","8257","2020-07-06 17:39:00"
"25245","El Colegio","25","Cundinamarca","4.579459662","-74.44255169","3","20","2","15","3","0","0","0","8","0.000","0.000","0.150","0.000","0.000","0.100","7.6405868","0.750","0.150","1309","13088","2020-07-06 17:39:00"
"25258","El Penon","25","Cundinamarca","5.249141171","-74.29128594","0","1","0","1","0","0","0","0","0","","0.000","0.000","0.000","0.000","0.000","0.0000000","1.000","0.000","4789","","2020-07-06 17:39:00"
"25260","El Rosal","25","Cundinamarca","4.852214275","-74.26366739","10","16","1","5","10","0","0","0","0","","0.000","0.625","0.000","0.000","0.063","4.0374677","0.313","0.625","1548","24768","2020-07-06 17:39:00"
"25269","Facatativa","25","Cundinamarca","4.813064178","-74.35022793","79","142","1","62","75","4","0","4","171","0.023","0.028","0.528","0.028","0.000","0.007","0.6411161","0.437","0.556","1098","155978","2020-07-06 17:39:00"
"25279","Fomeque","25","Cundinamarca","4.485474345","-73.89252259","1","13","0","12","1","0","0","0","12","0.000","0.000","0.077","0.000","0.000","0.000","0.0000000","0.923","0.077","985","","2020-07-06 17:39:00"
"25286","Funza","25","Cundinamarca","4.712763015","-74.211525","73","150","0","77","64","8","1","9","10","0.900","0.060","0.427","0.053","0.007","0.000","0.0000000","0.513","0.487","701","","2020-07-06 17:39:00"
"25290","Fusagasuga","25","Cundinamarca","4.338480851","-74.36633393","18","67","3","46","16","1","0","1","92","0.011","0.015","0.239","0.015","0.000","0.045","1.9462447","0.687","0.269","2301","51381","2020-07-06 17:39:00"
"25295","Gachancipa","25","Cundinamarca","4.990918172","-73.87346922","0","9","0","9","0","0","0","0","0","","0.000","0.000","0.000","0.000","0.000","0.0000000","1.000","0.000","2153","","2020-07-06 17:39:00"
"25307","Girardot","25","Cundinamarca","4.313078337","-74.79779459","19","87","1","67","17","2","0","2","264","0.008","0.023","0.195","0.023","0.000","0.011","0.9108132","0.770","0.218","1262","109792","2020-07-06 17:39:00"
"25312","Granada","25","Cundinamarca","4.519763473","-74.35076611","6","8","0","2","6","0","0","0","0","","0.000","0.750","0.000","0.000","0.000","0.0000000","0.250","0.750","991","","2020-07-06 17:39:00"
"25320","Guaduas","25","Cundinamarca","5.071870533","-74.60295627","0","1","0","1","0","0","0","0","10","0.000","0.000","0.000","0.000","0.000","0.000","0.0000000","1.000","0.000","33212","","2020-07-06 17:39:00"
"25322","Guasca","25","Cundinamarca","4.866719147","-73.87714344","2","3","0","1","2","0","0","0","0","","0.000","0.667","0.000","0.000","0.000","0.0000000","0.333","0.667","5645","","2020-07-06 17:39:00"
"25324","Guataqui","25","Cundinamarca","4.517417235","-74.78996878","0","1","0","1","0","0","0","0","0","","0.000","0.000","0.000","0.000","0.000","0.0000000","1.000","0.000","2772","","2020-07-06 17:39:00"
"25326","Guatavita","25","Cundinamarca","4.934139703","-73.83287404","2","3","0","1","2","0","0","0","6","0.000","0.000","0.667","0.000","0.000","0.000","0.0000000","0.333","0.667","2270","","2020-07-06 17:39:00"
"25372","Junin","25","Cundinamarca","4.790379974","-73.66292455","1","5","1","3","1","0","0","0","3","0.000","0.000","0.200","0.000","0.000","0.200","16.4636154","0.600","0.200","1215","6074","2020-07-06 17:39:00"
"25377","La Calera","25","Cundinamarca","4.720344521","-73.96974496","15","48","0","33","13","2","0","2","0","","0.042","0.271","0.042","0.000","0.000","0.0000000","0.688","0.313","686","","2020-07-06 17:39:00"
"25386","La Mesa","25","Cundinamarca","4.631044239","-74.46154474","3","27","1","23","3","0","0","0","31","0.000","0.000","0.111","0.000","0.000","0.037","2.7678596","0.852","0.111","1338","36129","2020-07-06 17:39:00"
"25394","La Palma","25","Cundinamarca","5.358816711","-74.39102017","1","1","0","0","1","0","0","0","7","0.000","0.000","1.000","0.000","0.000","0.000","0.0000000","0.000","1.000","9810","","2020-07-06 17:39:00"
"25402","La Vega","25","Cundinamarca","4.993077034","-74.33113821","2","2","0","0","2","0","0","0","8","0.000","0.000","1.000","0.000","0.000","0.000","0.0000000","0.000","1.000","9321","","2020-07-06 17:39:00"
"25407","Lenguazaque","25","Cundinamarca","5.306143499","-73.71149354","4","14","0","10","1","1","2","3","0","","0.214","0.071","0.071","0.143","0.000","0.0000000","0.714","0.286","771","","2020-07-06 17:39:00"
"25426","Macheta","25","Cundinamarca","5.080198921","-73.608325","1","3","0","2","0","1","0","1","0","","0.333","0.000","0.333","0.000","0.000","0.0000000","0.667","0.333","2093","","2020-07-06 17:39:00"
"25430","Madrid","25","Cundinamarca","4.736129766","-74.26562577","52","112","2","58","42","10","0","10","14","0.714","0.089","0.375","0.089","0.000","0.018","1.5730938","0.518","0.464","1135","63569","2020-07-06 17:39:00"
"25436","Manta","25","Cundinamarca","5.009058389","-73.54050247","0","2","0","2","0","0","0","0","0","","0.000","0.000","0.000","0.000","0.000","0.0000000","1.000","0.000","1947","","2020-07-06 17:39:00"
"25473","Mosquera","25","Cundinamarca","4.711371201","-74.23177508","132","230","8","90","118","12","1","13","8","1.625","0.057","0.513","0.052","0.004","0.035","5.3097932","0.391","0.574","655","18833","2020-07-06 17:39:00"
"25483","Narino","25","Cundinamarca","4.399836799","-74.82473179","1","1","0","0","1","0","0","0","0","","0.000","1.000","0.000","0.000","0.000","0.0000000","0.000","1.000","2464","","2020-07-06 17:39:00"
"25486","Nemocon","25","Cundinamarca","5.067364638","-73.87962974","1","1","0","0","0","1","0","1","10","0.100","1.000","0.000","1.000","0.000","0.000","0.0000000","0.000","1.000","14532","","2020-07-06 17:39:00"
"25488","Nilo","25","Cundinamarca","4.305801421","-74.61996587","2","10","0","8","0","1","1","2","0","","0.200","0.000","0.100","0.100","0.000","0.0000000","0.800","0.200","1203","","2020-07-06 17:39:00"
"25506","Venecia","25","Cundinamarca","4.088960943","-74.47817821","0","2","0","2","0","0","0","0","0","","0.000","0.000","0.000","0.000","0.000","0.0000000","1.000","0.000","2225","","2020-07-06 17:39:00"
"25513","Pacho","25","Cundinamarca","5.136942297","-74.15611662","9","25","1","15","5","4","0","4","33","0.121","0.160","0.200","0.160","0.000","0.040","3.8755184","0.600","0.360","1032","25803","2020-07-06 17:39:00"
"25535","Pasca","25","Cundinamarca","4.309854412","-74.30545993","2","16","0","14","2","0","0","0","0","","0.000","0.125","0.000","0.000","0.000","0.0000000","0.875","0.125","602","","2020-07-06 17:39:00"
"25572","Puerto Salgar","25","Cundinamarca","5.464956044","-74.6528007","0","1","1","0","0","0","0","0","6","0.000","0.000","0.000","0.000","0.000","1.000","5.9984404","0.000","0.000","16671","16671","2020-07-06 17:39:00"
"25594","Quetame","25","Cundinamarca","4.329825602","-73.86311388","1","1","0","0","1","0","0","0","0","","0.000","1.000","0.000","0.000","0.000","0.0000000","0.000","1.000","5315","","2020-07-06 17:39:00"
"25599","Apulo","25","Cundinamarca","4.520347219","-74.59380454","0","2","0","2","0","0","0","0","0","","0.000","0.000","0.000","0.000","0.000","0.0000000","1.000","0.000","4374","","2020-07-06 17:39:00"
"25612","Ricaurte","25","Cundinamarca","4.293949747","-74.78454297","1","2","1","0","1","0","0","0","0","","0.000","0.500","0.000","0.000","0.500","6.9603954","0.000","0.500","7184","14367","2020-07-06 17:39:00"
"25645","San Antonio del Tequendama","25","Cundinamarca","4.616138045","-74.35144269","2","9","1","6","2","0","0","0","2","0.000","0.000","0.222","0.000","0.000","0.111","7.7948398","0.667","0.222","1425","12829","2020-07-06 17:39:00"
"25658","San Francisco","25","Cundinamarca","4.97291694","-74.28967198","1","4","0","3","1","0","0","0","0","","0.000","0.250","0.000","0.000","0.000","0.0000000","0.750","0.250","2961","","2020-07-06 17:39:00"
"25662","San Juan de Rioseco","25","Cundinamarca","4.847575999","-74.62191472","0","3","0","3","0","0","0","0","3","0.000","0.000","0.000","0.000","0.000","0.000","0.0000000","1.000","0.000","2846","","2020-07-06 17:39:00"
"25718","Sasaima","25","Cundinamarca","4.962166987","-74.43262795","5","6","0","1","5","0","0","0","57","0.000","0.000","0.833","0.000","0.000","0.000","0.0000000","0.167","0.833","1920","","2020-07-06 17:39:00"
"25736","Sesquile","25","Cundinamarca","5.044729613","-73.79612783","1","2","0","1","1","0","0","0","7","0.000","0.000","0.500","0.000","0.000","0.000","0.0000000","0.500","0.500","6323","","2020-07-06 17:39:00"
"25740","Sibate","25","Cundinamarca","4.489763593","-74.25899225","21","40","0","19","16","5","0","5","3","1.667","0.125","0.400","0.125","0.000","0.000","0.0000000","0.475","0.525","916","","2020-07-06 17:39:00"
"25743","Silvania","25","Cundinamarca","4.381941157","-74.40552821","8","12","0","4","5","3","0","3","6","0.500","0.250","0.417","0.250","0.000","0.000","0.0000000","0.333","0.667","1957","","2020-07-06 17:39:00"
"25745","Simijaca","25","Cundinamarca","5.505428098","-73.85032035","3","3","0","0","2","1","0","1","0","","0.333","0.667","0.333","0.000","0.000","0.0000000","0.000","1.000","4687","","2020-07-06 17:39:00"
"25754","Soacha","25","Cundinamarca","4.585491658","-74.21452753","636","1248","21","591","527","97","10","107","194","0.552","0.086","0.422","0.078","0.008","0.017","2.7868165","0.474","0.510","604","35883","2020-07-06 17:39:00"
"25758","Sopo","25","Cundinamarca","4.906330809","-73.94577489","21","35","3","11","19","2","0","2","7","0.286","0.057","0.543","0.057","0.000","0.086","10.3451843","0.314","0.600","829","9666","2020-07-06 17:39:00"
"25769","Subachoque","25","Cundinamarca","4.929079289","-74.17270846","3","20","0","17","3","0","0","0","36","0.000","0.000","0.150","0.000","0.000","0.000","0.0000000","0.850","0.150","837","","2020-07-06 17:39:00"
"25772","Suesca","25","Cundinamarca","5.103516839","-73.79828978","0","6","1","5","0","0","0","0","5","0.000","0.000","0.000","0.000","0.000","0.167","5.3358946","0.833","0.000","3124","18741","2020-07-06 17:39:00"
"25785","Tabio","25","Cundinamarca","4.917202192","-74.09618339","18","32","0","14","17","0","0","0","7","0.000","0.000","0.531","0.000","0.000","0.000","0.0000000","0.438","0.563","756","","2020-07-06 17:39:00"
"25793","Tausa","25","Cundinamarca","5.196555039","-73.88647267","1","1","0","0","1","0","0","0","0","","0.000","1.000","0.000","0.000","0.000","0.0000000","0.000","1.000","8654","","2020-07-06 17:39:00"
"25797","Tena","25","Cundinamarca","4.655339153","-74.38953312","1","4","0","3","1","0","0","0","0","","0.000","0.250","0.000","0.000","0.000","0.0000000","0.750","0.250","2633","","2020-07-06 17:39:00"
"25799","Tenjo","25","Cundinamarca","4.871960537","-74.14395621","2","33","2","29","2","0","0","0","7","0.000","0.000","0.061","0.000","0.000","0.061","8.3001328","0.879","0.061","730","12048","2020-07-06 17:39:00"
"25815","Tocaima","25","Cundinamarca","4.459270864","-74.63630492","3","8","0","5","3","0","0","0","14","0.000","0.000","0.375","0.000","0.000","0.000","0.0000000","0.625","0.375","2076","","2020-07-06 17:39:00"
"25817","Tocancipa","25","Cundinamarca","4.964786354","-73.91209121","14","30","0","16","11","0","1","1","0","","0.033","0.367","0.000","0.033","0.000","0.0000000","0.533","0.467","1524","","2020-07-06 17:39:00"
"25839","Ubala","25","Cundinamarca","4.743901408","-73.53397993","1","1","0","0","0","1","0","1","0","","1.000","0.000","1.000","0.000","0.000","0.0000000","0.000","1.000","7789","","2020-07-06 17:39:00"
"25841","Ubaque","25","Cundinamarca","4.483802095","-73.93346087","0","2","0","2","0","0","0","0","0","","0.000","0.000","0.000","0.000","0.000","0.0000000","1.000","0.000","3534","","2020-07-06 17:39:00"
"25843","Villa de de Ubate","25","Cundinamarca","5.307540984","-73.81434634","40","63","1","22","32","7","0","7","39","0.179","0.111","0.508","0.111","0.000","0.016","","0.349","0.635","","","2020-07-06 17:39:00"
"25845","Une","25","Cundinamarca","4.402450393","-74.02518226","1","3","0","2","1","0","0","0","0","","0.000","0.333","0.000","0.000","0.000","0.0000000","0.667","0.333","2457","","2020-07-06 17:39:00"
"25867","Viani","25","Cundinamarca","4.875205217","-74.56132662","0","1","1","0","0","0","0","0","0","","0.000","0.000","0.000","0.000","1.000","21.4270409","0.000","0.000","4667","4667","2020-07-06 17:39:00"
"25873","Villapinzon","25","Cundinamarca","5.216438372","-73.59535467","2","21","2","17","2","0","0","0","0","","0.000","0.095","0.000","0.000","0.095","10.8501058","0.810","0.095","878","9217","2020-07-06 17:39:00"
"25875","Villeta","25","Cundinamarca","5.012790639","-74.46970495","11","22","1","10","11","0","0","0","20","0.000","0.000","0.500","0.000","0.000","0.045","3.4331228","0.455","0.500","1324","29128","2020-07-06 17:39:00"
"25878","Viota","25","Cundinamarca","4.439355814","-74.52316032","2","4","0","2","2","0","0","0","10","0.000","0.000","0.500","0.000","0.000","0.000","0.0000000","0.500","0.500","3470","","2020-07-06 17:39:00"
"25885","Yacopi","25","Cundinamarca","5.459290341","-74.33802435","0","1","0","1","0","0","0","0","4","0.000","0.000","0.000","0.000","0.000","0.000","0.0000000","1.000","0.000","12564","","2020-07-06 17:39:00"
"25898","Zipacon","25","Cundinamarca","4.759924886","-74.37959142","2","5","0","3","2","0","0","0","0","","0.000","0.400","0.000","0.000","0.000","0.0000000","0.600","0.400","1004","","2020-07-06 17:39:00"
"25899","Zipaquira","25","Cundinamarca","5.025471685","-73.99447124","95","160","5","60","81","13","1","14","147","0.095","0.088","0.506","0.081","0.006","0.031","3.4164207","0.375","0.594","915","29270","2020-07-06 17:39:00"
"27001","Quibdo","27","Choco","5.692195187","-76.62596936","970","1643","39","634","822","122","24","146","168","0.869","0.089","0.500","0.074","0.015","0.024","29.8108160","0.386","0.590","80","3354","2020-07-06 17:39:00"
"27006","Acandi","27","Choco","8.511405952","-77.28009788","1","1","0","0","1","0","0","0","11","0.000","0.000","1.000","0.000","0.000","0.000","0.0000000","0.000","1.000","14159","","2020-07-06 17:39:00"
"27025","Alto Baudo","27","Choco","5.516309869","-76.97439919","23","32","2","7","21","1","1","2","9","0.222","0.063","0.656","0.031","0.031","0.063","7.0688863","0.219","0.719","884","14147","2020-07-06 17:39:00"
"27050","Atrato","27","Choco","5.531373511","-76.63503746","17","18","0","1","16","1","0","1","9","0.111","0.056","0.889","0.056","0.000","0.000","0.0000000","0.056","0.944","345","","2020-07-06 17:39:00"
"27073","Bagado","27","Choco","5.41055496","-76.41529299","0","1","0","1","0","0","0","0","7","0.000","0.000","0.000","0.000","0.000","0.000","0.0000000","1.000","0.000","11262","","2020-07-06 17:39:00"
"27075","Bahia Solano","27","Choco","6.22224546","-77.40275035","22","24","1","1","20","1","1","2","8","0.250","0.083","0.833","0.042","0.042","0.042","9.7285728","0.042","0.917","428","10279","2020-07-06 17:39:00"
"27077","Bajo Baudo","27","Choco","4.954626672","-77.36540999","1","2","1","0","0","1","0","1","6","0.167","0.500","0.000","0.500","0.000","0.500","3.2817012","0.000","0.500","15236","30472","2020-07-06 17:39:00"
"27099","Bojaya","27","Choco","6.556257444","-76.88346949","3","7","0","4","0","2","1","3","6","0.500","0.429","0.000","0.286","0.143","0.000","0.0000000","0.571","0.429","1761","","2020-07-06 17:39:00"
"27135","El Canton San Pablo","27","Choco","5.33533532","-76.72685005","3","5","1","1","3","0","0","0","4","0.000","0.000","0.600","0.000","0.000","0.200","","0.200","0.600","","","2020-07-06 17:39:00"
"27160","Certegui","27","Choco","5.37041379","-76.60802121","0","3","0","3","0","0","0","0","4","0.000","0.000","0.000","0.000","0.000","0.000","0.0000000","1.000","0.000","1920","","2020-07-06 17:39:00"
"27205","Condoto","27","Choco","5.091003208","-76.65068266","4","7","0","3","4","0","0","0","11","0.000","0.000","0.571","0.000","0.000","0.000","0.0000000","0.429","0.571","1767","","2020-07-06 17:39:00"
"27245","El Carmen de Atrato","27","Choco","5.899751361","-76.14222986","52","53","0","1","50","1","1","2","4","0.500","0.038","0.943","0.019","0.019","0.000","0.0000000","0.019","0.981","155","","2020-07-06 17:39:00"
"27361","Istmina","27","Choco","5.153946496","-76.68518032","25","56","1","30","22","3","0","3","25","0.120","0.054","0.393","0.054","0.000","0.018","3.2461209","0.536","0.446","550","30806","2020-07-06 17:39:00"
"27413","Lloro","27","Choco","5.498150801","-76.54521063","5","6","1","0","2","3","0","3","5","0.600","0.500","0.333","0.500","0.000","0.167","10.0877635","0.000","0.833","1652","9913","2020-07-06 17:39:00"
"27425","Medio Atrato","27","Choco","5.994835471","-76.78241422","1","1","0","0","1","0","0","0","3","0.000","0.000","1.000","0.000","0.000","0.000","0.0000000","0.000","1.000","10930","","2020-07-06 17:39:00"
"27430","Medio Baudo","27","Choco","5.193563954","-76.94960604","6","8","1","1","5","1","0","1","11","0.091","0.125","0.625","0.125","0.000","0.125","6.3763311","0.125","0.750","1960","15683","2020-07-06 17:39:00"
"27450","Medio San Juan","27","Choco","5.100240747","-76.69335794","13","13","0","0","12","1","0","1","4","0.250","0.077","0.923","0.077","0.000","0.000","0.0000000","0.000","1.000","833","","2020-07-06 17:39:00"
"27600","Rio Quito","27","Choco","5.483727751","-76.74101656","22","29","3","4","21","1","0","1","1","1.000","0.034","0.724","0.034","0.000","0.103","35.5113636","0.138","0.759","291","2816","2020-07-06 17:39:00"
"27615","Riosucio","27","Choco","7.436631552","-77.11310959","12","13","1","0","11","1","0","1","16","0.063","0.077","0.846","0.077","0.000","0.077","1.8105446","0.000","0.923","4249","55232","2020-07-06 17:39:00"
"27787","Tado","27","Choco","5.264139949","-76.55876602","14","22","2","6","10","3","0","3","10","0.300","0.136","0.455","0.136","0.000","0.091","11.1650756","0.273","0.636","814","8957","2020-07-06 17:39:00"
"27800","Unguia","27","Choco","8.042760782","-77.09175303","1","1","0","0","0","0","1","1","4","0.250","1.000","0.000","0.000","1.000","0.000","0.0000000","0.000","1.000","12822","","2020-07-06 17:39:00"
"27810","Union Panamericana","27","Choco","5.281095852","-76.62840607","21","35","4","10","21","0","0","0","3","0.000","0.000","0.600","0.000","0.000","0.114","57.2901747","0.286","0.600","199","1746","2020-07-06 17:39:00"
"41001","Neiva","41","Huila","2.935604415","-75.27772259","42","202","6","154","40","2","0","2","566","0.004","0.010","0.198","0.010","0.000","0.030","1.6465061","0.762","0.208","1804","60735","2020-07-06 17:39:00"
"41006","Acevedo","41","Huila","1.805263228","-75.88853156","1","3","0","2","1","0","0","0","5","0.000","0.000","0.333","0.000","0.000","0.000","0.0000000","0.667","0.333","8433","","2020-07-06 17:39:00"
"41013","Agrado","41","Huila","2.259729394","-75.77190358","0","2","0","2","0","0","0","0","2","0.000","0.000","0.000","0.000","0.000","0.000","0.0000000","1.000","0.000","4469","","2020-07-06 17:39:00"
"41016","Aipe","41","Huila","3.223597562","-75.23903118","1","5","0","4","1","0","0","0","4","0.000","0.000","0.200","0.000","0.000","0.000","0.0000000","0.800","0.200","3309","","2020-07-06 17:39:00"
"41020","Algeciras","41","Huila","2.522447597","-75.31537288","1","9","0","8","1","0","0","0","3","0.000","0.000","0.111","0.000","0.000","0.000","0.0000000","0.889","0.111","2508","","2020-07-06 17:39:00"
"41132","Campoalegre","41","Huila","2.686827401","-75.32573546","1","4","0","3","1","0","0","0","2","0.000","0.000","0.250","0.000","0.000","0.000","0.0000000","0.750","0.250","7839","","2020-07-06 17:39:00"
"41298","Garzon","41","Huila","2.196994421","-75.62769374","6","13","0","7","6","0","0","0","66","0.000","0.000","0.462","0.000","0.000","0.000","0.0000000","0.538","0.462","5703","","2020-07-06 17:39:00"
"41306","Gigante","41","Huila","2.388235625","-75.54121989","3","28","1","24","2","0","1","1","4","0.250","0.036","0.071","0.000","0.036","0.036","4.0443258","0.857","0.107","883","24726","2020-07-06 17:39:00"
"41359","Isnos","41","Huila","1.92946706","-76.21763745","1","5","2","2","0","0","0","0","3","0.000","0.000","0.000","0.000","0.000","0.400","7.7763521","0.400","0.200","5144","12860","2020-07-06 17:39:00"
"41396","La Plata","41","Huila","2.389646694","-75.89145131","6","13","0","7","6","0","0","0","26","0.000","0.000","0.462","0.000","0.000","0.000","0.0000000","0.538","0.462","4798","","2020-07-06 17:39:00"
"41483","Nataga","41","Huila","2.545352901","-75.80878532","23","23","0","0","21","1","0","1","4","0.250","0.043","0.913","0.043","0.000","0.000","0.0000000","0.000","1.000","286","","2020-07-06 17:39:00"
"41503","Oporapa","41","Huila","2.025054002","-75.99517781","0","13","0","13","0","0","0","0","3","0.000","0.000","0.000","0.000","0.000","0.000","0.0000000","1.000","0.000","917","","2020-07-06 17:39:00"
"41518","Paicol","41","Huila","2.449548949","-75.77299232","0","2","1","1","0","0","0","0","2","0.000","0.000","0.000","0.000","0.000","0.500","14.8765248","0.500","0.000","3361","6722","2020-07-06 17:39:00"
"41524","Palermo","41","Huila","2.888406236","-75.43371912","2","9","0","7","2","0","0","0","4","0.000","0.000","0.222","0.000","0.000","0.000","0.0000000","0.778","0.222","2987","","2020-07-06 17:39:00"
"41530","Palestina","41","Huila","1.723444181","-76.13312235","0","1","0","1","0","0","0","0","1","0.000","0.000","0.000","0.000","0.000","0.000","0.0000000","1.000","0.000","11395","","2020-07-06 17:39:00"
"41551","Pitalito","41","Huila","1.852578355","-76.0487449","6","20","0","14","4","0","0","0","81","0.000","0.000","0.200","0.000","0.000","0.000","0.0000000","0.700","0.300","6432","","2020-07-06 17:39:00"
"41615","Rivera","41","Huila","2.777570516","-75.25854672","0","1","0","1","0","0","0","0","5","0.000","0.000","0.000","0.000","0.000","0.000","0.0000000","1.000","0.000","25131","","2020-07-06 17:39:00"
"41660","Saladoblanco","41","Huila","1.992494881","-76.04414126","0","1","0","1","0","0","0","0","4","0.000","0.000","0.000","0.000","0.000","0.000","0.0000000","1.000","0.000","10567","","2020-07-06 17:39:00"
"41668","San Agustin","41","Huila","1.881081298","-76.27035968","3","5","0","2","2","1","0","1","7","0.143","0.200","0.400","0.200","0.000","0.000","0.0000000","0.400","0.600","6745","","2020-07-06 17:39:00"
"41799","Tello","41","Huila","3.067538095","-75.13877304","3","15","0","12","2","1","0","1","4","0.250","0.067","0.133","0.067","0.000","0.000","0.0000000","0.800","0.200","787","","2020-07-06 17:39:00"
"41807","Timana","41","Huila","1.974224443","-75.932087","2","10","1","7","2","0","0","0","4","0.000","0.000","0.200","0.000","0.000","0.100","4.5310376","0.700","0.200","2207","22070","2020-07-06 17:39:00"
"41885","Yaguara","41","Huila","2.664694213","-75.51802329","0","1","0","1","0","0","0","0","2","0.000","0.000","0.000","0.000","0.000","0.000","0.0000000","1.000","0.000","7824","","2020-07-06 17:39:00"
"44001","Riohacha","44","La Guajira","11.52875138","-72.91148891","97","120","3","20","86","11","0","11","289","0.038","0.092","0.717","0.092","0.000","0.025","1.4863332","0.167","0.808","1682","67280","2020-07-06 17:39:00"
"44035","Albania","44","La Guajira","11.15748865","-72.59852163","2","7","0","5","1","1","0","1","2","0.500","0.143","0.143","0.143","0.000","0.000","0.0000000","0.714","0.286","4609","","2020-07-06 17:39:00"
"44078","Barrancas","44","La Guajira","10.95866671","-72.79357567","13","14","0","1","12","1","0","1","42","0.024","0.071","0.857","0.071","0.000","0.000","0.0000000","0.071","0.929","2739","","2020-07-06 17:39:00"
"44090","Dibulla","44","La Guajira","11.2715694","-73.30761979","5","7","0","2","4","0","1","1","6","0.167","0.143","0.571","0.000","0.143","0.000","0.0000000","0.286","0.714","6009","","2020-07-06 17:39:00"
"44098","Distraccion","44","La Guajira","10.89847259","-72.88739268","4","40","0","36","3","0","1","1","40","0.025","0.025","0.075","0.000","0.025","0.000","0.0000000","0.900","0.100","356","","2020-07-06 17:39:00"
"44110","El Molino","44","La Guajira","10.65350251","-72.92674334","1","1","0","0","1","0","0","0","2","0.000","0.000","1.000","0.000","0.000","0.000","0.0000000","0.000","1.000","7879","","2020-07-06 17:39:00"
"44279","Fonseca","44","La Guajira","10.88430067","-72.84666224","5","8","1","2","3","2","0","2","5","0.400","0.250","0.375","0.250","0.000","0.125","2.2449713","0.250","0.625","5568","44544","2020-07-06 17:39:00"
"44378","Hatonuevo","44","La Guajira","11.06874303","-72.75901658","0","1","0","1","0","0","0","0","2","0.000","0.000","0.000","0.000","0.000","0.000","0.0000000","1.000","0.000","22033","","2020-07-06 17:39:00"
"44430","Maicao","44","La Guajira","11.37832678","-72.24190502","324","394","19","51","291","24","8","32","232","0.138","0.081","0.739","0.061","0.020","0.048","10.2662747","0.129","0.822","470","9741","2020-07-06 17:39:00"
"44560","Manaure","44","La Guajira","11.77405659","-72.43966737","1","3","1","1","1","0","0","0","5","0.000","0.000","0.333","0.000","0.000","0.333","1.0703086","0.333","0.333","31144","93431","2020-07-06 17:39:00"
"44650","San Juan del Cesar","44","La Guajira","10.76957868","-73.00059321","9","16","1","6","7","1","0","1","136","0.007","0.063","0.438","0.063","0.000","0.063","2.0167796","0.375","0.563","3099","49584","2020-07-06 17:39:00"
"44847","Uribia","44","La Guajira","11.71464582","-72.26476063","42","48","2","4","41","1","0","1","34","0.029","0.021","0.854","0.021","0.000","0.042","1.0521664","0.083","0.875","3960","95042","2020-07-06 17:39:00"
"44874","Villanueva","44","La Guajira","10.60881169","-72.97762278","1","2","1","0","1","0","0","0","5","0.000","0.000","0.500","0.000","0.000","0.500","3.4204406","0.000","0.500","14618","29236","2020-07-06 17:39:00"
"47001","Santa Marta","47","Magdalena","11.2294335","-74.19089412","705","1227","55","467","613","74","13","87","989","0.088","0.071","0.500","0.060","0.011","0.045","10.2114323","0.381","0.575","439","9793","2020-07-06 17:39:00"
"47053","Aracataca","47","Magdalena","10.58980001","-74.18676284","4","6","0","2","2","2","0","2","7","0.286","0.333","0.333","0.333","0.000","0.000","0.0000000","0.333","0.667","6915","","2020-07-06 17:39:00"
"47058","Ariguani","47","Magdalena","9.767720804","-73.99780998","1","1","0","0","0","1","0","1","6","0.167","1.000","0.000","1.000","0.000","0.000","0.0000000","0.000","1.000","31794","","2020-07-06 17:39:00"
"47161","Cerro de San Antonio","47","Magdalena","10.32565943","-74.868473","0","2","1","1","0","0","0","0","6","0.000","0.000","0.000","0.000","0.000","0.500","10.0593502","0.500","0.000","4971","9941","2020-07-06 17:39:00"
"47189","Cienaga","47","Magdalena","11.00665688","-74.24128616","292","535","56","187","252","35","5","40","102","0.392","0.075","0.471","0.065","0.009","0.105","45.0381618","0.350","0.546","232","2220","2020-07-06 17:39:00"
"47205","Concordia","47","Magdalena","10.25731061","-74.8330299","1","1","0","0","0","1","0","1","3","0.333","1.000","0.000","1.000","0.000","0.000","0.0000000","0.000","1.000","11227","","2020-07-06 17:39:00"
"47245","El Banco","47","Magdalena","9.008733009","-73.97428121","56","74","2","16","49","5","2","7","86","0.081","0.095","0.662","0.068","0.027","0.027","2.8693993","0.216","0.757","942","34851","2020-07-06 17:39:00"
"47258","El Pinon","47","Magdalena","10.40309454","-74.82329109","1","2","0","1","0","1","0","1","5","0.200","0.500","0.000","0.500","0.000","0.000","0.0000000","0.500","0.500","12042","","2020-07-06 17:39:00"
"47268","El Reten","47","Magdalena","10.61066766","-74.2684561","16","18","0","2","16","0","0","0","3","0.000","0.000","0.889","0.000","0.000","0.000","0.0000000","0.111","0.889","1170","","2020-07-06 17:39:00"
"47288","Fundacion","47","Magdalena","10.5140924","-74.19134346","18","26","1","7","9","8","0","8","117","0.068","0.308","0.346","0.308","0.000","0.038","1.4186208","0.269","0.692","2711","70491","2020-07-06 17:39:00"
"47318","Guamal","47","Magdalena","9.144385832","-74.22369928","1","1","0","0","1","0","0","0","7","0.000","0.000","1.000","0.000","0.000","0.000","0.0000000","0.000","1.000","27918","","2020-07-06 17:39:00"
"47545","Pijino del Carmen","47","Magdalena","9.331953112","-74.45821824","0","1","1","0","0","0","0","0","3","0.000","0.000","0.000","0.000","0.000","1.000","7.7471336","0.000","0.000","12908","12908","2020-07-06 17:39:00"
"47551","Pivijay","47","Magdalena","10.46069324","-74.61351795","3","4","1","0","1","1","1","2","20","0.100","0.500","0.250","0.250","0.250","0.250","2.5658789","0.000","0.750","9743","38973","2020-07-06 17:39:00"
"47555","Plato","47","Magdalena","9.796769868","-74.78468286","5","5","0","0","5","0","0","0","52","0.000","0.000","1.000","0.000","0.000","0.000","0.0000000","0.000","1.000","12803","","2020-07-06 17:39:00"
"47570","Puebloviejo","47","Magdalena","10.99482965","-74.28248423","32","191","22","137","25","6","1","7","5","1.400","0.037","0.131","0.031","0.005","0.115","68.3484528","0.717","0.168","169","1463","2020-07-06 17:39:00"
"47605","Remolino","47","Magdalena","10.70217005","-74.71614047","3","3","0","0","2","1","0","1","2","0.500","0.333","0.667","0.333","0.000","0.000","0.0000000","0.000","1.000","3976","","2020-07-06 17:39:00"
"47692","San Sebastian de Buenavista","47","Magdalena","9.24050525","-74.35167514","1","2","1","0","0","1","0","1","5","0.200","0.500","0.000","0.500","0.000","0.500","4.8318516","0.000","0.500","10348","20696","2020-07-06 17:39:00"
"47707","Santa Ana","47","Magdalena","9.321837859","-74.56765762","3","3","0","0","1","1","0","1","11","0.091","0.333","0.333","0.333","0.000","0.000","0.0000000","0.000","1.000","8692","","2020-07-06 17:39:00"
"47745","Sitionuevo","47","Magdalena","10.77540964","-74.72016921","22","57","6","29","19","2","0","2","5","0.400","0.035","0.333","0.035","0.000","0.105","20.5768373","0.509","0.386","512","4860","2020-07-06 17:39:00"
"47980","Zona Bananera","47","Magdalena","10.76302682","-74.14008184","6","23","7","10","4","2","0","2","7","0.286","0.087","0.174","0.087","0.000","0.304","9.4680319","0.435","0.261","3214","10562","2020-07-06 17:39:00"
"50001","Villavicencio","50","Meta","4.1238615","-73.62709204","272","1235","11","952","252","14","5","19","793","0.024","0.015","0.204","0.011","0.004","0.009","2.0172308","0.771","0.220","442","49573","2020-07-06 17:39:00"
"50006","Acacias","50","Meta","3.990120663","-73.76593665","18","35","0","17","18","0","0","0","11","0.000","0.000","0.514","0.000","0.000","0.000","0.0000000","0.486","0.514","2624","","2020-07-06 17:39:00"
"50124","Cabuyaro","50","Meta","4.285923848","-72.79197878","0","1","1","0","0","0","0","0","4","0.000","0.000","0.000","0.000","0.000","1.000","16.1498708","0.000","0.000","6192","6192","2020-07-06 17:39:00"
"50226","Cumaral","50","Meta","4.269537766","-73.48610878","3","6","0","3","3","0","0","0","4","0.000","0.000","0.500","0.000","0.000","0.000","0.0000000","0.500","0.500","3866","","2020-07-06 17:39:00"
"50313","Granada","50","Meta","3.546694724","-73.70571533","7","22","0","15","7","0","0","0","87","0.000","0.000","0.318","0.000","0.000","0.000","0.0000000","0.682","0.318","3208","","2020-07-06 17:39:00"
"50568","Puerto Gaitan","50","Meta","4.314487455","-72.08307894","31","40","1","8","30","1","0","1","13","0.077","0.025","0.750","0.025","0.000","0.025","2.2933150","0.200","0.775","1090","43605","2020-07-06 17:39:00"
"50573","Puerto Lopez","50","Meta","4.093406425","-72.95743626","0","5","2","3","0","0","0","0","7","0.000","0.000","0.000","0.000","0.000","0.400","6.5980470","0.600","0.000","6062","15156","2020-07-06 17:39:00"
"50606","Restrepo","50","Meta","4.260731994","-73.56460418","3","8","2","3","2","0","0","0","6","0.000","0.000","0.250","0.000","0.000","0.250","10.7192625","0.375","0.375","2332","9329","2020-07-06 17:39:00"
"50680","San Carlos de Guaroa","50","Meta","3.71053664","-73.24140912","1","2","0","1","0","1","0","1","5","0.200","0.500","0.000","0.500","0.000","0.000","0.0000000","0.500","0.500","6438","","2020-07-06 17:39:00"
"50683","San Juan de Arama","50","Meta","3.373727874","-73.87583154","0","3","0","3","0","0","0","0","5","0.000","0.000","0.000","0.000","0.000","0.000","0.0000000","1.000","0.000","2955","","2020-07-06 17:39:00"
"50689","San Martin","50","Meta","3.701879876","-73.69561782","2","2","0","0","2","0","0","0","13","0.000","0.000","1.000","0.000","0.000","0.000","0.0000000","0.000","1.000","13250","","2020-07-06 17:39:00"
"52001","Pasto","52","Narino","1.212124365","-77.27857635","588","914","23","303","515","62","8","70","893","0.078","0.077","0.563","0.068","0.009","0.025","5.8585442","0.332","0.643","430","17069","2020-07-06 17:39:00"
"52019","Alban","52","Narino","1.474978015","-77.08071233","6","6","0","0","6","0","0","0","0","","0.000","1.000","0.000","0.000","0.000","0.0000000","0.000","1.000","1553","","2020-07-06 17:39:00"
"52022","Aldana","52","Narino","0.882181195","-77.70035656","1","14","0","13","0","1","0","1","0","","0.071","0.000","0.071","0.000","0.000","0.0000000","0.929","0.071","526","","2020-07-06 17:39:00"
"52036","Ancuya","52","Narino","1.263299977","-77.51451329","1","3","0","2","0","0","1","1","0","","0.333","0.000","0.000","0.333","0.000","0.0000000","0.667","0.333","2868","","2020-07-06 17:39:00"
"52051","Arboleda","52","Narino","1.503536564","-77.13539889","1","2","0","1","1","0","0","0","0","","0.000","0.500","0.000","0.000","0.000","0.0000000","0.500","0.500","4210","","2020-07-06 17:39:00"
"52079","Barbacoas","52","Narino","1.670345194","-78.13989493","23","31","4","4","13","8","2","10","12","0.833","0.323","0.419","0.258","0.065","0.129","7.0763896","0.129","0.742","1823","14132","2020-07-06 17:39:00"
"52083","Belen","52","Narino","1.595676066","-77.01566573","0","1","0","1","0","0","0","0","0","","0.000","0.000","0.000","0.000","0.000","0.0000000","1.000","0.000","6301","","2020-07-06 17:39:00"
"52203","Colon","52","Narino","1.643874302","-77.01977704","0","1","0","1","0","0","0","0","0","","0.000","0.000","0.000","0.000","0.000","0.0000000","1.000","0.000","8316","","2020-07-06 17:39:00"
"52207","Consaca","52","Narino","1.207623056","-77.46510211","14","15","1","0","14","0","0","0","0","","0.000","0.933","0.000","0.000","0.067","7.2790799","0.000","0.933","916","13738","2020-07-06 17:39:00"
"52210","Contadero","52","Narino","0.910457863","-77.54940902","1","5","0","4","1","0","0","0","1","0.000","0.000","0.200","0.000","0.000","0.000","0.0000000","0.800","0.200","1447","","2020-07-06 17:39:00"
"52215","Cordoba","52","Narino","0.854564418","-77.51789656","1","4","0","3","1","0","0","0","1","0.000","0.000","0.250","0.000","0.000","0.000","0.0000000","0.750","0.250","3869","","2020-07-06 17:39:00"
"52224","Cuaspud","52","Narino","0.862978103","-77.72894683","0","7","1","6","0","0","0","0","0","","0.000","0.000","0.000","0.000","0.143","10.8719287","0.857","0.000","1314","9198","2020-07-06 17:39:00"
"52227","Cumbal","52","Narino","0.906185361","-77.79227662","7","51","1","43","6","1","0","1","5","0.200","0.020","0.118","0.020","0.000","0.020","2.7002943","0.843","0.137","726","37033","2020-07-06 17:39:00"
"52233","Cumbitara","52","Narino","1.646845971","-77.57814673","1","8","0","7","1","0","0","0","0","","0.000","0.125","0.000","0.000","0.000","0.0000000","0.875","0.125","721","","2020-07-06 17:39:00"
"52240","Chachagui","52","Narino","1.36032802","-77.28170144","9","13","0","4","8","1","0","1","10","0.100","0.077","0.615","0.077","0.000","0.000","0.0000000","0.308","0.692","1177","","2020-07-06 17:39:00"
"52250","El Charco","52","Narino","2.477550593","-78.109849","32","90","2","56","29","2","1","3","9","0.333","0.033","0.322","0.022","0.011","0.022","8.8691796","0.622","0.356","251","11275","2020-07-06 17:39:00"
"52254","El Penol","52","Narino","1.452892601","-77.43785937","3","3","0","0","3","0","0","0","0","","0.000","1.000","0.000","0.000","0.000","0.0000000","0.000","1.000","2481","","2020-07-06 17:39:00"
"52260","El Tambo","52","Narino","1.407643422","-77.39020466","1","2","1","0","1","0","0","0","6","0.000","0.000","0.500","0.000","0.000","0.500","7.2416540","0.000","0.500","6905","13809","2020-07-06 17:39:00"
"52287","Funes","52","Narino","1.001135181","-77.4489786","1","1","0","0","1","0","0","0","0","","0.000","1.000","0.000","0.000","0.000","0.0000000","0.000","1.000","7135","","2020-07-06 17:39:00"
"52317","Guachucal","52","Narino","0.959743484","-77.73158986","3","8","0","5","3","0","0","0","4","0.000","0.000","0.375","0.000","0.000","0.000","0.0000000","0.625","0.375","2417","","2020-07-06 17:39:00"
"52320","Guaitarilla","52","Narino","1.129632504","-77.54968882","18","24","1","5","17","0","0","0","3","0.000","0.000","0.708","0.000","0.000","0.042","8.8300221","0.208","0.750","472","11325","2020-07-06 17:39:00"
"52323","Gualmatan","52","Narino","0.91980291","-77.56681512","0","1","1","0","0","0","0","0","0","","0.000","0.000","0.000","0.000","1.000","14.2045455","0.000","0.000","7040","7040","2020-07-06 17:39:00"
