"DIVIPOLA","City_Municipality","ID_Deparment","Department","Latitude","Longitude","Active","Confirmed","Deaths","Recovered","House","Hospital","ICU","People_Hospitalized","Total_Hospital_Beds","Total_Hospital_Beds_Utilisation","Total_Hospitalization_Rate","Mild_Rate","Severe_Rate","Critical_Rate","Lethality_Rate","Mortality_Rate","Recovery_Rates","Active_Rate","Cases_Share_Of_Population","Deaths_Share_Of_Population","Last_Update"
"5001","Medellin","5","Antioquia","5.610109776","-74.88681663","1611","2522","20","891","1425","156","27","183","2885","0.063","0.073","0.565","0.062","0.011","0.008","0.7894454","0.353","0.639","1005","126671","2020-07-03 16:34:00"
"5030","Amaga","5","Antioquia","6.038808575","-75.70194607","3","5","0","2","3","0","0","0","5","0.000","0.000","0.600","0.000","0.000","0.000","0.0000000","0.400","0.600","6257","","2020-07-03 16:34:00"
"5034","Andes","5","Antioquia","5.656774852","-75.87879189","0","1","0","1","0","0","0","0","10","0.000","0.000","0.000","0.000","0.000","0.000","0.0000000","1.000","0.000","44199","","2020-07-03 16:34:00"
"5038","Angostura","5","Antioquia","6.885174591","-75.33511597","0","1","0","1","0","0","0","0","3","0.000","0.000","0.000","0.000","0.000","0.000","0.0000000","1.000","0.000","11536","","2020-07-03 16:34:00"
"5042","Santa Fe de Antioquia","5","Antioquia","6.556533296","-75.82707907","7","7","0","0","7","0","0","0","25","0.000","0.000","1.000","0.000","0.000","0.000","0.0000000","0.000","1.000","3857","","2020-07-03 16:34:00"
"5044","Anza","5","Antioquia","6.302658359","-75.85444158","5","5","0","0","5","0","0","0","2","0.000","0.000","1.000","0.000","0.000","0.000","0.0000000","0.000","1.000","1434","","2020-07-03 16:34:00"
"5045","Apartado","5","Antioquia","7.883417406","-76.62596065","120","175","0","55","113","7","0","7","158","0.044","0.040","0.646","0.040","0.000","0.000","0.0000000","0.314","0.686","730","","2020-07-03 16:34:00"
"5051","Arboletes","5","Antioquia","8.850567734","-76.4270568","19","20","0","1","16","3","0","3","4","0.750","0.150","0.800","0.150","0.000","0.000","0.0000000","0.050","0.950","1526","","2020-07-03 16:34:00"
"5079","Barbosa","5","Antioquia","6.439226882","-75.33164423","6","13","0","7","5","1","0","1","7","0.143","0.077","0.385","0.077","0.000","0.000","0.0000000","0.538","0.462","4181","","2020-07-03 16:34:00"
"5088","Bello","5","Antioquia","6.334068836","-75.55466507","224","382","7","151","200","19","5","24","355","0.068","0.063","0.524","0.050","0.013","0.018","1.2677623","0.395","0.586","1445","78879","2020-07-03 16:34:00"
"5093","Betulia","5","Antioquia","6.115255594","-75.98451587","1","1","0","0","1","0","0","0","5","0.000","0.000","1.000","0.000","0.000","0.000","0.0000000","0.000","1.000","15896","","2020-07-03 16:34:00"
"5101","Ciudad Bolivar","5","Antioquia","5.850273232","-76.02150921","2","3","1","0","2","0","0","0","23","0.000","0.000","0.667","0.000","0.000","0.333","3.8004028","0.000","0.667","8771","26313","2020-07-03 16:34:00"
"5113","Buritica","5","Antioquia","6.719735175","-75.90753473","38","38","0","0","38","0","0","0","3","0.000","0.000","1.000","0.000","0.000","0.000","0.0000000","0.000","1.000","254","","2020-07-03 16:34:00"
"5120","Caceres","5","Antioquia","7.578315451","-75.35235749","1","2","0","1","1","0","0","0","5","0.000","0.000","0.500","0.000","0.000","0.000","0.0000000","0.500","0.500","15178","","2020-07-03 16:34:00"
"5125","Caicedo","5","Antioquia","6.405567003","-75.98281889","1","1","0","0","1","0","0","0","1","0.000","0.000","1.000","0.000","0.000","0.000","0.0000000","0.000","1.000","8536","","2020-07-03 16:34:00"
"5129","Caldas","5","Antioquia","6.091296966","-75.63361872","18","25","0","7","17","1","0","1","49","0.020","0.040","0.680","0.040","0.000","0.000","0.0000000","0.280","0.720","3337","","2020-07-03 16:34:00"
"5138","Canasgordas","5","Antioquia","6.759477684","-76.03220994","2","5","0","3","2","0","0","0","3","0.000","0.000","0.400","0.000","0.000","0.000","0.0000000","0.600","0.400","3110","","2020-07-03 16:34:00"
"5142","Caracoli","5","Antioquia","6.409854727","-74.75744944","0","1","0","1","0","0","0","0","1","0.000","0.000","0.000","0.000","0.000","0.000","0.0000000","1.000","0.000","4532","","2020-07-03 16:34:00"
"5147","Carepa","5","Antioquia","7.755116346","-76.65321034","93","370","1","276","90","3","0","3","11","0.273","0.008","0.243","0.008","0.000","0.003","1.9553018","0.746","0.251","138","51143","2020-07-03 16:34:00"
"5148","El Carmen de Viboral","5","Antioquia","6.084551516","-75.33536246","2","3","0","1","2","0","0","0","11","0.000","0.000","0.667","0.000","0.000","0.000","0.0000000","0.333","0.667","20860","","2020-07-03 16:34:00"
"5154","Caucasia","5","Antioquia","7.977362333","-75.19829033","12","17","2","3","10","1","0","1","126","0.008","0.059","0.588","0.059","0.000","0.118","2.0958429","0.176","0.706","5613","47714","2020-07-03 16:34:00"
"5172","Chigorodo","5","Antioquia","7.666300439","-76.6812164","24","34","0","10","21","3","0","3","31","0.097","0.088","0.618","0.088","0.000","0.000","0.0000000","0.294","0.706","1760","","2020-07-03 16:34:00"
"5190","Cisneros","5","Antioquia","6.537761957","-75.08720761","0","1","0","1","0","0","0","0","6","0.000","0.000","0.000","0.000","0.000","0.000","0.0000000","1.000","0.000","9936","","2020-07-03 16:34:00"
"5197","Cocorna","5","Antioquia","6.058306335","-75.18548101","0","1","0","1","0","0","0","0","2","0.000","0.000","0.000","0.000","0.000","0.000","0.0000000","1.000","0.000","14833","","2020-07-03 16:34:00"
"5212","Copacabana","5","Antioquia","6.348640545","-75.5093439","27","58","0","31","25","1","0","1","6","0.167","0.017","0.431","0.017","0.000","0.000","0.0000000","0.534","0.466","1411","","2020-07-03 16:34:00"
"5234","Dabeiba","5","Antioquia","7.00032194","-76.26297665","3","3","0","0","3","0","0","0","5","0.000","0.000","1.000","0.000","0.000","0.000","0.0000000","0.000","1.000","7836","","2020-07-03 16:34:00"
"5237","Donmatias","5","Antioquia","6.484469957","-75.39272406","2","7","1","4","2","0","0","0","3","0.000","0.000","0.286","0.000","0.000","0.143","5.0738241","0.571","0.286","2816","19709","2020-07-03 16:34:00"
"5240","Ebejico","5","Antioquia","6.326056658","-75.76622047","2","2","0","0","2","0","0","0","2","0.000","0.000","1.000","0.000","0.000","0.000","0.0000000","0.000","1.000","6067","","2020-07-03 16:34:00"
"5250","El Bagre","5","Antioquia","7.597521794","-74.79909729","1","3","0","2","0","1","0","1","12","0.083","0.333","0.000","0.333","0.000","0.000","0.0000000","0.667","0.333","17949","","2020-07-03 16:34:00"
"5266","Envigado","5","Antioquia","6.167004552","-75.58301014","61","108","0","47","58","3","0","3","131","0.023","0.028","0.537","0.028","0.000","0.000","0.0000000","0.435","0.565","2243","","2020-07-03 16:34:00"
"5284","Frontino","5","Antioquia","6.776065912","-76.13076514","0","3","0","3","0","0","0","0","5","0.000","0.000","0.000","0.000","0.000","0.000","0.0000000","1.000","0.000","6900","","2020-07-03 16:34:00"
"5306","Giraldo","5","Antioquia","6.680808016","-75.95215756","2","5","0","3","2","0","0","0","1","0.000","0.000","0.400","0.000","0.000","0.000","0.0000000","0.600","0.400","1150","","2020-07-03 16:34:00"
"5308","Girardota","5","Antioquia","6.379613834","-75.44446221","10","11","0","1","10","0","0","0","4","0.000","0.000","0.909","0.000","0.000","0.000","0.0000000","0.091","0.909","4949","","2020-07-03 16:34:00"
"5313","Granada","5","Antioquia","6.142896667","-75.18444508","0","1","1","0","0","0","0","0","1","0.000","0.000","0.000","0.000","0.000","1.000","10.2417042","0.000","0.000","9764","9764","2020-07-03 16:34:00"
"5318","Guarne","5","Antioquia","6.278064077","-75.44165392","21","25","0","4","19","2","0","2","4","0.500","0.080","0.760","0.080","0.000","0.000","0.0000000","0.160","0.840","2326","","2020-07-03 16:34:00"
"5321","Guatape","5","Antioquia","6.232592707","-75.16229259","0","2","0","2","0","0","0","0","2","0.000","0.000","0.000","0.000","0.000","0.000","0.0000000","1.000","0.000","4355","","2020-07-03 16:34:00"
"5347","Heliconia","5","Antioquia","6.206757461","-75.73432238","1","1","0","0","1","0","0","0","2","0.000","0.000","1.000","0.000","0.000","0.000","0.0000000","0.000","1.000","5395","","2020-07-03 16:34:00"
"5353","Hispania","5","Antioquia","5.799461575","-75.90658827","4","4","0","0","4","0","0","0","1","0.000","0.000","1.000","0.000","0.000","0.000","0.0000000","0.000","1.000","1398","","2020-07-03 16:34:00"
"5360","Itagui","5","Antioquia","6.169597629","-75.61435871","187","251","0","64","176","11","0","11","168","0.065","0.044","0.701","0.044","0.000","0.000","0.0000000","0.255","0.745","1155","","2020-07-03 16:34:00"
"5361","Ituango","5","Antioquia","7.17162903","-75.76467317","321","609","0","288","319","1","1","2","8","0.250","0.003","0.524","0.002","0.002","0.000","0.0000000","0.473","0.527","46","","2020-07-03 16:34:00"
"5368","Jerico","5","Antioquia","5.789747931","-75.78549855","0","1","0","1","0","0","0","0","2","0.000","0.000","0.000","0.000","0.000","0.000","0.0000000","1.000","0.000","13706","","2020-07-03 16:34:00"
"5376","La Ceja","5","Antioquia","6.028055744","-75.42943089","21","31","0","10","19","2","0","2","120","0.017","0.065","0.613","0.065","0.000","0.000","0.0000000","0.323","0.677","2204","","2020-07-03 16:34:00"
"5380","La Estrella","5","Antioquia","6.15841974","-75.64519038","44","73","0","29","42","2","0","2","3","0.667","0.027","0.575","0.027","0.000","0.000","0.0000000","0.397","0.603","1034","","2020-07-03 16:34:00"
"5425","Maceo","5","Antioquia","6.552116913","-74.78716148","2","4","0","2","2","0","0","0","4","0.000","0.000","0.500","0.000","0.000","0.000","0.0000000","0.500","0.500","2062","","2020-07-03 16:34:00"
"5440","Marinilla","5","Antioquia","6.172269255","-75.33947788","4","8","0","4","4","0","0","0","4","0.000","0.000","0.500","0.000","0.000","0.000","0.0000000","0.500","0.500","8487","","2020-07-03 16:34:00"
"5467","Montebello","5","Antioquia","5.946325567","-75.52351091","0","3","0","3","0","0","0","0","2","0.000","0.000","0.000","0.000","0.000","0.000","0.0000000","1.000","0.000","2214","","2020-07-03 16:34:00"
"5475","Murindo","5","Antioquia","6.977691853","-76.81745806","13","13","0","0","13","0","0","0","3","0.000","0.000","1.000","0.000","0.000","0.000","0.0000000","0.000","1.000","403","","2020-07-03 16:34:00"
"5480","Mutata","5","Antioquia","7.242875057","-76.4358754","7","7","0","0","7","0","0","0","6","0.000","0.000","1.000","0.000","0.000","0.000","0.0000000","0.000","1.000","2056","","2020-07-03 16:34:00"
"5490","Necocli","5","Antioquia","8.426135983","-76.7845745","3","3","0","0","2","1","0","1","8","0.125","0.333","0.667","0.333","0.000","0.000","0.0000000","0.000","1.000","14706","","2020-07-03 16:34:00"
"5495","Nechi","5","Antioquia","8.094128661","-74.77647012","18","20","1","1","14","3","1","4","9","0.444","0.200","0.700","0.150","0.050","0.050","3.6557725","0.050","0.900","1368","27354","2020-07-03 16:34:00"
"5579","Puerto Berrio","5","Antioquia","6.48704114","-74.40994553","1","1","0","0","1","0","0","0","31","0.000","0.000","1.000","0.000","0.000","0.000","0.0000000","0.000","1.000","40713","","2020-07-03 16:34:00"
"5591","Puerto Triunfo","5","Antioquia","5.871212959","-74.64126293","1","1","0","0","1","0","0","0","5","0.000","0.000","1.000","0.000","0.000","0.000","0.0000000","0.000","1.000","18970","","2020-07-03 16:34:00"
"5604","Remedios","5","Antioquia","7.026094053","-74.69594426","1","1","0","0","1","0","0","0","6","0.000","0.000","1.000","0.000","0.000","0.000","0.0000000","0.000","1.000","29629","","2020-07-03 16:34:00"
"5607","Retiro","5","Antioquia","6.063379954","-75.50137516","0","2","0","2","0","0","0","0","12","0.000","0.000","0.000","0.000","0.000","0.000","0.0000000","1.000","0.000","12379","","2020-07-03 16:34:00"
"5615","Rionegro","5","Antioquia","6.14722409","-75.37676938","19","33","0","14","17","2","0","2","304","0.007","0.061","0.515","0.061","0.000","0.000","0.0000000","0.424","0.576","4333","","2020-07-03 16:34:00"
"5631","Sabaneta","5","Antioquia","6.150970181","-75.61558529","39","62","0","23","39","0","0","0","22","0.000","0.000","0.629","0.000","0.000","0.000","0.0000000","0.371","0.629","1419","","2020-07-03 16:34:00"
"5642","Salgar","5","Antioquia","5.96564031","-75.98204854","14","24","0","10","12","2","0","2","3","0.667","0.083","0.500","0.083","0.000","0.000","0.0000000","0.417","0.583","761","","2020-07-03 16:34:00"
"5649","San Carlos","5","Antioquia","6.187991569","-74.98795256","1","1","0","0","0","1","0","1","4","0.250","1.000","0.000","1.000","0.000","0.000","0.0000000","0.000","1.000","15811","","2020-07-03 16:34:00"
"5652","San Francisco","5","Antioquia","5.964079131","-75.10268697","0","1","1","0","0","0","0","0","3","0.000","0.000","0.000","0.000","0.000","1.000","16.9808117","0.000","0.000","5889","5889","2020-07-03 16:34:00"
"5659","San Juan de Uraba","5","Antioquia","8.759341801","-76.52879434","8","8","0","0","7","1","0","1","3","0.333","0.125","0.875","0.125","0.000","0.000","0.0000000","0.000","1.000","2619","","2020-07-03 16:34:00"
"5665","San Pedro de Uraba","5","Antioquia","8.276886664","-76.38057789","0","1","0","1","0","0","0","0","5","0.000","0.000","0.000","0.000","0.000","0.000","0.0000000","1.000","0.000","32147","","2020-07-03 16:34:00"
"5670","San Roque","5","Antioquia","6.485948936","-75.01915757","0","1","0","1","0","0","0","0","7","0.000","0.000","0.000","0.000","0.000","0.000","0.0000000","1.000","0.000","21597","","2020-07-03 16:34:00"
"5679","Santa Barbara","5","Antioquia","5.875533398","-75.56735178","3","3","0","0","3","0","0","0","4","0.000","0.000","1.000","0.000","0.000","0.000","0.0000000","0.000","1.000","9062","","2020-07-03 16:34:00"
"5686","Santa Rosa de Osos","5","Antioquia","6.643326001","-75.46074502","1","3","0","2","1","0","0","0","6","0.000","0.000","0.333","0.000","0.000","0.000","0.0000000","0.667","0.333","12623","","2020-07-03 16:34:00"
"5697","El Santuario","5","Antioquia","6.137046858","-75.26584979","6","7","0","1","6","0","0","0","4","0.000","0.000","0.857","0.000","0.000","0.000","0.0000000","0.143","0.857","5229","","2020-07-03 16:34:00"
"5736","Segovia","5","Antioquia","7.079639679","-74.70159107","1","1","0","0","0","1","0","1","6","0.167","1.000","0.000","1.000","0.000","0.000","0.0000000","0.000","1.000","39379","","2020-07-03 16:34:00"
"5756","Sonson","5","Antioquia","5.714811641","-75.30939515","0","2","0","2","0","0","0","0","4","0.000","0.000","0.000","0.000","0.000","0.000","0.0000000","1.000","0.000","18313","","2020-07-03 16:34:00"
"5789","Tamesis","5","Antioquia","5.664466636","-75.71432069","5","7","0","2","5","0","0","0","4","0.000","0.000","0.714","0.000","0.000","0.000","0.0000000","0.286","0.714","2314","","2020-07-03 16:34:00"
"5790","Taraza","5","Antioquia","7.580120815","-75.40140596","3","6","0","3","3","0","0","0","5","0.000","0.000","0.500","0.000","0.000","0.000","0.0000000","0.500","0.500","4666","","2020-07-03 16:34:00"
"5819","Toledo","5","Antioquia","7.010154029","-75.69144241","1","1","0","0","1","0","0","0","4","0.000","0.000","1.000","0.000","0.000","0.000","0.0000000","0.000","1.000","5043","","2020-07-03 16:34:00"
"5837","Turbo","5","Antioquia","8.089116411","-76.72915844","63","168","1","104","60","3","0","3","51","0.059","0.018","0.357","0.018","0.000","0.006","0.7681022","0.619","0.375","775","130191","2020-07-03 16:34:00"
"5854","Valdivia","5","Antioquia","7.16534","-75.43919844","12","14","0","2","12","0","0","0","4","0.000","0.000","0.857","0.000","0.000","0.000","0.0000000","0.143","0.857","1007","","2020-07-03 16:34:00"
"5873","Vigia del Fuerte","5","Antioquia","6.588119845","-76.89618698","15","15","0","0","14","1","0","1","3","0.333","0.067","0.933","0.067","0.000","0.000","0.0000000","0.000","1.000","628","","2020-07-03 16:34:00"
"5887","Yarumal","5","Antioquia","6.963872352","-75.41883314","4","7","1","2","4","0","0","0","37","0.000","0.000","0.571","0.000","0.000","0.143","2.3431276","0.286","0.571","6097","42678","2020-07-03 16:34:00"
"5890","Yolombo","5","Antioquia","6.594592434","-75.01335058","1","3","0","2","1","0","0","0","26","0.000","0.000","0.333","0.000","0.000","0.000","0.0000000","0.667","0.333","7834","","2020-07-03 16:34:00"
"5895","Zaragoza","5","Antioquia","7.488583075","-74.86707471","1","1","0","0","0","1","0","1","8","0.125","1.000","0.000","1.000","0.000","0.000","0.0000000","0.000","1.000","25703","","2020-07-03 16:34:00"
"8001","Barranquilla","8","Atlantico","10.97592682","-74.79525905","8533","14097","806","4758","7634","740","113","853","2591","0.329","0.061","0.542","0.052","0.008","0.057","63.2528939","0.338","0.605","90","1581","2020-07-03 16:34:00"
"8078","Baranoa","8","Atlantico","10.79488048","-74.91609981","477","596","19","100","434","36","7","43","218","0.197","0.072","0.728","0.060","0.012","0.032","28.3370619","0.168","0.800","113","3529","2020-07-03 16:34:00"
"8137","Campo de la Cruz","8","Atlantico","10.37924013","-74.88315173","15","19","0","4","14","1","0","1","16","0.063","0.053","0.737","0.053","0.000","0.000","0.0000000","0.211","0.789","1240","","2020-07-03 16:34:00"
"8141","Candelaria","8","Atlantico","10.46121723","-74.8799126","38","42","1","3","38","0","0","0","2","0.000","0.000","0.905","0.000","0.000","0.024","5.8156441","0.071","0.905","409","17195","2020-07-03 16:34:00"
"8296","Galapa","8","Atlantico","10.919641","-74.8669381","499","750","38","213","477","19","2","21","5","4.200","0.028","0.636","0.025","0.003","0.051","56.6986467","0.284","0.665","89","1764","2020-07-03 16:34:00"
"8372","Juan de Acosta","8","Atlantico","10.83018223","-75.04079914","34","44","1","9","34","0","0","0","6","0.000","0.000","0.773","0.000","0.000","0.023","4.3952180","0.205","0.773","517","22752","2020-07-03 16:34:00"
"8421","Luruaco","8","Atlantico","10.61111642","-75.14224614","25","55","1","29","22","1","2","3","61","0.049","0.055","0.400","0.018","0.036","0.018","3.2988058","0.527","0.455","551","30314","2020-07-03 16:34:00"
"8433","Malambo","8","Atlantico","10.85628724","-74.77424057","754","1377","81","542","691","53","9","62","52","1.192","0.045","0.502","0.038","0.007","0.059","58.0370577","0.394","0.548","101","1723","2020-07-03 16:34:00"
"8436","Manati","8","Atlantico","10.44896238","-74.95703499","29","40","0","11","27","1","1","2","1","2.000","0.050","0.675","0.025","0.025","0.000","0.0000000","0.275","0.725","536","","2020-07-03 16:34:00"
"8520","Palmar de Varela","8","Atlantico","10.73858326","-74.75475789","78","160","4","78","71","7","0","7","36","0.194","0.044","0.444","0.044","0.000","0.025","12.8874283","0.488","0.488","194","7760","2020-07-03 16:34:00"
"8549","Piojo","8","Atlantico","10.74934442","-75.10747012","11","21","1","9","11","0","0","0","1","0.000","0.000","0.524","0.000","0.000","0.048","14.1063620","0.429","0.524","338","7089","2020-07-03 16:34:00"
"8558","Polonuevo","8","Atlantico","10.77772451","-74.85425725","110","149","4","35","104","4","2","6","3","2.000","0.040","0.698","0.027","0.013","0.027","20.4655922","0.235","0.738","131","4886","2020-07-03 16:34:00"
"8560","Ponedera","8","Atlantico","10.64179593","-74.75390044","45","65","1","19","39","3","1","4","11","0.364","0.062","0.600","0.046","0.015","0.015","3.8868159","0.292","0.692","396","25728","2020-07-03 16:34:00"
"8573","Puerto Colombia","8","Atlantico","11.02294005","-74.85196357","391","506","17","98","378","11","0","11","344","0.032","0.022","0.747","0.022","0.000","0.034","31.6874499","0.194","0.773","106","3156","2020-07-03 16:34:00"
"8606","Repelon","8","Atlantico","10.49334167","-75.12548162","32","36","3","1","26","5","0","5","1","5.000","0.139","0.722","0.139","0.000","0.083","10.6753968","0.028","0.889","781","9367","2020-07-03 16:34:00"
"8634","Sabanagrande","8","Atlantico","10.79107595","-74.75850721","215","383","10","158","192","20","2","22","41","0.537","0.057","0.501","0.052","0.005","0.026","28.5030213","0.413","0.561","92","3508","2020-07-03 16:34:00"
"8638","Sabanalarga","8","Atlantico","10.63283523","-74.92109368","238","386","11","137","225","11","1","12","114","0.105","0.031","0.583","0.028","0.003","0.028","10.9946126","0.355","0.617","259","9095","2020-07-03 16:34:00"
"8675","Santa Lucia","8","Atlantico","10.32327321","-74.95897145","32","43","1","10","32","0","0","0","0","","0.000","0.744","0.000","0.000","0.023","5.8465856","0.233","0.744","398","17104","2020-07-03 16:34:00"
"8685","Santo Tomas","8","Atlantico","10.75605629","-74.75411186","120","199","5","74","108","9","3","12","32","0.375","0.060","0.543","0.045","0.015","0.025","15.6250000","0.372","0.603","161","6400","2020-07-03 16:34:00"
"8758","Soledad","8","Atlantico","10.91017447","-74.78483338","3903","6620","326","2391","3539","288","61","349","327","1.067","0.053","0.535","0.044","0.009","0.049","49.0210084","0.361","0.590","100","2040","2020-07-03 16:34:00"
"8770","Suan","8","Atlantico","10.33543138","-74.88168748","24","28","0","4","20","4","0","4","1","4.000","0.143","0.714","0.143","0.000","0.000","0.0000000","0.143","0.857","449","","2020-07-03 16:34:00"
"8832","Tubara","8","Atlantico","10.87364774","-74.97867947","77","102","6","19","71","3","2","5","2","2.500","0.049","0.696","0.029","0.020","0.059","31.8369946","0.186","0.755","185","3141","2020-07-03 16:34:00"
"8849","Usiacuri","8","Atlantico","10.74297819","-74.97698261","51","70","2","17","50","1","0","1","1","1.000","0.014","0.714","0.014","0.000","0.029","15.2160682","0.243","0.729","188","6572","2020-07-03 16:34:00"
"11001","Bogota D.C.","11","Bogota D.C.","4.65017303","-74.107359","19885","34131","762","13484","17909","1791","141","1932","7247","0.267","0.057","0.525","0.052","0.004","0.022","9.8399332","0.395","0.583","227","10163","2020-07-03 16:34:00"
"13001","Cartagena de Indias","13","Bolivar","10.38498552","-75.49643103","3970","8801","349","4482","3692","213","54","267","1588","0.168","0.030","0.419","0.024","0.006","0.040","33.9251275","0.509","0.451","117","2948","2020-07-03 16:34:00"
"13006","Achi","13","Bolivar","8.569110393","-74.55706395","2","2","0","0","0","2","0","2","7","0.286","1.000","0.000","1.000","0.000","0.000","0.0000000","0.000","1.000","12450","","2020-07-03 16:34:00"
"13030","Altos del Rosario","13","Bolivar","8.791606399","-74.16504945","0","1","1","0","0","0","0","0","2","0.000","0.000","0.000","0.000","0.000","1.000","8.6318515","0.000","0.000","11585","11585","2020-07-03 16:34:00"
"13042","Arenal","13","Bolivar","8.458630438","-73.94111583","1","2","0","1","1","0","0","0","4","0.000","0.000","0.500","0.000","0.000","0.000","0.0000000","0.500","0.500","3888","","2020-07-03 16:34:00"
"13052","Arjona","13","Bolivar","10.25663152","-75.34448845","106","169","6","57","101","4","1","5","10","0.500","0.030","0.598","0.024","0.006","0.036","8.1378001","0.337","0.627","436","12288","2020-07-03 16:34:00"
"13062","Arroyohondo","13","Bolivar","10.24279848","-75.01719268","1","1","0","0","0","1","0","1","1","1.000","1.000","0.000","1.000","0.000","0.000","0.0000000","0.000","1.000","8710","","2020-07-03 16:34:00"
"13074","Barranco de Loba","13","Bolivar","8.947730158","-74.10522428","0","1","1","0","0","0","0","0","6","0.000","0.000","0.000","0.000","0.000","1.000","6.5871813","0.000","0.000","15181","15181","2020-07-03 16:34:00"
"13140","Calamar","13","Bolivar","10.25196336","-74.91362928","41","43","1","1","41","0","0","0","7","0.000","0.000","0.953","0.000","0.000","0.023","4.3295666","0.023","0.953","537","23097","2020-07-03 16:34:00"
"13188","Cicuco","13","Bolivar","9.274745598","-74.64549419","2","2","0","0","1","1","0","1","1","1.000","0.500","0.500","0.500","0.000","0.000","0.0000000","0.000","1.000","7151","","2020-07-03 16:34:00"
"13222","Clemencia","13","Bolivar","10.56754177","-75.32851201","6","11","2","3","5","0","0","0","3","0.000","0.000","0.455","0.000","0.000","0.182","12.9424707","0.273","0.545","1405","7727","2020-07-03 16:34:00"
"13244","El Carmen de Bolivar","13","Bolivar","9.718579864","-75.12121573","38","52","4","10","34","2","1","3","49","0.061","0.058","0.654","0.038","0.019","0.077","5.5100214","0.192","0.731","1396","18149","2020-07-03 16:34:00"
"13430","Magangue","13","Bolivar","9.268563794","-74.77017457","134","147","6","7","102","30","0","30","220","0.136","0.204","0.694","0.204","0.000","0.041","4.2809441","0.048","0.912","953","23359","2020-07-03 16:34:00"
"13433","Mahates","13","Bolivar","10.23325452","-75.19133659","42","59","1","16","40","1","0","1","10","0.100","0.017","0.678","0.017","0.000","0.017","3.4065747","0.271","0.712","498","29355","2020-07-03 16:34:00"
"13442","Maria la Baja","13","Bolivar","9.982645517","-75.30075935","9","14","1","4","8","0","1","1","1","1.000","0.071","0.571","0.000","0.071","0.071","2.0636853","0.286","0.643","3461","48457","2020-07-03 16:34:00"
"13458","Montecristo","13","Bolivar","8.297136275","-74.47170385","1","1","0","0","1","0","0","0","4","0.000","0.000","1.000","0.000","0.000","0.000","0.0000000","0.000","1.000","17604","","2020-07-03 16:34:00"
"13468","Mompos","13","Bolivar","9.243883757","-74.42786642","6","7","0","1","1","4","0","4","36","0.111","0.571","0.143","0.571","0.000","0.000","0.0000000","0.143","0.857","6630","","2020-07-03 16:34:00"
"13549","Pinillos","13","Bolivar","8.915452234","-74.46240354","2","2","0","0","1","0","0","0","4","0.000","0.000","0.500","0.000","0.000","0.000","0.0000000","0.000","1.000","12353","","2020-07-03 16:34:00"
"13620","San Cristobal","13","Bolivar","10.39285577","-75.06553417","11","12","0","1","11","0","0","0","1","0.000","0.000","0.917","0.000","0.000","0.000","0.0000000","0.083","0.917","714","","2020-07-03 16:34:00"
"13647","San Estanislao","13","Bolivar","10.3984757","-75.15325792","1","1","0","0","1","0","0","0","1","0.000","0.000","1.000","0.000","0.000","0.000","0.0000000","0.000","1.000","19128","","2020-07-03 16:34:00"
"13654","San Jacinto","13","Bolivar","9.830219073","-75.1210888","2","3","0","1","1","0","1","1","7","0.143","0.333","0.333","0.000","0.333","0.000","0.0000000","0.333","0.667","8184","","2020-07-03 16:34:00"
"13657","San Juan Nepomuceno","13","Bolivar","9.953454388","-75.08135293","14","22","1","7","14","0","0","0","8","0.000","0.000","0.636","0.000","0.000","0.045","2.5954476","0.318","0.636","1751","38529","2020-07-03 16:34:00"
"13670","San Pablo","13","Bolivar","7.476720672","-73.92416855","6","7","0","1","5","1","0","1","6","0.167","0.143","0.714","0.143","0.000","0.000","0.0000000","0.143","0.857","4106","","2020-07-03 16:34:00"
"13673","Santa Catalina","13","Bolivar","10.60505605","-75.28776411","7","12","0","5","6","1","0","1","5","0.200","0.083","0.500","0.083","0.000","0.000","0.0000000","0.417","0.583","1246","","2020-07-03 16:34:00"
"13683","Santa Rosa","13","Bolivar","10.44439608","-75.36983166","24","75","6","45","19","3","1","4","16","0.250","0.053","0.253","0.040","0.013","0.080","26.7749565","0.600","0.320","299","3735","2020-07-03 16:34:00"
"13688","Santa Rosa del Sur","13","Bolivar","7.962854831","-74.05284001","1","4","0","3","0","1","0","1","11","0.091","0.250","0.000","0.250","0.000","0.000","0.0000000","0.750","0.250","8642","","2020-07-03 16:34:00"
"13760","Soplaviento","13","Bolivar","10.38845743","-75.13642551","9","9","0","0","9","0","0","0","3","0.000","0.000","1.000","0.000","0.000","0.000","0.0000000","0.000","1.000","1204","","2020-07-03 16:34:00"
"13810","Tiquisio","13","Bolivar","8.507047679","-74.33825319","14","14","0","0","11","2","0","2","4","0.500","0.143","0.786","0.143","0.000","0.000","0.0000000","0.000","1.000","1360","","2020-07-03 16:34:00"
"13836","Turbaco","13","Bolivar","10.33276916","-75.42440917","138","267","8","121","132","4","1","5","70","0.071","0.019","0.494","0.015","0.004","0.030","7.0521862","0.453","0.517","425","14180","2020-07-03 16:34:00"
"13838","Turbana","13","Bolivar","10.27440205","-75.44250247","22","48","3","23","20","2","0","2","1","2.000","0.042","0.417","0.042","0.000","0.063","17.2294969","0.479","0.458","363","5804","2020-07-03 16:34:00"
"13873","Villanueva","13","Bolivar","10.44449833","-75.27475439","30","63","4","29","28","1","1","2","1","2.000","0.032","0.444","0.016","0.016","0.063","15.8535135","0.460","0.476","400","6308","2020-07-03 16:34:00"
"13894","Zambrano","13","Bolivar","9.7469139","-74.8138396","2","2","0","0","2","0","0","0","5","0.000","0.000","1.000","0.000","0.000","0.000","0.0000000","0.000","1.000","6161","","2020-07-03 16:34:00"
"15001","Tunja","15","Boyaca","5.539953238","-73.35548873","47","121","3","71","40","6","0","6","299","0.020","0.050","0.331","0.050","0.000","0.025","1.6735188","0.587","0.388","1482","59754","2020-07-03 16:34:00"
"15047","Aquitania","15","Boyaca","5.518603543","-72.88398481","0","2","0","2","0","0","0","0","3","0.000","0.000","0.000","0.000","0.000","0.000","0.0000000","1.000","0.000","7773","","2020-07-03 16:34:00"
"15109","Buenavista","15","Boyaca","5.512431151","-73.94230522","0","1","0","1","0","0","0","0","0","","0.000","0.000","0.000","0.000","0.000","0.0000000","1.000","0.000","4396","","2020-07-03 16:34:00"
"15131","Caldas","15","Boyaca","5.554575079","-73.865541","0","1","0","1","0","0","0","0","0","","0.000","0.000","0.000","0.000","0.000","0.0000000","1.000","0.000","3126","","2020-07-03 16:34:00"
"15176","Chiquinquira","15","Boyaca","5.61412789","-73.81838763","10","28","1","17","10","0","0","0","47","0.000","0.000","0.357","0.000","0.000","0.036","1.7260723","0.607","0.357","2069","57935","2020-07-03 16:34:00"
"15204","Combita","15","Boyaca","5.634545314","-73.32395642","3","8","0","5","3","0","0","0","0","","0.000","0.375","0.000","0.000","0.000","0.0000000","0.625","0.375","1660","","2020-07-03 16:34:00"
"15212","Coper","15","Boyaca","5.474983018","-74.04546072","0","1","0","1","0","0","0","0","0","","0.000","0.000","0.000","0.000","0.000","0.0000000","1.000","0.000","3571","","2020-07-03 16:34:00"
"15215","Corrales","15","Boyaca","5.828102208","-72.84479484","0","1","0","1","0","0","0","0","0","","0.000","0.000","0.000","0.000","0.000","0.0000000","1.000","0.000","2545","","2020-07-03 16:34:00"
"15218","Covarachia","15","Boyaca","6.50017746","-72.73897793","0","1","1","0","0","0","0","0","0","","0.000","0.000","0.000","0.000","1.000","37.0096225","0.000","0.000","2702","2702","2020-07-03 16:34:00"
"15223","Cubara","15","Boyaca","7.000092875","-72.11068776","1","3","0","2","0","0","0","0","3","0.000","0.000","0.000","0.000","0.000","0.000","0.0000000","0.667","0.333","3583","","2020-07-03 16:34:00"
"15224","Cucaita","15","Boyaca","5.544451559","-73.45433765","0","2","1","1","0","0","0","0","0","","0.000","0.000","0.000","0.000","0.500","26.4061262","0.500","0.000","1894","3787","2020-07-03 16:34:00"
"15238","Duitama","15","Boyaca","5.82298568","-73.03060967","34","61","0","27","25","8","0","8","110","0.073","0.131","0.410","0.131","0.000","0.000","0.0000000","0.443","0.557","2077","","2020-07-03 16:34:00"
"15272","Firavitoba","15","Boyaca","5.66892216","-72.99336145","0","3","0","3","0","0","0","0","0","","0.000","0.000","0.000","0.000","0.000","0.0000000","1.000","0.000","2267","","2020-07-03 16:34:00"
"15296","Gameza","15","Boyaca","5.802337805","-72.80552935","1","1","0","0","0","0","1","1","0","","1.000","0.000","0.000","1.000","0.000","0.0000000","0.000","1.000","4851","","2020-07-03 16:34:00"
"15299","Garagoa","15","Boyaca","5.083243463","-73.36442756","0","4","1","3","0","0","0","0","15","0.000","0.000","0.000","0.000","0.000","0.250","5.4579194","0.750","0.000","4581","18322","2020-07-03 16:34:00"
"15322","Guateque","15","Boyaca","5.007320895","-73.47120697","3","14","1","10","3","0","0","0","15","0.000","0.000","0.214","0.000","0.000","0.071","9.1709464","0.714","0.214","779","10904","2020-07-03 16:34:00"
"15325","Guayata","15","Boyaca","4.967122531","-73.4896964","2","2","0","0","1","1","0","1","0","","0.500","0.500","0.500","0.000","0.000","0.0000000","0.000","1.000","1696","","2020-07-03 16:34:00"
"15403","La Uvita","15","Boyaca","6.316206406","-72.5599847","1","1","0","0","1","0","0","0","0","","0.000","1.000","0.000","0.000","0.000","0.0000000","0.000","1.000","2730","","2020-07-03 16:34:00"
"15407","Villa de Leyva","15","Boyaca","5.632661849","-73.5246846","0","5","0","5","0","0","0","0","3","0.000","0.000","0.000","0.000","0.000","0.000","0.0000000","1.000","0.000","3395","","2020-07-03 16:34:00"
"15455","Miraflores","15","Boyaca","5.196515115","-73.14563048","0","1","0","1","0","0","0","0","6","0.000","0.000","0.000","0.000","0.000","0.000","0.0000000","1.000","0.000","9015","","2020-07-03 16:34:00"
"15469","Moniquira","15","Boyaca","5.876334811","-73.57337039","4","9","0","5","4","0","0","0","19","0.000","0.000","0.444","0.000","0.000","0.000","0.0000000","0.556","0.444","2560","","2020-07-03 16:34:00"
"15480","Muzo","15","Boyaca","5.532462867","-74.10275078","0","1","0","1","0","0","0","0","4","0.000","0.000","0.000","0.000","0.000","0.000","0.0000000","1.000","0.000","8394","","2020-07-03 16:34:00"
"15491","Nobsa","15","Boyaca","5.771042624","-72.93985317","1","1","0","0","1","0","0","0","0","","0.000","1.000","0.000","0.000","0.000","0.0000000","0.000","1.000","16446","","2020-07-03 16:34:00"
"15494","Nuevo Colon","15","Boyaca","5.355145864","-73.45713618","0","1","0","1","0","0","0","0","0","","0.000","0.000","0.000","0.000","0.000","0.0000000","1.000","0.000","5217","","2020-07-03 16:34:00"
"15500","Oicata","15","Boyaca","5.595234239","-73.30840398","0","1","0","1","0","0","0","0","22","0.000","0.000","0.000","0.000","0.000","0.000","0.0000000","1.000","0.000","2890","","2020-07-03 16:34:00"
"15516","Paipa","15","Boyaca","5.77994187","-73.11791688","2","6","1","3","0","1","0","1","4","0.250","0.167","0.000","0.167","0.000","0.167","2.8835895","0.500","0.333","5780","34679","2020-07-03 16:34:00"
"15531","Pauna","15","Boyaca","5.656322691","-73.97844872","0","1","0","1","0","0","0","0","2","0.000","0.000","0.000","0.000","0.000","0.000","0.0000000","1.000","0.000","7212","","2020-07-03 16:34:00"
"15533","Paya","15","Boyaca","5.625698707","-72.42377541","0","2","0","2","0","0","0","0","0","","0.000","0.000","0.000","0.000","0.000","0.0000000","1.000","0.000","1318","","2020-07-03 16:34:00"
"15572","Puerto Boyaca","15","Boyaca","5.977934952","-74.58799919","3","3","0","0","3","0","0","0","17","0.000","0.000","1.000","0.000","0.000","0.000","0.0000000","0.000","1.000","16090","","2020-07-03 16:34:00"
"15599","Ramiriqui","15","Boyaca","5.400221644","-73.33486896","2","2","0","0","2","0","0","0","4","0.000","0.000","1.000","0.000","0.000","0.000","0.0000000","0.000","1.000","5038","","2020-07-03 16:34:00"
"15646","Samaca","15","Boyaca","5.492314591","-73.48564359","2","4","1","1","2","0","0","0","3","0.000","0.000","0.500","0.000","0.000","0.250","5.3140610","0.250","0.500","4705","18818","2020-07-03 16:34:00"
"15676","San Miguel de Sema","15","Boyaca","5.518086388","-73.72200484","0","1","0","1","0","0","0","0","0","","0.000","0.000","0.000","0.000","0.000","0.0000000","1.000","0.000","3011","","2020-07-03 16:34:00"
"15686","Santana","15","Boyaca","6.057413107","-73.48122632","0","4","0","4","0","0","0","0","0","","0.000","0.000","0.000","0.000","0.000","0.0000000","1.000","0.000","1928","","2020-07-03 16:34:00"
"15693","Santa Rosa de Viterbo","15","Boyaca","5.874555597","-72.98246092","0","1","0","1","0","0","0","0","0","","0.000","0.000","0.000","0.000","0.000","0.0000000","1.000","0.000","13325","","2020-07-03 16:34:00"
"15696","Santa Sofia","15","Boyaca","5.713269421","-73.60270717","0","1","0","1","0","0","0","0","0","","0.000","0.000","0.000","0.000","0.000","0.0000000","1.000","0.000","3212","","2020-07-03 16:34:00"
"15757","Socha","15","Boyaca","5.996713021","-72.69196586","0","4","0","4","0","0","0","0","2","0.000","0.000","0.000","0.000","0.000","0.000","0.0000000","1.000","0.000","2022","","2020-07-03 16:34:00"
"15759","Sogamoso","15","Boyaca","5.72568939","-72.92304769","36","51","1","14","28","5","2","7","171","0.041","0.137","0.549","0.098","0.039","0.020","0.7627474","0.275","0.706","2571","131105","2020-07-03 16:34:00"
"15774","Susacon","15","Boyaca","6.230332074","-72.69028925","4","4","0","0","3","1","0","1","0","","0.250","0.750","0.250","0.000","0.000","0.0000000","0.000","1.000","676","","2020-07-03 16:34:00"
"15776","Sutamarchan","15","Boyaca","5.619781419","-73.6205861","3","17","0","14","3","0","0","0","0","","0.000","0.176","0.000","0.000","0.000","0.0000000","0.824","0.176","366","","2020-07-03 16:34:00"
"15790","Tasco","15","Boyaca","5.909821031","-72.78101116","0","1","1","0","0","0","0","0","0","","0.000","0.000","0.000","0.000","1.000","17.2651934","0.000","0.000","5792","5792","2020-07-03 16:34:00"
"15798","Tenza","15","Boyaca","5.077074351","-73.42058911","0","2","0","2","0","0","0","0","0","","0.000","0.000","0.000","0.000","0.000","0.0000000","1.000","0.000","1911","","2020-07-03 16:34:00"
"15808","Tinjaca","15","Boyaca","5.57971331","-73.64684734","0","1","0","1","0","0","0","0","0","","0.000","0.000","0.000","0.000","0.000","0.0000000","1.000","0.000","3351","","2020-07-03 16:34:00"
"15810","Tipacoque","15","Boyaca","6.418585803","-72.69317268","0","1","0","1","0","0","0","0","0","","0.000","0.000","0.000","0.000","0.000","0.0000000","1.000","0.000","3290","","2020-07-03 16:34:00"
"15814","Toca","15","Boyaca","5.56646915","-73.18479034","3","5","0","2","2","1","0","1","4","0.250","0.200","0.400","0.200","0.000","0.000","0.0000000","0.400","0.600","1779","","2020-07-03 16:34:00"
"15816","Togui","15","Boyaca","5.937438225","-73.51365506","0","14","0","14","0","0","0","0","0","","0.000","0.000","0.000","0.000","0.000","0.0000000","1.000","0.000","310","","2020-07-03 16:34:00"
"15835","Turmeque","15","Boyaca","5.323252768","-73.49184702","0","3","0","3","0","0","0","0","2","0.000","0.000","0.000","0.000","0.000","0.000","0.0000000","1.000","0.000","2052","","2020-07-03 16:34:00"
"15861","Ventaquemada","15","Boyaca","5.368733979","-73.52237325","0","6","0","6","0","0","0","0","0","","0.000","0.000","0.000","0.000","0.000","0.0000000","1.000","0.000","2682","","2020-07-03 16:34:00"
"15879","Viracacha","15","Boyaca","5.436788535","-73.29689965","0","1","0","1","0","0","0","0","0","","0.000","0.000","0.000","0.000","0.000","0.0000000","1.000","0.000","2809","","2020-07-03 16:34:00"
"17001","Manizales","17","Caldas","5.057688197","-75.49104898","51","137","2","84","44","5","1","6","796","0.008","0.044","0.321","0.036","0.007","0.015","0.4482697","0.613","0.372","3257","223080","2020-07-03 16:34:00"
"17013","Aguadas","17","Caldas","5.610244456","-75.45486967","0","1","0","1","0","0","0","0","8","0.000","0.000","0.000","0.000","0.000","0.000","0.0000000","1.000","0.000","23048","","2020-07-03 16:34:00"
"17042","Anserma","17","Caldas","5.236474391","-75.78434266","0","1","0","1","0","0","0","0","10","0.000","0.000","0.000","0.000","0.000","0.000","0.0000000","1.000","0.000","36691","","2020-07-03 16:34:00"
"17050","Aranzazu","17","Caldas","5.271141768","-75.49125461","1","1","0","0","1","0","0","0","6","0.000","0.000","1.000","0.000","0.000","0.000","0.0000000","0.000","1.000","10556","","2020-07-03 16:34:00"
"17174","Chinchina","17","Caldas","4.985812862","-75.60748073","2","10","0","8","1","1","0","1","38","0.026","0.100","0.100","0.100","0.000","0.000","0.0000000","0.800","0.200","5227","","2020-07-03 16:34:00"
"17380","La Dorada","17","Caldas","5.444406098","-74.65820562","18","81","2","61","16","2","0","2","61","0.033","0.025","0.198","0.025","0.000","0.025","2.7024836","0.753","0.222","914","37003","2020-07-03 16:34:00"
"17433","Manzanares","17","Caldas","5.255720253","-75.15282885","0","2","1","1","0","0","0","0","5","0.000","0.000","0.000","0.000","0.000","0.500","5.6198719","0.500","0.000","8897","17794","2020-07-03 16:34:00"
"17442","Marmato","17","Caldas","5.47400482","-75.60024162","0","1","0","1","0","0","0","0","5","0.000","0.000","0.000","0.000","0.000","0.000","0.0000000","1.000","0.000","9167","","2020-07-03 16:34:00"
"17444","Marquetalia","17","Caldas","5.297524561","-75.05309703","0","7","0","7","0","0","0","0","5","0.000","0.000","0.000","0.000","0.000","0.000","0.0000000","1.000","0.000","1927","","2020-07-03 16:34:00"
"17486","Neira","17","Caldas","5.166705703","-75.51984208","0","1","0","1","0","0","0","0","7","0.000","0.000","0.000","0.000","0.000","0.000","0.0000000","1.000","0.000","21114","","2020-07-03 16:34:00"
"17495","Norcasia","17","Caldas","5.574795393","-74.88954408","0","1","1","0","0","0","0","0","4","0.000","0.000","0.000","0.000","0.000","1.000","16.3185379","0.000","0.000","6128","6128","2020-07-03 16:34:00"
"17614","Riosucio","17","Caldas","5.423680913","-75.70206971","1","3","0","2","1","0","0","0","14","0.000","0.000","0.333","0.000","0.000","0.000","0.0000000","0.667","0.333","17319","","2020-07-03 16:34:00"
"17616","Risaralda","17","Caldas","5.164508957","-75.76721954","0","1","0","1","0","0","0","0","6","0.000","0.000","0.000","0.000","0.000","0.000","0.0000000","1.000","0.000","10568","","2020-07-03 16:34:00"
"17662","Samana","17","Caldas","5.413086301","-74.99225776","0","2","0","2","0","0","0","0","9","0.000","0.000","0.000","0.000","0.000","0.000","0.0000000","1.000","0.000","9984","","2020-07-03 16:34:00"
"17873","Villamaria","17","Caldas","5.043806686","-75.5137606","3","15","1","11","2","1","0","1","7","0.143","0.067","0.133","0.067","0.000","0.067","1.4830414","0.733","0.200","4495","67429","2020-07-03 16:34:00"
"17877","Viterbo","17","Caldas","5.062664236","-75.87060986","1","3","0","2","1","0","0","0","3","0.000","0.000","0.333","0.000","0.000","0.000","0.0000000","0.667","0.333","4284","","2020-07-03 16:34:00"
"18001","Florencia","18","Caqueta","1.61792293","-75.60856043","19","42","1","22","16","3","0","3","257","0.012","0.071","0.381","0.071","0.000","0.024","0.5779979","0.524","0.452","4119","173011","2020-07-03 16:34:00"
"18753","San Vicente del Caguan","18","Caqueta","2.119786131","-74.76734058","1","1","0","0","0","0","0","0","8","0.000","0.000","0.000","0.000","0.000","0.000","0.0000000","0.000","1.000","52593","","2020-07-03 16:34:00"
"19001","Popayan","19","Cauca","2.482503391","-76.57406468","125","185","3","57","110","10","5","15","660","0.023","0.081","0.595","0.054","0.027","0.016","0.9217241","0.308","0.676","1759","108492","2020-07-03 16:34:00"
"19050","Argelia","19","Cauca","2.256754909","-77.24945028","1","1","0","0","0","1","0","1","3","0.333","1.000","0.000","1.000","0.000","0.000","0.0000000","0.000","1.000","26588","","2020-07-03 16:34:00"
"19075","Balboa","19","Cauca","2.040478768","-77.21589814","7","7","0","0","6","1","0","1","3","0.333","0.143","0.857","0.143","0.000","0.000","0.0000000","0.000","1.000","3062","","2020-07-03 16:34:00"
"19110","Buenos Aires","19","Cauca","3.01542683","-76.64228059","0","2","1","1","0","0","0","0","3","0.000","0.000","0.000","0.000","0.000","0.500","3.1202222","0.500","0.000","16025","32049","2020-07-03 16:34:00"
"19130","Cajibio","19","Cauca","2.623338254","-76.57088427","0","1","1","0","0","0","0","0","4","0.000","0.000","0.000","0.000","0.000","1.000","2.3346485","0.000","0.000","42833","42833","2020-07-03 16:34:00"
"19137","Caldono","19","Cauca","2.798130826","-76.48444786","1","1","0","0","0","1","0","1","24","0.042","1.000","0.000","1.000","0.000","0.000","0.0000000","0.000","1.000","41770","","2020-07-03 16:34:00"
"19142","Caloto","19","Cauca","3.034070778","-76.40848704","3","5","0","2","2","1","0","1","4","0.250","0.200","0.400","0.200","0.000","0.000","0.0000000","0.400","0.600","6043","","2020-07-03 16:34:00"
"19212","Corinto","19","Cauca","3.173815457","-76.26131419","1","2","1","0","0","0","1","1","3","0.333","0.500","0.000","0.000","0.500","0.500","3.9308176","0.000","0.500","12720","25440","2020-07-03 16:34:00"
"19256","El Tambo","19","Cauca","2.45137136","-76.81077225","1","6","0","5","1","0","0","0","5","0.000","0.000","0.167","0.000","0.000","0.000","0.0000000","0.833","0.167","8962","","2020-07-03 16:34:00"
"19300","Guachene","19","Cauca","3.134153295","-76.39218874","1","3","0","2","1","0","0","0","0","","0.000","0.333","0.000","0.000","0.000","0.0000000","0.667","0.333","6673","","2020-07-03 16:34:00"
"19318","Guapi","19","Cauca","2.572918366","-77.88803347","32","35","3","0","27","3","2","5","9","0.556","0.143","0.771","0.086","0.057","0.086","10.8318891","0.000","0.914","791","9232","2020-07-03 16:34:00"
"19418","Lopez de Micay","19","Cauca","2.846715932","-77.24769154","0","1","0","1","0","0","0","0","4","0.000","0.000","0.000","0.000","0.000","0.000","0.0000000","1.000","0.000","18932","","2020-07-03 16:34:00"
"19455","Miranda","19","Cauca","3.253095405","-76.22886987","15","25","2","8","11","3","1","4","3","1.333","0.160","0.440","0.120","0.040","0.080","6.2340253","0.320","0.600","1283","16041","2020-07-03 16:34:00"
"19532","Patia","19","Cauca","2.069200142","-77.05327491","0","1","0","1","0","0","0","0","7","0.000","0.000","0.000","0.000","0.000","0.000","0.0000000","1.000","0.000","37494","","2020-07-03 16:34:00"
"19548","Piendamo","19","Cauca","2.641987578","-76.52850592","7","23","1","15","6","1","0","1","5","0.200","0.043","0.261","0.043","0.000","0.043","2.3902287","0.652","0.304","1819","41837","2020-07-03 16:34:00"
"19573","Puerto Tejada","19","Cauca","3.233294127","-76.4173078","37","87","3","47","28","7","2","9","9","1.000","0.103","0.322","0.080","0.023","0.034","7.1782356","0.540","0.425","480","13931","2020-07-03 16:34:00"
"19622","Rosas","19","Cauca","2.260979699","-76.74035187","1","1","0","0","1","0","0","0","2","0.000","0.000","1.000","0.000","0.000","0.000","0.0000000","0.000","1.000","11539","","2020-07-03 16:34:00"
"19698","Santander de Quilichao","19","Cauca","3.016053901","-76.48537029","22","37","1","14","18","2","2","4","32","0.125","0.108","0.486","0.054","0.054","0.027","0.8849479","0.378","0.595","3054","113001","2020-07-03 16:34:00"
"19743","Silvia","19","Cauca","2.611815645","-76.37957042","5","7","1","1","5","0","0","0","10","0.000","0.000","0.714","0.000","0.000","0.143","2.6272233","0.143","0.714","5438","38063","2020-07-03 16:34:00"
"19807","Timbio","19","Cauca","2.349976425","-76.68423879","3","6","0","3","3","0","0","0","5","0.000","0.000","0.500","0.000","0.000","0.000","0.0000000","0.500","0.500","6048","","2020-07-03 16:34:00"
"19809","Timbiqui","19","Cauca","2.777413702","-77.66756524","5","16","2","9","0","5","0","5","4","1.250","0.313","0.000","0.313","0.000","0.125","7.5168189","0.563","0.313","1663","13304","2020-07-03 16:34:00"
"19824","Totoro","19","Cauca","2.510229193","-76.40244251","0","1","0","1","0","0","0","0","4","0.000","0.000","0.000","0.000","0.000","0.000","0.0000000","1.000","0.000","25612","","2020-07-03 16:34:00"
"19845","Villa rica","19","Cauca","3.177577926","-76.45787266","22","24","1","1","20","2","0","2","1","2.000","0.083","0.833","0.083","0.000","0.042","4.6886722","0.042","0.917","889","21328","2020-07-03 16:34:00"
"20001","Valledupar","20","Cesar","10.46048122","-73.25938931","353","719","15","351","307","42","3","45","1264","0.036","0.063","0.427","0.058","0.004","0.021","2.8144913","0.488","0.491","741","35530","2020-07-03 16:34:00"
"20011","Aguachica","20","Cesar","8.310336958","-73.59902859","23","41","1","17","19","4","0","4","185","0.022","0.098","0.463","0.098","0.000","0.024","0.8428008","0.415","0.561","2894","118652","2020-07-03 16:34:00"
"20013","Agustin Codazzi","20","Cesar","10.04045799","-73.23839617","58","95","1","36","52","4","2","6","59","0.102","0.063","0.547","0.042","0.021","0.011","1.5461686","0.379","0.611","681","64676","2020-07-03 16:34:00"
"20045","Becerril","20","Cesar","9.704606116","-73.27923167","1","3","0","2","1","0","0","0","7","0.000","0.000","0.333","0.000","0.000","0.000","0.0000000","0.667","0.333","7769","","2020-07-03 16:34:00"
"20060","Bosconia","20","Cesar","9.9750947","-73.88876766","63","76","0","13","62","1","0","1","95","0.011","0.013","0.816","0.013","0.000","0.000","0.0000000","0.171","0.829","570","","2020-07-03 16:34:00"
"20175","Chimichagua","20","Cesar","9.25827144","-73.81332845","5","5","0","0","4","1","0","1","9","0.111","0.200","0.800","0.200","0.000","0.000","0.0000000","0.000","1.000","7246","","2020-07-03 16:34:00"
"20178","Chiriguana","20","Cesar","9.361189611","-73.60014444","5","11","1","5","3","2","0","2","37","0.054","0.182","0.273","0.182","0.000","0.091","3.3747300","0.455","0.455","2694","29632","2020-07-03 16:34:00"
"20228","Curumani","20","Cesar","9.201810592","-73.54098652","8","13","0","5","5","3","0","3","14","0.214","0.231","0.385","0.231","0.000","0.000","0.0000000","0.385","0.615","3051","","2020-07-03 16:34:00"
"20238","El Copey","20","Cesar","10.14952543","-73.96271744","6","26","1","19","6","0","0","0","14","0.000","0.000","0.231","0.000","0.000","0.038","3.1595577","0.731","0.231","1217","31650","2020-07-03 16:34:00"
"20250","El Paso","20","Cesar","9.668470391","-73.74178848","2","3","0","1","0","2","0","2","6","0.333","0.667","0.000","0.667","0.000","0.000","0.0000000","0.333","0.667","13619","","2020-07-03 16:34:00"
"20295","Gamarra","20","Cesar","8.320449051","-73.74376","8","8","0","0","7","1","0","1","6","0.167","0.125","0.875","0.125","0.000","0.000","0.0000000","0.000","1.000","1983","","2020-07-03 16:34:00"
"20310","Gonzalez","20","Cesar","8.389604097","-73.38003986","10","31","0","21","9","0","0","0","1","0.000","0.000","0.290","0.000","0.000","0.000","0.0000000","0.677","0.323","147","","2020-07-03 16:34:00"
"20383","La Gloria","20","Cesar","8.619297878","-73.80321012","10","11","1","0","10","0","0","0","3","0.000","0.000","0.909","0.000","0.000","0.091","5.4206418","0.000","0.909","1677","18448","2020-07-03 16:34:00"
"20400","La Jagua de Ibirico","20","Cesar","9.5638873","-73.33422791","7","9","1","1","5","2","0","2","32","0.063","0.222","0.556","0.222","0.000","0.111","1.9628626","0.111","0.778","5661","50946","2020-07-03 16:34:00"
"20443","Manaure Balcon del Cesar","20","Cesar","10.39089864","-73.02832046","2","2","0","0","0","2","0","2","4","0.500","1.000","0.000","1.000","0.000","0.000","0.0000000","0.000","1.000","5418","","2020-07-03 16:34:00"
"20517","Pailitas","20","Cesar","8.956033206","-73.62581668","1","1","0","0","0","1","0","1","22","0.045","1.000","0.000","1.000","0.000","0.000","0.0000000","0.000","1.000","19705","","2020-07-03 16:34:00"
"20550","Pelaya","20","Cesar","8.688650964","-73.66635487","11","11","0","0","9","2","0","2","5","0.400","0.182","0.818","0.182","0.000","0.000","0.0000000","0.000","1.000","2026","","2020-07-03 16:34:00"
"20570","Pueblo Bello","20","Cesar","10.4150616","-73.58901062","3","5","1","1","2","1","0","1","3","0.333","0.200","0.400","0.200","0.000","0.200","3.3970853","0.200","0.600","5887","29437","2020-07-03 16:34:00"
"20614","Rio de Oro","20","Cesar","8.292287384","-73.3863952","9","19","2","8","6","3","0","3","4","0.750","0.158","0.316","0.158","0.000","0.105","11.2403754","0.421","0.474","936","8897","2020-07-03 16:34:00"
"20621","La Paz","20","Cesar","10.38748954","-73.17136291","14","28","0","14","12","2","0","2","2","1.000","0.071","0.429","0.071","0.000","0.000","0.0000000","0.500","0.500","1057","","2020-07-03 16:34:00"
"20710","San Alberto","20","Cesar","7.76082642","-73.39422534","2","2","0","0","2","0","0","0","7","0.000","0.000","1.000","0.000","0.000","0.000","0.0000000","0.000","1.000","14227","","2020-07-03 16:34:00"
"20750","San Diego","20","Cesar","10.33303286","-73.18121808","6","10","0","4","3","3","0","3","5","0.600","0.300","0.300","0.300","0.000","0.000","0.0000000","0.400","0.600","2047","","2020-07-03 16:34:00"
"20770","San Martin","20","Cesar","7.999895459","-73.51097518","16","21","2","3","14","2","0","2","6","0.333","0.095","0.667","0.095","0.000","0.095","6.9519274","0.143","0.762","1370","14385","2020-07-03 16:34:00"
"20787","Tamalameque","20","Cesar","8.861724986","-73.8121728","19","19","0","0","18","1","0","1","4","0.250","0.053","0.947","0.053","0.000","0.000","0.0000000","0.000","1.000","852","","2020-07-03 16:34:00"
"23001","Monteria","23","Cordoba","8.745132591","-75.87557791","290","438","26","122","225","54","9","63","1144","0.055","0.144","0.514","0.123","0.021","0.059","5.1451119","0.279","0.662","1154","19436","2020-07-03 16:34:00"
"23068","Ayapel","23","Cordoba","8.314446629","-75.14629076","4","4","0","0","1","1","1","2","24","0.083","0.500","0.250","0.250","0.250","0.000","0.0000000","0.000","1.000","11812","","2020-07-03 16:34:00"
"23079","Buenavista","23","Cordoba","8.221165554","-75.48089871","1","5","1","3","1","0","0","0","6","0.000","0.000","0.200","0.000","0.000","0.200","4.6617873","0.600","0.200","4290","21451","2020-07-03 16:34:00"
"23090","Canalete","23","Cordoba","8.786944523","-76.24139652","2","9","0","7","2","0","0","0","3","0.000","0.000","0.222","0.000","0.000","0.000","0.0000000","0.778","0.222","1715","","2020-07-03 16:34:00"
"23162","Cerete","23","Cordoba","8.888611812","-75.79621652","62","80","3","15","43","13","5","18","55","0.327","0.225","0.538","0.163","0.063","0.038","2.7672979","0.188","0.775","1355","36136","2020-07-03 16:34:00"
"23168","Chima","23","Cordoba","9.149480457","-75.62689551","0","1","0","1","0","0","0","0","6","0.000","0.000","0.000","0.000","0.000","0.000","0.0000000","1.000","0.000","17905","","2020-07-03 16:34:00"
"23182","Chinu","23","Cordoba","9.105294089","-75.39971962","12","15","1","2","5","5","2","7","8","0.875","0.467","0.333","0.333","0.133","0.067","2.0536411","0.133","0.800","3246","48694","2020-07-03 16:34:00"
"23189","Cienaga de Oro","23","Cordoba","8.875502246","-75.62078664","9","13","1","3","6","1","2","3","6","0.500","0.231","0.462","0.077","0.154","0.077","1.6523190","0.231","0.692","4655","60521","2020-07-03 16:34:00"
"23300","Cotorra","23","Cordoba","9.037088051","-75.79914949","4","6","1","1","4","0","0","0","6","0.000","0.000","0.667","0.000","0.000","0.167","5.1153512","0.167","0.667","3258","19549","2020-07-03 16:34:00"
"23350","La Apartada","23","Cordoba","8.05245366","-75.33901631","1","1","0","0","1","0","0","0","7","0.000","0.000","1.000","0.000","0.000","0.000","0.0000000","0.000","1.000","15218","","2020-07-03 16:34:00"
"23417","Lorica","23","Cordoba","9.240855143","-75.8159954","122","184","19","43","91","24","6","30","133","0.226","0.163","0.495","0.130","0.033","0.103","16.4557729","0.234","0.663","628","6077","2020-07-03 16:34:00"
"23419","Los Cordobas","23","Cordoba","8.892168997","-76.35519288","3","3","0","0","1","1","0","1","1","1.000","0.333","0.333","0.333","0.000","0.000","0.0000000","0.000","1.000","6438","","2020-07-03 16:34:00"
"23466","Montelibano","23","Cordoba","7.973777244","-75.41681813","6","11","2","3","5","1","0","1","35","0.029","0.091","0.455","0.091","0.000","0.182","2.3286953","0.273","0.545","7808","42943","2020-07-03 16:34:00"
"23500","Monitos","23","Cordoba","9.245280293","-76.12939619","1","1","0","0","1","0","0","0","6","0.000","0.000","1.000","0.000","0.000","0.000","0.0000000","0.000","1.000","30580","","2020-07-03 16:34:00"
"23555","Planeta Rica","23","Cordoba","8.408202562","-75.58324299","7","9","0","2","4","1","2","3","33","0.091","0.333","0.444","0.111","0.222","0.000","0.0000000","0.222","0.778","7197","","2020-07-03 16:34:00"
"23570","Pueblo Nuevo","23","Cordoba","8.504003297","-75.50797138","2","2","0","0","1","1","0","1","3","0.333","0.500","0.500","0.500","0.000","0.000","0.0000000","0.000","1.000","18243","","2020-07-03 16:34:00"
"23574","Puerto Escondido","23","Cordoba","9.005372178","-76.26041108","1","2","0","1","1","0","0","0","3","0.000","0.000","0.500","0.000","0.000","0.000","0.0000000","0.500","0.500","12182","","2020-07-03 16:34:00"
"23580","Puerto Libertador","23","Cordoba","7.888834815","-75.67179975","5","5","0","0","1","2","2","4","6","0.667","0.800","0.200","0.400","0.400","0.000","0.0000000","0.000","1.000","8715","","2020-07-03 16:34:00"
"23586","Purisima de la Concepcion","23","Cordoba","9.239299079","-75.72488526","0","2","0","2","0","0","0","0","13","0.000","0.000","0.000","0.000","0.000","0.000","0.0000000","1.000","0.000","8794","","2020-07-03 16:34:00"
"23660","Sahagun","23","Cordoba","8.943125416","-75.4459203","26","64","3","35","14","7","5","12","120","0.100","0.188","0.219","0.109","0.078","0.047","2.7215081","0.547","0.406","1722","36744","2020-07-03 16:34:00"
"23670","San Andres de Sotavento","23","Cordoba","9.145162943","-75.5088939","8","8","0","0","4","1","3","4","9","0.444","0.500","0.500","0.125","0.375","0.000","0.0000000","0.000","1.000","6005","","2020-07-03 16:34:00"
"23672","San Antero","23","Cordoba","9.376217345","-75.76077297","1","1","0","0","0","1","0","1","5","0.200","1.000","0.000","1.000","0.000","0.000","0.0000000","0.000","1.000","35035","","2020-07-03 16:34:00"
"23675","San Bernardo del Viento","23","Cordoba","9.352301989","-75.95474387","1","3","1","1","1","0","0","0","4","0.000","0.000","0.333","0.000","0.000","0.333","2.6972353","0.333","0.333","12358","37075","2020-07-03 16:34:00"
"23678","San Carlos","23","Cordoba","8.799106592","-75.69884549","0","1","1","0","0","0","0","0","13","0.000","0.000","0.000","0.000","0.000","1.000","3.6539024","0.000","0.000","27368","27368","2020-07-03 16:34:00"
"23686","San Pelayo","23","Cordoba","8.958010321","-75.83512552","4","4","0","0","3","1","0","1","3","0.333","0.250","0.750","0.250","0.000","0.000","0.0000000","0.000","1.000","13249","","2020-07-03 16:34:00"
"23807","Tierralta","23","Cordoba","8.170378684","-76.05969659","8","17","2","7","4","3","1","4","14","0.286","0.235","0.235","0.176","0.059","0.118","2.1013480","0.412","0.471","5599","47589","2020-07-03 16:34:00"
"23815","Tuchin","23","Cordoba","9.186965875","-75.55445092","10","13","2","1","7","2","1","3","4","0.750","0.231","0.538","0.154","0.077","0.154","3.6391426","0.077","0.769","4228","27479","2020-07-03 16:34:00"
"23855","Valencia","23","Cordoba","8.255016584","-76.15071869","10","13","1","2","5","4","1","5","6","0.833","0.385","0.385","0.308","0.077","0.077","2.7515615","0.154","0.769","2796","36343","2020-07-03 16:34:00"
"25001","Agua de Dios","25","Cundinamarca","4.375312017","-74.66921778","0","4","0","4","0","0","0","0","6","0.000","0.000","0.000","0.000","0.000","0.000","0.0000000","1.000","0.000","3081","","2020-07-03 16:34:00"
"25019","Alban","25","Cundinamarca","4.878022123","-74.43826109","0","1","0","1","0","0","0","0","0","","0.000","0.000","0.000","0.000","0.000","0.0000000","1.000","0.000","6879","","2020-07-03 16:34:00"
"25035","Anapoima","25","Cundinamarca","4.562956175","-74.52851753","34","80","0","46","32","2","0","2","0","","0.025","0.400","0.025","0.000","0.000","0.0000000","0.575","0.425","201","","2020-07-03 16:34:00"
"25040","Anolaima","25","Cundinamarca","4.761695213","-74.46384203","0","1","0","1","0","0","0","0","4","0.000","0.000","0.000","0.000","0.000","0.000","0.0000000","1.000","0.000","14577","","2020-07-03 16:34:00"
"25086","Beltran","25","Cundinamarca","4.802811459","-74.7418023","2","2","0","0","2","0","0","0","0","","0.000","1.000","0.000","0.000","0.000","0.0000000","0.000","1.000","943","","2020-07-03 16:34:00"
"25099","Bojaca","25","Cundinamarca","4.741758118","-74.34849164","2","2","0","0","2","0","0","0","0","","0.000","1.000","0.000","0.000","0.000","0.0000000","0.000","1.000","5546","","2020-07-03 16:34:00"
"25120","Cabrera","25","Cundinamarca","3.98461914","-74.48418723","0","1","0","1","0","0","0","0","0","","0.000","0.000","0.000","0.000","0.000","0.0000000","1.000","0.000","5062","","2020-07-03 16:34:00"
"25123","Cachipay","25","Cundinamarca","4.730954629","-74.4357071","2","5","0","3","2","0","0","0","0","","0.000","0.400","0.000","0.000","0.000","0.0000000","0.600","0.400","2141","","2020-07-03 16:34:00"
"25126","Cajica","25","Cundinamarca","4.920809059","-74.02345397","43","89","0","46","39","4","0","4","23","0.174","0.045","0.438","0.045","0.000","0.000","0.0000000","0.517","0.483","1045","","2020-07-03 16:34:00"
"25151","Caqueza","25","Cundinamarca","4.40410106","-73.9464742","9","18","1","8","8","1","0","1","26","0.038","0.056","0.444","0.056","0.000","0.056","5.5691691","0.444","0.500","998","17956","2020-07-03 16:34:00"
"25154","Carmen de Carupa","25","Cundinamarca","5.349115758","-73.90157376","1","1","0","0","1","0","0","0","6","0.000","0.000","1.000","0.000","0.000","0.000","0.0000000","0.000","1.000","7940","","2020-07-03 16:34:00"
"25175","Chia","25","Cundinamarca","4.866065424","-74.05034682","67","144","2","75","57","8","1","9","125","0.072","0.063","0.396","0.056","0.007","0.014","1.3371665","0.521","0.465","1039","74785","2020-07-03 16:34:00"
"25178","Chipaque","25","Cundinamarca","4.442671017","-74.04487563","4","15","2","9","4","0","0","0","0","","0.000","0.267","0.000","0.000","0.133","19.8846689","0.600","0.267","671","5029","2020-07-03 16:34:00"
"25181","Choachi","25","Cundinamarca","4.527047921","-73.92289448","1","2","0","1","0","1","0","1","0","","0.500","0.000","0.500","0.000","0.000","0.0000000","0.500","0.500","5764","","2020-07-03 16:34:00"
"25183","Choconta","25","Cundinamarca","5.145223894","-73.68352344","3","7","0","4","3","0","0","0","17","0.000","0.000","0.429","0.000","0.000","0.000","0.0000000","0.571","0.429","3183","","2020-07-03 16:34:00"
"25200","Cogua","25","Cundinamarca","5.061841798","-73.97849669","9","13","1","3","8","0","0","0","0","","0.000","0.615","0.000","0.000","0.077","4.0926578","0.231","0.692","1880","24434","2020-07-03 16:34:00"
"25214","Cota","25","Cundinamarca","4.812987769","-74.10272646","33","55","0","22","30","3","0","3","0","","0.055","0.545","0.055","0.000","0.000","0.0000000","0.400","0.600","673","","2020-07-03 16:34:00"
"25224","Cucunuba","25","Cundinamarca","5.249767987","-73.76621533","0","2","1","1","0","0","0","0","0","","0.000","0.000","0.000","0.000","0.500","12.1109362","0.500","0.000","4129","8257","2020-07-03 16:34:00"
"25245","El Colegio","25","Cundinamarca","4.579459662","-74.44255169","4","20","2","14","4","0","0","0","8","0.000","0.000","0.200","0.000","0.000","0.100","7.6405868","0.700","0.200","1309","13088","2020-07-03 16:34:00"
"25258","El Penon","25","Cundinamarca","5.249141171","-74.29128594","0","1","0","1","0","0","0","0","0","","0.000","0.000","0.000","0.000","0.000","0.0000000","1.000","0.000","4789","","2020-07-03 16:34:00"
"25260","El Rosal","25","Cundinamarca","4.852214275","-74.26366739","9","14","0","5","9","0","0","0","0","","0.000","0.643","0.000","0.000","0.000","0.0000000","0.357","0.643","1769","","2020-07-03 16:34:00"
"25269","Facatativa","25","Cundinamarca","4.813064178","-74.35022793","71","131","1","59","67","4","0","4","171","0.023","0.031","0.511","0.031","0.000","0.008","0.6411161","0.450","0.542","1191","155978","2020-07-03 16:34:00"
"25279","Fomeque","25","Cundinamarca","4.485474345","-73.89252259","0","12","0","12","0","0","0","0","12","0.000","0.000","0.000","0.000","0.000","0.000","0.0000000","1.000","0.000","1067","","2020-07-03 16:34:00"
"25286","Funza","25","Cundinamarca","4.712763015","-74.211525","63","137","0","74","54","8","1","9","10","0.900","0.066","0.394","0.058","0.007","0.000","0.0000000","0.540","0.460","767","","2020-07-03 16:34:00"
"25290","Fusagasuga","25","Cundinamarca","4.338480851","-74.36633393","12","58","3","43","10","1","0","1","92","0.011","0.017","0.172","0.017","0.000","0.052","1.9462447","0.741","0.207","2658","51381","2020-07-03 16:34:00"
"25295","Gachancipa","25","Cundinamarca","4.990918172","-73.87346922","0","9","0","9","0","0","0","0","0","","0.000","0.000","0.000","0.000","0.000","0.0000000","1.000","0.000","2153","","2020-07-03 16:34:00"
"25307","Girardot","25","Cundinamarca","4.313078337","-74.79779459","21","83","1","61","19","2","0","2","264","0.008","0.024","0.229","0.024","0.000","0.012","0.9108132","0.735","0.253","1323","109792","2020-07-03 16:34:00"
"25312","Granada","25","Cundinamarca","4.519763473","-74.35076611","7","8","0","1","7","0","0","0","0","","0.000","0.875","0.000","0.000","0.000","0.0000000","0.125","0.875","991","","2020-07-03 16:34:00"
"25320","Guaduas","25","Cundinamarca","5.071870533","-74.60295627","0","1","0","1","0","0","0","0","10","0.000","0.000","0.000","0.000","0.000","0.000","0.0000000","1.000","0.000","33212","","2020-07-03 16:34:00"
"25322","Guasca","25","Cundinamarca","4.866719147","-73.87714344","1","2","0","1","1","0","0","0","0","","0.000","0.500","0.000","0.000","0.000","0.0000000","0.500","0.500","8467","","2020-07-03 16:34:00"
"25324","Guataqui","25","Cundinamarca","4.517417235","-74.78996878","0","1","0","1","0","0","0","0","0","","0.000","0.000","0.000","0.000","0.000","0.0000000","1.000","0.000","2772","","2020-07-03 16:34:00"
"25326","Guatavita","25","Cundinamarca","4.934139703","-73.83287404","2","3","0","1","2","0","0","0","6","0.000","0.000","0.667","0.000","0.000","0.000","0.0000000","0.333","0.667","2270","","2020-07-03 16:34:00"
"25372","Junin","25","Cundinamarca","4.790379974","-73.66292455","1","5","1","3","1","0","0","0","3","0.000","0.000","0.200","0.000","0.000","0.200","16.4636154","0.600","0.200","1215","6074","2020-07-03 16:34:00"
"25377","La Calera","25","Cundinamarca","4.720344521","-73.96974496","15","48","0","33","13","2","0","2","0","","0.042","0.271","0.042","0.000","0.000","0.0000000","0.688","0.313","686","","2020-07-03 16:34:00"
"25386","La Mesa","25","Cundinamarca","4.631044239","-74.46154474","4","27","1","22","4","0","0","0","31","0.000","0.000","0.148","0.000","0.000","0.037","2.7678596","0.815","0.148","1338","36129","2020-07-03 16:34:00"
"25394","La Palma","25","Cundinamarca","5.358816711","-74.39102017","1","1","0","0","1","0","0","0","7","0.000","0.000","1.000","0.000","0.000","0.000","0.0000000","0.000","1.000","9810","","2020-07-03 16:34:00"
"25402","La Vega","25","Cundinamarca","4.993077034","-74.33113821","1","1","0","0","1","0","0","0","8","0.000","0.000","1.000","0.000","0.000","0.000","0.0000000","0.000","1.000","18642","","2020-07-03 16:34:00"
"25407","Lenguazaque","25","Cundinamarca","5.306143499","-73.71149354","6","14","0","8","3","1","2","3","0","","0.214","0.214","0.071","0.143","0.000","0.0000000","0.571","0.429","771","","2020-07-03 16:34:00"
"25426","Macheta","25","Cundinamarca","5.080198921","-73.608325","2","3","0","1","1","1","0","1","0","","0.333","0.333","0.333","0.000","0.000","0.0000000","0.333","0.667","2093","","2020-07-03 16:34:00"
"25430","Madrid","25","Cundinamarca","4.736129766","-74.26562577","49","102","1","52","38","10","1","11","14","0.786","0.108","0.373","0.098","0.010","0.010","0.7865469","0.510","0.480","1246","127138","2020-07-03 16:34:00"
"25436","Manta","25","Cundinamarca","5.009058389","-73.54050247","0","2","0","2","0","0","0","0","0","","0.000","0.000","0.000","0.000","0.000","0.0000000","1.000","0.000","1947","","2020-07-03 16:34:00"
"25473","Mosquera","25","Cundinamarca","4.711371201","-74.23177508","121","214","8","85","109","10","1","11","8","1.375","0.051","0.509","0.047","0.005","0.037","5.3097932","0.397","0.565","704","18833","2020-07-03 16:34:00"
"25483","Narino","25","Cundinamarca","4.399836799","-74.82473179","1","1","0","0","1","0","0","0","0","","0.000","1.000","0.000","0.000","0.000","0.0000000","0.000","1.000","2464","","2020-07-03 16:34:00"
"25486","Nemocon","25","Cundinamarca","5.067364638","-73.87962974","1","1","0","0","0","1","0","1","10","0.100","1.000","0.000","1.000","0.000","0.000","0.0000000","0.000","1.000","14532","","2020-07-03 16:34:00"
"25488","Nilo","25","Cundinamarca","4.305801421","-74.61996587","3","10","0","7","1","1","1","2","0","","0.200","0.100","0.100","0.100","0.000","0.0000000","0.700","0.300","1203","","2020-07-03 16:34:00"
"25491","Nocaima","25","Cundinamarca","5.068933019","-74.37772796","1","1","0","0","0","1","0","1","0","","1.000","0.000","1.000","0.000","0.000","0.0000000","0.000","1.000","6562","","2020-07-03 16:34:00"
"25506","Venecia","25","Cundinamarca","4.088960943","-74.47817821","0","2","0","2","0","0","0","0","0","","0.000","0.000","0.000","0.000","0.000","0.0000000","1.000","0.000","2225","","2020-07-03 16:34:00"
"25513","Pacho","25","Cundinamarca","5.136942297","-74.15611662","9","25","1","15","5","4","0","4","33","0.121","0.160","0.200","0.160","0.000","0.040","3.8755184","0.600","0.360","1032","25803","2020-07-03 16:34:00"
"25535","Pasca","25","Cundinamarca","4.309854412","-74.30545993","6","15","0","9","6","0","0","0","0","","0.000","0.400","0.000","0.000","0.000","0.0000000","0.600","0.400","642","","2020-07-03 16:34:00"
"25572","Puerto Salgar","25","Cundinamarca","5.464956044","-74.6528007","0","1","1","0","0","0","0","0","6","0.000","0.000","0.000","0.000","0.000","1.000","5.9984404","0.000","0.000","16671","16671","2020-07-03 16:34:00"
"25594","Quetame","25","Cundinamarca","4.329825602","-73.86311388","1","1","0","0","1","0","0","0","0","","0.000","1.000","0.000","0.000","0.000","0.0000000","0.000","1.000","5315","","2020-07-03 16:34:00"
"25599","Apulo","25","Cundinamarca","4.520347219","-74.59380454","1","3","0","2","1","0","0","0","0","","0.000","0.333","0.000","0.000","0.000","0.0000000","0.667","0.333","2916","","2020-07-03 16:34:00"
"25612","Ricaurte","25","Cundinamarca","4.293949747","-74.78454297","1","2","1","0","1","0","0","0","0","","0.000","0.500","0.000","0.000","0.500","6.9603954","0.000","0.500","7184","14367","2020-07-03 16:34:00"
"25645","San Antonio del Tequendama","25","Cundinamarca","4.616138045","-74.35144269","0","7","1","6","0","0","0","0","2","0.000","0.000","0.000","0.000","0.000","0.143","7.7948398","0.857","0.000","1833","12829","2020-07-03 16:34:00"
"25658","San Francisco","25","Cundinamarca","4.97291694","-74.28967198","1","4","0","3","1","0","0","0","0","","0.000","0.250","0.000","0.000","0.000","0.0000000","0.750","0.250","2961","","2020-07-03 16:34:00"
"25662","San Juan de Rioseco","25","Cundinamarca","4.847575999","-74.62191472","0","3","0","3","0","0","0","0","3","0.000","0.000","0.000","0.000","0.000","0.000","0.0000000","1.000","0.000","2846","","2020-07-03 16:34:00"
"25718","Sasaima","25","Cundinamarca","4.962166987","-74.43262795","4","5","0","1","4","0","0","0","57","0.000","0.000","0.800","0.000","0.000","0.000","0.0000000","0.200","0.800","2304","","2020-07-03 16:34:00"
"25736","Sesquile","25","Cundinamarca","5.044729613","-73.79612783","1","2","0","1","1","0","0","0","7","0.000","0.000","0.500","0.000","0.000","0.000","0.0000000","0.500","0.500","6323","","2020-07-03 16:34:00"
"25740","Sibate","25","Cundinamarca","4.489763593","-74.25899225","20","39","0","19","15","5","0","5","3","1.667","0.128","0.385","0.128","0.000","0.000","0.0000000","0.487","0.513","940","","2020-07-03 16:34:00"
"25743","Silvania","25","Cundinamarca","4.381941157","-74.40552821","5","7","0","2","3","2","0","2","6","0.333","0.286","0.429","0.286","0.000","0.000","0.0000000","0.286","0.714","3356","","2020-07-03 16:34:00"
"25745","Simijaca","25","Cundinamarca","5.505428098","-73.85032035","3","3","0","0","2","1","0","1","0","","0.333","0.667","0.333","0.000","0.000","0.0000000","0.000","1.000","4687","","2020-07-03 16:34:00"
"25754","Soacha","25","Cundinamarca","4.585491658","-74.21452753","633","1169","16","520","527","94","10","104","194","0.536","0.089","0.451","0.080","0.009","0.014","2.1232888","0.445","0.541","645","47097","2020-07-03 16:34:00"
"25758","Sopo","25","Cundinamarca","4.906330809","-73.94577489","16","30","3","11","14","2","0","2","7","0.286","0.067","0.467","0.067","0.000","0.100","10.3451843","0.367","0.533","967","9666","2020-07-03 16:34:00"
"25769","Subachoque","25","Cundinamarca","4.929079289","-74.17270846","3","20","0","17","3","0","0","0","36","0.000","0.000","0.150","0.000","0.000","0.000","0.0000000","0.850","0.150","837","","2020-07-03 16:34:00"
"25772","Suesca","25","Cundinamarca","5.103516839","-73.79828978","0","6","1","5","0","0","0","0","5","0.000","0.000","0.000","0.000","0.000","0.167","5.3358946","0.833","0.000","3124","18741","2020-07-03 16:34:00"
"25785","Tabio","25","Cundinamarca","4.917202192","-74.09618339","18","30","0","12","17","0","0","0","7","0.000","0.000","0.567","0.000","0.000","0.000","0.0000000","0.400","0.600","807","","2020-07-03 16:34:00"
"25797","Tena","25","Cundinamarca","4.655339153","-74.38953312","1","4","0","3","1","0","0","0","0","","0.000","0.250","0.000","0.000","0.000","0.0000000","0.750","0.250","2633","","2020-07-03 16:34:00"
"25799","Tenjo","25","Cundinamarca","4.871960537","-74.14395621","2","33","2","29","2","0","0","0","7","0.000","0.000","0.061","0.000","0.000","0.061","8.3001328","0.879","0.061","730","12048","2020-07-03 16:34:00"
"25815","Tocaima","25","Cundinamarca","4.459270864","-74.63630492","1","6","0","5","1","0","0","0","14","0.000","0.000","0.167","0.000","0.000","0.000","0.0000000","0.833","0.167","2769","","2020-07-03 16:34:00"
"25817","Tocancipa","25","Cundinamarca","4.964786354","-73.91209121","14","29","0","15","11","0","1","1","0","","0.034","0.379","0.000","0.034","0.000","0.0000000","0.517","0.483","1576","","2020-07-03 16:34:00"
"25839","Ubala","25","Cundinamarca","4.743901408","-73.53397993","1","1","0","0","0","1","0","1","0","","1.000","0.000","1.000","0.000","0.000","0.0000000","0.000","1.000","7789","","2020-07-03 16:34:00"
"25841","Ubaque","25","Cundinamarca","4.483802095","-73.93346087","0","2","0","2","0","0","0","0","0","","0.000","0.000","0.000","0.000","0.000","0.0000000","1.000","0.000","3534","","2020-07-03 16:34:00"
"25843","Villa de de Ubate","25","Cundinamarca","5.307540984","-73.81434634","42","63","1","20","34","8","0","8","39","0.205","0.127","0.540","0.127","0.000","0.016","","0.317","0.667","","","2020-07-03 16:34:00"
"25845","Une","25","Cundinamarca","4.402450393","-74.02518226","1","3","0","2","1","0","0","0","0","","0.000","0.333","0.000","0.000","0.000","0.0000000","0.667","0.333","2457","","2020-07-03 16:34:00"
"25862","Vergara","25","Cundinamarca","5.117304568","-74.34636043","0","1","0","1","0","0","0","0","6","0.000","0.000","0.000","0.000","0.000","0.000","0.0000000","1.000","0.000","7167","","2020-07-03 16:34:00"
"25867","Viani","25","Cundinamarca","4.875205217","-74.56132662","0","1","1","0","0","0","0","0","0","","0.000","0.000","0.000","0.000","1.000","21.4270409","0.000","0.000","4667","4667","2020-07-03 16:34:00"
"25873","Villapinzon","25","Cundinamarca","5.216438372","-73.59535467","3","21","2","16","3","0","0","0","0","","0.000","0.143","0.000","0.000","0.095","10.8501058","0.762","0.143","878","9217","2020-07-03 16:34:00"
"25875","Villeta","25","Cundinamarca","5.012790639","-74.46970495","6","17","1","10","6","0","0","0","20","0.000","0.000","0.353","0.000","0.000","0.059","3.4331228","0.588","0.353","1713","29128","2020-07-03 16:34:00"
"25878","Viota","25","Cundinamarca","4.439355814","-74.52316032","2","4","0","2","2","0","0","0","10","0.000","0.000","0.500","0.000","0.000","0.000","0.0000000","0.500","0.500","3470","","2020-07-03 16:34:00"
"25885","Yacopi","25","Cundinamarca","5.459290341","-74.33802435","0","1","0","1","0","0","0","0","4","0.000","0.000","0.000","0.000","0.000","0.000","0.0000000","1.000","0.000","12564","","2020-07-03 16:34:00"
"25898","Zipacon","25","Cundinamarca","4.759924886","-74.37959142","1","4","0","3","1","0","0","0","0","","0.000","0.250","0.000","0.000","0.000","0.0000000","0.750","0.250","1256","","2020-07-03 16:34:00"
"25899","Zipaquira","25","Cundinamarca","5.025471685","-73.99447124","97","158","4","57","83","13","1","14","147","0.095","0.089","0.525","0.082","0.006","0.025","2.7331365","0.361","0.614","926","36588","2020-07-03 16:34:00"
"27001","Quibdo","27","Choco","5.692195187","-76.62596936","907","1487","37","543","778","108","19","127","168","0.756","0.085","0.523","0.073","0.013","0.025","28.2820562","0.365","0.610","88","3536","2020-07-03 16:34:00"
"27006","Acandi","27","Choco","8.511405952","-77.28009788","1","1","0","0","1","0","0","0","11","0.000","0.000","1.000","0.000","0.000","0.000","0.0000000","0.000","1.000","14159","","2020-07-03 16:34:00"
"27025","Alto Baudo","27","Choco","5.516309869","-76.97439919","25","32","2","5","23","1","1","2","9","0.222","0.063","0.719","0.031","0.031","0.063","7.0688863","0.156","0.781","884","14147","2020-07-03 16:34:00"
"27050","Atrato","27","Choco","5.531373511","-76.63503746","13","14","0","1","13","0","0","0","9","0.000","0.000","0.929","0.000","0.000","0.000","0.0000000","0.071","0.929","443","","2020-07-03 16:34:00"
"27073","Bagado","27","Choco","5.41055496","-76.41529299","0","1","0","1","0","0","0","0","7","0.000","0.000","0.000","0.000","0.000","0.000","0.0000000","1.000","0.000","11262","","2020-07-03 16:34:00"
"27075","Bahia Solano","27","Choco","6.22224546","-77.40275035","14","16","1","1","12","1","1","2","8","0.250","0.125","0.750","0.063","0.063","0.063","9.7285728","0.063","0.875","642","10279","2020-07-03 16:34:00"
"27077","Bajo Baudo","27","Choco","4.954626672","-77.36540999","1","2","1","0","0","1","0","1","6","0.167","0.500","0.000","0.500","0.000","0.500","3.2817012","0.000","0.500","15236","30472","2020-07-03 16:34:00"
"27099","Bojaya","27","Choco","6.556257444","-76.88346949","3","7","0","4","0","2","1","3","6","0.500","0.429","0.000","0.286","0.143","0.000","0.0000000","0.571","0.429","1761","","2020-07-03 16:34:00"
"27135","El Canton San Pablo","27","Choco","5.33533532","-76.72685005","2","4","1","1","2","0","0","0","4","0.000","0.000","0.500","0.000","0.000","0.250","","0.250","0.500","","","2020-07-03 16:34:00"
"27160","Certegui","27","Choco","5.37041379","-76.60802121","0","3","0","3","0","0","0","0","4","0.000","0.000","0.000","0.000","0.000","0.000","0.0000000","1.000","0.000","1920","","2020-07-03 16:34:00"
"27205","Condoto","27","Choco","5.091003208","-76.65068266","3","6","0","3","3","0","0","0","11","0.000","0.000","0.500","0.000","0.000","0.000","0.0000000","0.500","0.500","2061","","2020-07-03 16:34:00"
"27245","El Carmen de Atrato","27","Choco","5.899751361","-76.14222986","38","39","0","1","37","0","1","1","4","0.250","0.026","0.949","0.000","0.026","0.000","0.0000000","0.026","0.974","211","","2020-07-03 16:34:00"
"27361","Istmina","27","Choco","5.153946496","-76.68518032","18","49","1","30","16","2","0","2","25","0.080","0.041","0.327","0.041","0.000","0.020","3.2461209","0.612","0.367","629","30806","2020-07-03 16:34:00"
"27413","Lloro","27","Choco","5.498150801","-76.54521063","5","6","1","0","2","3","0","3","5","0.600","0.500","0.333","0.500","0.000","0.167","10.0877635","0.000","0.833","1652","9913","2020-07-03 16:34:00"
"27425","Medio Atrato","27","Choco","5.994835471","-76.78241422","1","1","0","0","1","0","0","0","3","0.000","0.000","1.000","0.000","0.000","0.000","0.0000000","0.000","1.000","10930","","2020-07-03 16:34:00"
"27430","Medio Baudo","27","Choco","5.193563954","-76.94960604","2","4","1","1","1","1","0","1","11","0.091","0.250","0.250","0.250","0.000","0.250","6.3763311","0.250","0.500","3921","15683","2020-07-03 16:34:00"
"27450","Medio San Juan","27","Choco","5.100240747","-76.69335794","3","3","0","0","2","1","0","1","4","0.250","0.333","0.667","0.333","0.000","0.000","0.0000000","0.000","1.000","3609","","2020-07-03 16:34:00"
"27600","Rio Quito","27","Choco","5.483727751","-76.74101656","20","25","1","4","18","2","0","2","1","2.000","0.080","0.720","0.080","0.000","0.040","11.8371212","0.160","0.800","338","8448","2020-07-03 16:34:00"
"27615","Riosucio","27","Choco","7.436631552","-77.11310959","9","10","1","0","9","0","0","0","16","0.000","0.000","0.900","0.000","0.000","0.100","1.8105446","0.000","0.900","5523","55232","2020-07-03 16:34:00"
"27787","Tado","27","Choco","5.264139949","-76.55876602","5","13","2","6","3","2","0","2","10","0.200","0.154","0.231","0.154","0.000","0.154","11.1650756","0.462","0.385","1378","8957","2020-07-03 16:34:00"
"27800","Unguia","27","Choco","8.042760782","-77.09175303","1","1","0","0","0","0","1","1","4","0.250","1.000","0.000","0.000","1.000","0.000","0.0000000","0.000","1.000","12822","","2020-07-03 16:34:00"
"27810","Union Panamericana","27","Choco","5.281095852","-76.62840607","16","30","4","10","16","0","0","0","3","0.000","0.000","0.533","0.000","0.000","0.133","57.2901747","0.333","0.533","233","1746","2020-07-03 16:34:00"
"41001","Neiva","41","Huila","2.935604415","-75.27772259","41","195","6","148","40","1","0","1","566","0.002","0.005","0.205","0.005","0.000","0.031","1.6465061","0.759","0.210","1869","60735","2020-07-03 16:34:00"
"41006","Acevedo","41","Huila","1.805263228","-75.88853156","1","3","0","2","1","0","0","0","5","0.000","0.000","0.333","0.000","0.000","0.000","0.0000000","0.667","0.333","8433","","2020-07-03 16:34:00"
"41013","Agrado","41","Huila","2.259729394","-75.77190358","0","2","0","2","0","0","0","0","2","0.000","0.000","0.000","0.000","0.000","0.000","0.0000000","1.000","0.000","4469","","2020-07-03 16:34:00"
"41016","Aipe","41","Huila","3.223597562","-75.23903118","0","4","0","4","0","0","0","0","4","0.000","0.000","0.000","0.000","0.000","0.000","0.0000000","1.000","0.000","4137","","2020-07-03 16:34:00"
"41020","Algeciras","41","Huila","2.522447597","-75.31537288","0","8","0","8","0","0","0","0","3","0.000","0.000","0.000","0.000","0.000","0.000","0.0000000","1.000","0.000","2822","","2020-07-03 16:34:00"
"41132","Campoalegre","41","Huila","2.686827401","-75.32573546","1","4","0","3","1","0","0","0","2","0.000","0.000","0.250","0.000","0.000","0.000","0.0000000","0.750","0.250","7839","","2020-07-03 16:34:00"
"41206","Colombia","41","Huila","3.376977129","-74.80281318","1","1","0","0","1","0","0","0","3","0.000","0.000","1.000","0.000","0.000","0.000","0.0000000","0.000","1.000","7064","","2020-07-03 16:34:00"
"41298","Garzon","41","Huila","2.196994421","-75.62769374","5","12","0","7","5","0","0","0","66","0.000","0.000","0.417","0.000","0.000","0.000","0.0000000","0.583","0.417","6178","","2020-07-03 16:34:00"
"41306","Gigante","41","Huila","2.388235625","-75.54121989","1","26","1","24","1","0","0","0","4","0.000","0.000","0.038","0.000","0.000","0.038","4.0443258","0.923","0.038","951","24726","2020-07-03 16:34:00"
"41359","Isnos","41","Huila","1.92946706","-76.21763745","1","5","2","2","0","0","0","0","3","0.000","0.000","0.000","0.000","0.000","0.400","7.7763521","0.400","0.200","5144","12860","2020-07-03 16:34:00"
"41396","La Plata","41","Huila","2.389646694","-75.89145131","4","10","0","6","4","0","0","0","26","0.000","0.000","0.400","0.000","0.000","0.000","0.0000000","0.600","0.400","6238","","2020-07-03 16:34:00"
"41483","Nataga","41","Huila","2.545352901","-75.80878532","22","22","0","0","20","1","0","1","4","0.250","0.045","0.909","0.045","0.000","0.000","0.0000000","0.000","1.000","299","","2020-07-03 16:34:00"
"41503","Oporapa","41","Huila","2.025054002","-75.99517781","0","13","0","13","0","0","0","0","3","0.000","0.000","0.000","0.000","0.000","0.000","0.0000000","1.000","0.000","917","","2020-07-03 16:34:00"
"41518","Paicol","41","Huila","2.449548949","-75.77299232","0","2","1","1","0","0","0","0","2","0.000","0.000","0.000","0.000","0.000","0.500","14.8765248","0.500","0.000","3361","6722","2020-07-03 16:34:00"
"41524","Palermo","41","Huila","2.888406236","-75.43371912","2","9","0","7","2","0","0","0","4","0.000","0.000","0.222","0.000","0.000","0.000","0.0000000","0.778","0.222","2987","","2020-07-03 16:34:00"
"41530","Palestina","41","Huila","1.723444181","-76.13312235","0","1","0","1","0","0","0","0","1","0.000","0.000","0.000","0.000","0.000","0.000","0.0000000","1.000","0.000","11395","","2020-07-03 16:34:00"
"41551","Pitalito","41","Huila","1.852578355","-76.0487449","7","20","0","13","5","0","0","0","81","0.000","0.000","0.250","0.000","0.000","0.000","0.0000000","0.650","0.350","6432","","2020-07-03 16:34:00"
"41615","Rivera","41","Huila","2.777570516","-75.25854672","0","1","0","1","0","0","0","0","5","0.000","0.000","0.000","0.000","0.000","0.000","0.0000000","1.000","0.000","25131","","2020-07-03 16:34:00"
"41660","Saladoblanco","41","Huila","1.992494881","-76.04414126","0","1","0","1","0","0","0","0","4","0.000","0.000","0.000","0.000","0.000","0.000","0.0000000","1.000","0.000","10567","","2020-07-03 16:34:00"
"41668","San Agustin","41","Huila","1.881081298","-76.27035968","3","5","0","2","2","1","0","1","7","0.143","0.200","0.400","0.200","0.000","0.000","0.0000000","0.400","0.600","6745","","2020-07-03 16:34:00"
"41799","Tello","41","Huila","3.067538095","-75.13877304","13","15","0","2","12","1","0","1","4","0.250","0.067","0.800","0.067","0.000","0.000","0.0000000","0.133","0.867","787","","2020-07-03 16:34:00"
"41807","Timana","41","Huila","1.974224443","-75.932087","1","9","1","7","1","0","0","0","4","0.000","0.000","0.111","0.000","0.000","0.111","4.5310376","0.778","0.111","2452","22070","2020-07-03 16:34:00"
"41885","Yaguara","41","Huila","2.664694213","-75.51802329","0","1","0","1","0","0","0","0","2","0.000","0.000","0.000","0.000","0.000","0.000","0.0000000","1.000","0.000","7824","","2020-07-03 16:34:00"
"44001","Riohacha","44","La Guajira","11.52875138","-72.91148891","87","108","2","19","77","10","0","10","289","0.035","0.093","0.713","0.093","0.000","0.019","0.9908888","0.176","0.806","1869","100920","2020-07-03 16:34:00"
"44035","Albania","44","La Guajira","11.15748865","-72.59852163","1","6","0","5","0","1","0","1","2","0.500","0.167","0.000","0.167","0.000","0.000","0.0000000","0.833","0.167","5378","","2020-07-03 16:34:00"
"44078","Barrancas","44","La Guajira","10.95866671","-72.79357567","12","13","0","1","11","1","0","1","42","0.024","0.077","0.846","0.077","0.000","0.000","0.0000000","0.077","0.923","2950","","2020-07-03 16:34:00"
"44090","Dibulla","44","La Guajira","11.2715694","-73.30761979","4","6","0","2","3","0","1","1","6","0.167","0.167","0.500","0.000","0.167","0.000","0.0000000","0.333","0.667","7010","","2020-07-03 16:34:00"
"44098","Distraccion","44","La Guajira","10.89847259","-72.88739268","7","39","0","32","6","0","1","1","40","0.025","0.026","0.154","0.000","0.026","0.000","0.0000000","0.821","0.179","365","","2020-07-03 16:34:00"
"44110","El Molino","44","La Guajira","10.65350251","-72.92674334","1","1","0","0","1","0","0","0","2","0.000","0.000","1.000","0.000","0.000","0.000","0.0000000","0.000","1.000","7879","","2020-07-03 16:34:00"
"44279","Fonseca","44","La Guajira","10.88430067","-72.84666224","5","8","1","2","3","2","0","2","5","0.400","0.250","0.375","0.250","0.000","0.125","2.2449713","0.250","0.625","5568","44544","2020-07-03 16:34:00"
"44378","Hatonuevo","44","La Guajira","11.06874303","-72.75901658","0","1","0","1","0","0","0","0","2","0.000","0.000","0.000","0.000","0.000","0.000","0.0000000","1.000","0.000","22033","","2020-07-03 16:34:00"
"44430","Maicao","44","La Guajira","11.37832678","-72.24190502","260","323","15","48","235","19","5","24","232","0.103","0.074","0.728","0.059","0.015","0.046","8.1049537","0.149","0.805","573","12338","2020-07-03 16:34:00"
"44560","Manaure","44","La Guajira","11.77405659","-72.43966737","0","1","0","1","0","0","0","0","5","0.000","0.000","0.000","0.000","0.000","0.000","0.0000000","1.000","0.000","93431","","2020-07-03 16:34:00"
"44650","San Juan del Cesar","44","La Guajira","10.76957868","-73.00059321","4","11","1","6","2","2","0","2","136","0.015","0.182","0.182","0.182","0.000","0.091","2.0167796","0.545","0.364","4508","49584","2020-07-03 16:34:00"
"44847","Uribia","44","La Guajira","11.71464582","-72.26476063","35","40","1","4","34","1","0","1","34","0.029","0.025","0.850","0.025","0.000","0.025","0.5260832","0.100","0.875","4752","190084","2020-07-03 16:34:00"
"44874","Villanueva","44","La Guajira","10.60881169","-72.97762278","2","2","0","0","1","0","1","1","5","0.200","0.500","0.500","0.000","0.500","0.000","0.0000000","0.000","1.000","14618","","2020-07-03 16:34:00"
"47001","Santa Marta","47","Magdalena","11.2294335","-74.19089412","622","1114","51","441","534","71","12","83","989","0.084","0.075","0.479","0.064","0.011","0.046","9.4687827","0.396","0.558","483","10561","2020-07-03 16:34:00"
"47053","Aracataca","47","Magdalena","10.58980001","-74.18676284","3","5","0","2","1","2","0","2","7","0.286","0.400","0.200","0.400","0.000","0.000","0.0000000","0.400","0.600","8298","","2020-07-03 16:34:00"
"47058","Ariguani","47","Magdalena","9.767720804","-73.99780998","1","1","0","0","0","1","0","1","6","0.167","1.000","0.000","1.000","0.000","0.000","0.0000000","0.000","1.000","31794","","2020-07-03 16:34:00"
"47161","Cerro de San Antonio","47","Magdalena","10.32565943","-74.868473","0","2","1","1","0","0","0","0","6","0.000","0.000","0.000","0.000","0.000","0.500","10.0593502","0.500","0.000","4971","9941","2020-07-03 16:34:00"
"47189","Cienaga","47","Magdalena","11.00665688","-74.24128616","273","502","52","177","234","33","6","39","102","0.382","0.078","0.466","0.066","0.012","0.104","41.8211502","0.353","0.544","248","2391","2020-07-03 16:34:00"
"47205","Concordia","47","Magdalena","10.25731061","-74.8330299","1","1","0","0","0","1","0","1","3","0.333","1.000","0.000","1.000","0.000","0.000","0.0000000","0.000","1.000","11227","","2020-07-03 16:34:00"
"47245","El Banco","47","Magdalena","9.008733009","-73.97428121","52","70","2","16","45","5","2","7","86","0.081","0.100","0.643","0.071","0.029","0.029","2.8693993","0.229","0.743","996","34851","2020-07-03 16:34:00"
"47258","El Pinon","47","Magdalena","10.40309454","-74.82329109","1","2","0","1","0","1","0","1","5","0.200","0.500","0.000","0.500","0.000","0.000","0.0000000","0.500","0.500","12042","","2020-07-03 16:34:00"
"47268","El Reten","47","Magdalena","10.61066766","-74.2684561","15","17","0","2","15","0","0","0","3","0.000","0.000","0.882","0.000","0.000","0.000","0.0000000","0.118","0.882","1238","","2020-07-03 16:34:00"
"47288","Fundacion","47","Magdalena","10.5140924","-74.19134346","17","25","1","7","9","7","0","7","117","0.060","0.280","0.360","0.280","0.000","0.040","1.4186208","0.280","0.680","2820","70491","2020-07-03 16:34:00"
"47318","Guamal","47","Magdalena","9.144385832","-74.22369928","1","1","0","0","1","0","0","0","7","0.000","0.000","1.000","0.000","0.000","0.000","0.0000000","0.000","1.000","27918","","2020-07-03 16:34:00"
"47545","Pijino del Carmen","47","Magdalena","9.331953112","-74.45821824","0","1","1","0","0","0","0","0","3","0.000","0.000","0.000","0.000","0.000","1.000","7.7471336","0.000","0.000","12908","12908","2020-07-03 16:34:00"
"47551","Pivijay","47","Magdalena","10.46069324","-74.61351795","3","4","1","0","1","1","1","2","20","0.100","0.500","0.250","0.250","0.250","0.250","2.5658789","0.000","0.750","9743","38973","2020-07-03 16:34:00"
"47555","Plato","47","Magdalena","9.796769868","-74.78468286","5","5","0","0","5","0","0","0","52","0.000","0.000","1.000","0.000","0.000","0.000","0.0000000","0.000","1.000","12803","","2020-07-03 16:34:00"
"47570","Puebloviejo","47","Magdalena","10.99482965","-74.28248423","34","185","22","129","28","5","1","6","5","1.200","0.032","0.151","0.027","0.005","0.119","68.3484528","0.697","0.184","174","1463","2020-07-03 16:34:00"
"47605","Remolino","47","Magdalena","10.70217005","-74.71614047","3","3","0","0","2","1","0","1","2","0.500","0.333","0.667","0.333","0.000","0.000","0.0000000","0.000","1.000","3976","","2020-07-03 16:34:00"
"47692","San Sebastian de Buenavista","47","Magdalena","9.24050525","-74.35167514","0","1","1","0","0","0","0","0","5","0.000","0.000","0.000","0.000","0.000","1.000","4.8318516","0.000","0.000","20696","20696","2020-07-03 16:34:00"
"47707","Santa Ana","47","Magdalena","9.321837859","-74.56765762","3","3","0","0","1","1","0","1","11","0.091","0.333","0.333","0.333","0.000","0.000","0.0000000","0.000","1.000","8692","","2020-07-03 16:34:00"
"47745","Sitionuevo","47","Magdalena","10.77540964","-74.72016921","22","52","6","24","19","2","0","2","5","0.400","0.038","0.365","0.038","0.000","0.115","20.5768373","0.462","0.423","561","4860","2020-07-03 16:34:00"
"47980","Zona Bananera","47","Magdalena","10.76302682","-74.14008184","6","23","7","10","4","2","0","2","7","0.286","0.087","0.174","0.087","0.000","0.304","9.4680319","0.435","0.261","3214","10562","2020-07-03 16:34:00"
"50001","Villavicencio","50","Meta","4.1238615","-73.62709204","258","1201","10","933","239","14","4","18","793","0.023","0.015","0.199","0.012","0.003","0.008","1.8338462","0.777","0.215","454","54530","2020-07-03 16:34:00"
"50006","Acacias","50","Meta","3.990120663","-73.76593665","18","33","0","15","18","0","0","0","11","0.000","0.000","0.545","0.000","0.000","0.000","0.0000000","0.455","0.545","2783","","2020-07-03 16:34:00"
"50124","Cabuyaro","50","Meta","4.285923848","-72.79197878","0","1","1","0","0","0","0","0","4","0.000","0.000","0.000","0.000","0.000","1.000","16.1498708","0.000","0.000","6192","6192","2020-07-03 16:34:00"
"50226","Cumaral","50","Meta","4.269537766","-73.48610878","3","6","0","3","3","0","0","0","4","0.000","0.000","0.500","0.000","0.000","0.000","0.0000000","0.500","0.500","3866","","2020-07-03 16:34:00"
"50313","Granada","50","Meta","3.546694724","-73.70571533","8","21","0","13","8","0","0","0","87","0.000","0.000","0.381","0.000","0.000","0.000","0.0000000","0.619","0.381","3361","","2020-07-03 16:34:00"
"50568","Puerto Gaitan","50","Meta","4.314487455","-72.08307894","17","23","0","6","16","1","0","1","13","0.077","0.043","0.696","0.043","0.000","0.000","0.0000000","0.261","0.739","1896","","2020-07-03 16:34:00"
"50573","Puerto Lopez","50","Meta","4.093406425","-72.95743626","0","5","2","3","0","0","0","0","7","0.000","0.000","0.000","0.000","0.000","0.400","6.5980470","0.600","0.000","6062","15156","2020-07-03 16:34:00"
"50606","Restrepo","50","Meta","4.260731994","-73.56460418","3","8","2","3","2","0","0","0","6","0.000","0.000","0.250","0.000","0.000","0.250","10.7192625","0.375","0.375","2332","9329","2020-07-03 16:34:00"
"50680","San Carlos de Guaroa","50","Meta","3.71053664","-73.24140912","1","2","0","1","0","1","0","1","5","0.200","0.500","0.000","0.500","0.000","0.000","0.0000000","0.500","0.500","6438","","2020-07-03 16:34:00"
"50683","San Juan de Arama","50","Meta","3.373727874","-73.87583154","0","3","0","3","0","0","0","0","5","0.000","0.000","0.000","0.000","0.000","0.000","0.0000000","1.000","0.000","2955","","2020-07-03 16:34:00"
"50689","San Martin","50","Meta","3.701879876","-73.69561782","2","2","0","0","2","0","0","0","13","0.000","0.000","1.000","0.000","0.000","0.000","0.0000000","0.000","1.000","13250","","2020-07-03 16:34:00"
"52001","Pasto","52","Narino","1.212124365","-77.27857635","494","783","20","269","430","54","7","61","893","0.068","0.078","0.549","0.069","0.009","0.026","5.0943862","0.344","0.631","501","19629","2020-07-03 16:34:00"
"52019","Alban","52","Narino","1.474978015","-77.08071233","6","6","0","0","6","0","0","0","0","","0.000","1.000","0.000","0.000","0.000","0.0000000","0.000","1.000","1553","","2020-07-03 16:34:00"
"52022","Aldana","52","Narino","0.882181195","-77.70035656","1","13","0","12","1","0","0","0","0","","0.000","0.077","0.000","0.000","0.000","0.0000000","0.923","0.077","566","","2020-07-03 16:34:00"
"52036","Ancuya","52","Narino","1.263299977","-77.51451329","2","3","0","1","1","0","1","1","0","","0.333","0.333","0.000","0.333","0.000","0.0000000","0.333","0.667","2868","","2020-07-03 16:34:00"
"52051","Arboleda","52","Narino","1.503536564","-77.13539889","1","2","0","1","1","0","0","0","0","","0.000","0.500","0.000","0.000","0.000","0.0000000","0.500","0.500","4210","","2020-07-03 16:34:00"
"52079","Barbacoas","52","Narino","1.670345194","-78.13989493","18","24","3","3","10","5","3","8","12","0.667","0.333","0.417","0.208","0.125","0.125","5.3072922","0.125","0.750","2355","18842","2020-07-03 16:34:00"
"52083","Belen","52","Narino","1.595676066","-77.01566573","0","1","0","1","0","0","0","0","0","","0.000","0.000","0.000","0.000","0.000","0.0000000","1.000","0.000","6301","","2020-07-03 16:34:00"
"52203","Colon","52","Narino","1.643874302","-77.01977704","0","1","0","1","0","0","0","0","0","","0.000","0.000","0.000","0.000","0.000","0.0000000","1.000","0.000","8316","","2020-07-03 16:34:00"
"52207","Consaca","52","Narino","1.207623056","-77.46510211","0","1","1","0","0","0","0","0","0","","0.000","0.000","0.000","0.000","1.000","7.2790799","0.000","0.000","13738","13738","2020-07-03 16:34:00"
"52210","Contadero","52","Narino","0.910457863","-77.54940902","1","5","0","4","1","0","0","0","1","0.000","0.000","0.200","0.000","0.000","0.000","0.0000000","0.800","0.200","1447","","2020-07-03 16:34:00"
"52215","Cordoba","52","Narino","0.854564418","-77.51789656","2","4","0","2","2","0","0","0","1","0.000","0.000","0.500","0.000","0.000","0.000","0.0000000","0.500","0.500","3869","","2020-07-03 16:34:00"
"52224","Cuaspud","52","Narino","0.862978103","-77.72894683","0","7","1","6","0","0","0","0","0","","0.000","0.000","0.000","0.000","0.143","10.8719287","0.857","0.000","1314","9198","2020-07-03 16:34:00"
"52227","Cumbal","52","Narino","0.906185361","-77.79227662","6","48","1","41","5","1","0","1","5","0.200","0.021","0.104","0.021","0.000","0.021","2.7002943","0.854","0.125","772","37033","2020-07-03 16:34:00"
"52233","Cumbitara","52","Narino","1.646845971","-77.57814673","1","8","0","7","1","0","0","0","0","","0.000","0.125","0.000","0.000","0.000","0.0000000","0.875","0.125","721","","2020-07-03 16:34:00"
"52240","Chachagui","52","Narino","1.36032802","-77.28170144","8","12","0","4","7","1","0","1","10","0.100","0.083","0.583","0.083","0.000","0.000","0.0000000","0.333","0.667","1275","","2020-07-03 16:34:00"
"52250","El Charco","52","Narino","2.477550593","-78.109849","24","79","2","53","21","2","1","3","9","0.333","0.038","0.266","0.025","0.013","0.025","8.8691796","0.671","0.304","285","11275","2020-07-03 16:34:00"
"52254","El Penol","52","Narino","1.452892601","-77.43785937","3","3","0","0","3","0","0","0","0","","0.000","1.000","0.000","0.000","0.000","0.0000000","0.000","1.000","2481","","2020-07-03 16:34:00"
"52260","El Tambo","52","Narino","1.407643422","-77.39020466","1","2","1","0","1","0","0","0","6","0.000","0.000","0.500","0.000","0.000","0.500","7.2416540","0.000","0.500","6905","13809","2020-07-03 16:34:00"
"52287","Funes","52","Narino","1.001135181","-77.4489786","1","1","0","0","1","0","0","0","0","","0.000","1.000","0.000","0.000","0.000","0.0000000","0.000","1.000","7135","","2020-07-03 16:34:00"
"52317","Guachucal","52","Narino","0.959743484","-77.73158986","3","8","0","5","3","0","0","0","4","0.000","0.000","0.375","0.000","0.000","0.000","0.0000000","0.625","0.375","2417","","2020-07-03 16:34:00"
"52320","Guaitarilla","52","Narino","1.129632504","-77.54968882","21","24","1","2","20","0","0","0","3","0.000","0.000","0.833","0.000","0.000","0.042","8.8300221","0.083","0.875","472","11325","2020-07-03 16:34:00"
"52354","Imues","52","Narino","1.055137709","-77.49617816","1","2","0","1","1","0","0","0","0","","0.000","0.500","0.000","0.000","0.000","0.0000000","0.500","0.500","3723","","2020-07-03 16:34:00"
"52356","Ipiales","52","Narino","0.827734241","-77.64640075","149","375","11","215","125","22","2","24","105","0.229","0.064","0.333","0.059","0.005","0.029","9.4961843","0.573","0.397","309","10531","2020-07-03 16:34:00"
"52378","La Cruz","52","Narino","1.601339314","-76.97053174","2","3","0","1","2","0","0","0","7","0.000","0.000","0.667","0.000","0.000","0.000","0.0000000","0.333","0.667","6214","","2020-07-03 16:34:00"
"52381","La Florida","52","Narino","1.299192232","-77.40643084","4","12","1","7","2","2","0","2","0","","0.167","0.167","0.167","0.000","0.083","10.0897992","0.583","0.333","826","9911","2020-07-03 16:34:00"
"52385","La Llanada","52","Narino","1.472636197","-77.58071165","3","7","2","2","3","0","0","0","0","","0.000","0.429","0.000","0.000","0.286","30.9119011","0.286","0.429","924","3235","2020-07-03 16:34:00"
