"DIVIPOLA","City_Municipality","ID_Deparment","Department","Latitude","Longitude","Active","Confirmed","Deaths","Recovered","House","Hospital","ICU","People_Hospitalized","Total_Hospital_Beds","Total_Hospital_Beds_Utilisation","Total_Hospitalization_Rate","Mild_Rate","Severe_Rate","Critical_Rate","Lethality_Rate","Mortality_Rate","Recovery_Rates","Active_Rate","Cases_Share_Of_Population","Deaths_Share_Of_Population","Last_Update"
"5001","Medellin","5","Antioquia","5.610109776","-74.88681663","3706","5044","62","1276","3364","298","41","339","2885","0.118","0.067","0.667","0.059","0.008","0.012","2.4472808","0.253","0.735","502","40862","2020-07-13 16:48:00"
"5030","Amaga","5","Antioquia","6.038808575","-75.70194607","4","9","1","4","4","0","0","0","5","0.000","0.000","0.444","0.000","0.000","0.111","3.1966244","0.444","0.444","3476","31283","2020-07-13 16:48:00"
"5034","Andes","5","Antioquia","5.656774852","-75.87879189","5","6","0","1","4","1","0","1","10","0.100","0.167","0.667","0.167","0.000","0.000","0.0000000","0.167","0.833","7367","","2020-07-13 16:48:00"
"5038","Angostura","5","Antioquia","6.885174591","-75.33511597","0","1","0","1","0","0","0","0","3","0.000","0.000","0.000","0.000","0.000","0.000","0.0000000","1.000","0.000","11536","","2020-07-13 16:48:00"
"5040","Anori","5","Antioquia","7.074707669","-75.14834842","1","1","0","0","1","0","0","0","2","0.000","0.000","1.000","0.000","0.000","0.000","0.0000000","0.000","1.000","19104","","2020-07-13 16:48:00"
"5042","Santa Fe de Antioquia","5","Antioquia","6.556533296","-75.82707907","22","23","0","1","21","1","0","1","25","0.040","0.043","0.913","0.043","0.000","0.000","0.0000000","0.043","0.957","1174","","2020-07-13 16:48:00"
"5044","Anza","5","Antioquia","6.302658359","-75.85444158","7","9","0","2","7","0","0","0","2","0.000","0.000","0.778","0.000","0.000","0.000","0.0000000","0.222","0.778","797","","2020-07-13 16:48:00"
"5045","Apartado","5","Antioquia","7.883417406","-76.62596065","398","471","1","72","371","26","0","26","158","0.165","0.055","0.788","0.055","0.000","0.002","0.7828156","0.153","0.845","271","127744","2020-07-13 16:48:00"
"5051","Arboletes","5","Antioquia","8.850567734","-76.4270568","59","61","0","2","53","6","0","6","4","1.500","0.098","0.869","0.098","0.000","0.000","0.0000000","0.033","0.967","500","","2020-07-13 16:48:00"
"5079","Barbosa","5","Antioquia","6.439226882","-75.33164423","9","20","0","11","7","2","0","2","7","0.286","0.100","0.350","0.100","0.000","0.000","0.0000000","0.550","0.450","2717","","2020-07-13 16:48:00"
"5088","Bello","5","Antioquia","6.334068836","-75.55466507","422","628","8","198","381","33","8","41","355","0.115","0.065","0.607","0.053","0.013","0.013","1.4488711","0.315","0.672","879","69019","2020-07-13 16:48:00"
"5093","Betulia","5","Antioquia","6.115255594","-75.98451587","2","2","0","0","2","0","0","0","5","0.000","0.000","1.000","0.000","0.000","0.000","0.0000000","0.000","1.000","7948","","2020-07-13 16:48:00"
"5101","Ciudad Bolivar","5","Antioquia","5.850273232","-76.02150921","4","6","1","1","4","0","0","0","23","0.000","0.000","0.667","0.000","0.000","0.167","3.8004028","0.167","0.667","4386","26313","2020-07-13 16:48:00"
"5107","Briceno","5","Antioquia","7.114882947","-75.54813022","9","10","0","1","9","0","0","0","5","0.000","0.000","0.900","0.000","0.000","0.000","0.0000000","0.100","0.900","812","","2020-07-13 16:48:00"
"5113","Buritica","5","Antioquia","6.719735175","-75.90753473","60","70","0","10","60","0","0","0","3","0.000","0.000","0.857","0.000","0.000","0.000","0.0000000","0.143","0.857","138","","2020-07-13 16:48:00"
"5120","Caceres","5","Antioquia","7.578315451","-75.35235749","5","6","0","1","4","1","0","1","5","0.200","0.167","0.667","0.167","0.000","0.000","0.0000000","0.167","0.833","5059","","2020-07-13 16:48:00"
"5125","Caicedo","5","Antioquia","6.405567003","-75.98281889","1","1","0","0","1","0","0","0","1","0.000","0.000","1.000","0.000","0.000","0.000","0.0000000","0.000","1.000","8536","","2020-07-13 16:48:00"
"5129","Caldas","5","Antioquia","6.091296966","-75.63361872","54","66","0","12","53","1","0","1","49","0.020","0.015","0.803","0.015","0.000","0.000","0.0000000","0.182","0.818","1264","","2020-07-13 16:48:00"
"5138","Canasgordas","5","Antioquia","6.759477684","-76.03220994","6","9","0","3","6","0","0","0","3","0.000","0.000","0.667","0.000","0.000","0.000","0.0000000","0.333","0.667","1728","","2020-07-13 16:48:00"
"5142","Caracoli","5","Antioquia","6.409854727","-74.75744944","0","1","0","1","0","0","0","0","1","0.000","0.000","0.000","0.000","0.000","0.000","0.0000000","1.000","0.000","4532","","2020-07-13 16:48:00"
"5147","Carepa","5","Antioquia","7.755116346","-76.65321034","51","401","2","348","44","7","0","7","11","0.636","0.017","0.110","0.017","0.000","0.005","3.9106036","0.868","0.127","128","25572","2020-07-13 16:48:00"
"5148","El Carmen de Viboral","5","Antioquia","6.084551516","-75.33536246","5","7","0","2","5","0","0","0","11","0.000","0.000","0.714","0.000","0.000","0.000","0.0000000","0.286","0.714","8940","","2020-07-13 16:48:00"
"5154","Caucasia","5","Antioquia","7.977362333","-75.19829033","67","74","3","4","57","8","1","9","126","0.071","0.122","0.770","0.108","0.014","0.041","3.1437643","0.054","0.905","1290","31809","2020-07-13 16:48:00"
"5172","Chigorodo","5","Antioquia","7.666300439","-76.6812164","49","71","0","22","39","9","1","10","31","0.323","0.141","0.549","0.127","0.014","0.000","0.0000000","0.310","0.690","843","","2020-07-13 16:48:00"
"5190","Cisneros","5","Antioquia","6.537761957","-75.08720761","0","1","0","1","0","0","0","0","6","0.000","0.000","0.000","0.000","0.000","0.000","0.0000000","1.000","0.000","9936","","2020-07-13 16:48:00"
"5197","Cocorna","5","Antioquia","6.058306335","-75.18548101","0","1","0","1","0","0","0","0","2","0.000","0.000","0.000","0.000","0.000","0.000","0.0000000","1.000","0.000","14833","","2020-07-13 16:48:00"
"5206","Concepcion","5","Antioquia","6.394347095","-75.2576027","1","1","0","0","0","1","0","1","1","1.000","1.000","0.000","1.000","0.000","0.000","0.0000000","0.000","1.000","4758","","2020-07-13 16:48:00"
"5209","Concordia","5","Antioquia","6.046568573","-75.90750472","1","1","0","0","1","0","0","0","5","0.000","0.000","1.000","0.000","0.000","0.000","0.0000000","0.000","1.000","21688","","2020-07-13 16:48:00"
"5212","Copacabana","5","Antioquia","6.348640545","-75.5093439","55","93","1","37","51","3","0","3","6","0.500","0.032","0.548","0.032","0.000","0.011","1.2221951","0.398","0.591","880","81820","2020-07-13 16:48:00"
"5234","Dabeiba","5","Antioquia","7.00032194","-76.26297665","5","6","0","1","5","0","0","0","5","0.000","0.000","0.833","0.000","0.000","0.000","0.0000000","0.167","0.833","3918","","2020-07-13 16:48:00"
"5237","Donmatias","5","Antioquia","6.484469957","-75.39272406","11","18","1","6","9","2","0","2","3","0.667","0.111","0.500","0.111","0.000","0.056","5.0738241","0.333","0.611","1095","19709","2020-07-13 16:48:00"
"5240","Ebejico","5","Antioquia","6.326056658","-75.76622047","3","3","0","0","3","0","0","0","2","0.000","0.000","1.000","0.000","0.000","0.000","0.0000000","0.000","1.000","4045","","2020-07-13 16:48:00"
"5250","El Bagre","5","Antioquia","7.597521794","-74.79909729","1","3","0","2","0","1","0","1","12","0.083","0.333","0.000","0.333","0.000","0.000","0.0000000","0.667","0.333","17949","","2020-07-13 16:48:00"
"5264","Entrerrios","5","Antioquia","6.566481448","-75.5178008","2","2","0","0","2","0","0","0","2","0.000","0.000","1.000","0.000","0.000","0.000","0.0000000","0.000","1.000","5864","","2020-07-13 16:48:00"
"5266","Envigado","5","Antioquia","6.167004552","-75.58301014","146","216","0","70","134","9","3","12","131","0.092","0.056","0.620","0.042","0.014","0.000","0.0000000","0.324","0.676","1121","","2020-07-13 16:48:00"
"5284","Frontino","5","Antioquia","6.776065912","-76.13076514","1","4","0","3","0","0","1","1","5","0.200","0.250","0.000","0.000","0.250","0.000","0.0000000","0.750","0.250","5175","","2020-07-13 16:48:00"
"5306","Giraldo","5","Antioquia","6.680808016","-75.95215756","12","16","0","4","12","0","0","0","1","0.000","0.000","0.750","0.000","0.000","0.000","0.0000000","0.250","0.750","359","","2020-07-13 16:48:00"
"5308","Girardota","5","Antioquia","6.379613834","-75.44446221","23","25","0","2","22","1","0","1","4","0.250","0.040","0.880","0.040","0.000","0.000","0.0000000","0.080","0.920","2178","","2020-07-13 16:48:00"
"5310","Gomez Plata","5","Antioquia","6.683287586","-75.2200382","1","1","0","0","1","0","0","0","2","0.000","0.000","1.000","0.000","0.000","0.000","0.0000000","0.000","1.000","9921","","2020-07-13 16:48:00"
"5313","Granada","5","Antioquia","6.142896667","-75.18444508","0","1","1","0","0","0","0","0","1","0.000","0.000","0.000","0.000","0.000","1.000","10.2417042","0.000","0.000","9764","9764","2020-07-13 16:48:00"
"5318","Guarne","5","Antioquia","6.278064077","-75.44165392","24","32","0","8","21","2","1","3","4","0.750","0.094","0.656","0.063","0.031","0.000","0.0000000","0.250","0.750","1817","","2020-07-13 16:48:00"
"5321","Guatape","5","Antioquia","6.232592707","-75.16229259","0","2","0","2","0","0","0","0","2","0.000","0.000","0.000","0.000","0.000","0.000","0.0000000","1.000","0.000","4355","","2020-07-13 16:48:00"
"5347","Heliconia","5","Antioquia","6.206757461","-75.73432238","1","1","0","0","1","0","0","0","2","0.000","0.000","1.000","0.000","0.000","0.000","0.0000000","0.000","1.000","5395","","2020-07-13 16:48:00"
"5353","Hispania","5","Antioquia","5.799461575","-75.90658827","7","9","0","2","7","0","0","0","1","0.000","0.000","0.778","0.000","0.000","0.000","0.0000000","0.222","0.778","621","","2020-07-13 16:48:00"
"5360","Itagui","5","Antioquia","6.169597629","-75.61435871","337","447","3","107","313","23","1","24","168","0.143","0.054","0.700","0.051","0.002","0.007","1.0345042","0.239","0.754","649","96665","2020-07-13 16:48:00"
"5361","Ituango","5","Antioquia","7.17162903","-75.76467317","390","758","0","368","387","1","2","3","8","0.375","0.004","0.511","0.001","0.003","0.000","0.0000000","0.485","0.515","37","","2020-07-13 16:48:00"
"5368","Jerico","5","Antioquia","5.789747931","-75.78549855","0","2","0","2","0","0","0","0","2","0.000","0.000","0.000","0.000","0.000","0.000","0.0000000","1.000","0.000","6853","","2020-07-13 16:48:00"
"5376","La Ceja","5","Antioquia","6.028055744","-75.42943089","16","41","0","25","15","1","0","1","120","0.008","0.024","0.366","0.024","0.000","0.000","0.0000000","0.610","0.390","1666","","2020-07-13 16:48:00"
"5380","La Estrella","5","Antioquia","6.15841974","-75.64519038","56","105","1","48","53","3","0","3","3","1.000","0.029","0.505","0.029","0.000","0.010","1.3242051","0.457","0.533","719","75517","2020-07-13 16:48:00"
"5400","La Union","5","Antioquia","5.973868218","-75.3608659","1","1","0","0","0","1","0","1","4","0.250","1.000","0.000","1.000","0.000","0.000","0.0000000","0.000","1.000","22391","","2020-07-13 16:48:00"
"5425","Maceo","5","Antioquia","6.552116913","-74.78716148","2","4","0","2","2","0","0","0","4","0.000","0.000","0.500","0.000","0.000","0.000","0.0000000","0.500","0.500","2062","","2020-07-13 16:48:00"
"5440","Marinilla","5","Antioquia","6.172269255","-75.33947788","10","17","0","7","10","0","0","0","4","0.000","0.000","0.588","0.000","0.000","0.000","0.0000000","0.412","0.588","3994","","2020-07-13 16:48:00"
"5467","Montebello","5","Antioquia","5.946325567","-75.52351091","0","3","0","3","0","0","0","0","2","0.000","0.000","0.000","0.000","0.000","0.000","0.0000000","1.000","0.000","2214","","2020-07-13 16:48:00"
"5475","Murindo","5","Antioquia","6.977691853","-76.81745806","19","19","0","0","18","1","0","1","3","0.333","0.053","0.947","0.053","0.000","0.000","0.0000000","0.000","1.000","275","","2020-07-13 16:48:00"
"5480","Mutata","5","Antioquia","7.242875057","-76.4358754","19","19","0","0","18","1","0","1","6","0.167","0.053","0.947","0.053","0.000","0.000","0.0000000","0.000","1.000","757","","2020-07-13 16:48:00"
"5490","Necocli","5","Antioquia","8.426135983","-76.7845745","34","37","3","0","24","9","1","10","8","1.250","0.270","0.649","0.243","0.027","0.081","6.7999456","0.000","0.919","1192","14706","2020-07-13 16:48:00"
"5495","Nechi","5","Antioquia","8.094128661","-74.77647012","46","51","3","2","43","1","2","3","9","0.333","0.059","0.843","0.020","0.039","0.059","10.9673174","0.039","0.902","536","9118","2020-07-13 16:48:00"
"5543","Peque","5","Antioquia","7.021017918","-75.91034556","1","1","0","0","1","0","0","0","3","0.000","0.000","1.000","0.000","0.000","0.000","0.0000000","0.000","1.000","8285","","2020-07-13 16:48:00"
"5579","Puerto Berrio","5","Antioquia","6.48704114","-74.40994553","3","3","0","0","3","0","0","0","31","0.000","0.000","1.000","0.000","0.000","0.000","0.0000000","0.000","1.000","13571","","2020-07-13 16:48:00"
"5585","Puerto Nare","5","Antioquia","6.186024828","-74.58301201","2","2","0","0","2","0","0","0","3","0.000","0.000","1.000","0.000","0.000","0.000","0.0000000","0.000","1.000","7220","","2020-07-13 16:48:00"
"5591","Puerto Triunfo","5","Antioquia","5.871212959","-74.64126293","4","4","0","0","3","1","0","1","5","0.200","0.250","0.750","0.250","0.000","0.000","0.0000000","0.000","1.000","4743","","2020-07-13 16:48:00"
"5604","Remedios","5","Antioquia","7.026094053","-74.69594426","0","1","0","1","0","0","0","0","6","0.000","0.000","0.000","0.000","0.000","0.000","0.0000000","1.000","0.000","29629","","2020-07-13 16:48:00"
"5607","Retiro","5","Antioquia","6.063379954","-75.50137516","8","10","0","2","7","1","0","1","12","0.083","0.100","0.700","0.100","0.000","0.000","0.0000000","0.200","0.800","2476","","2020-07-13 16:48:00"
"5615","Rionegro","5","Antioquia","6.14722409","-75.37676938","34","56","0","22","30","4","0","4","304","0.013","0.071","0.536","0.071","0.000","0.000","0.0000000","0.393","0.607","2553","","2020-07-13 16:48:00"
"5631","Sabaneta","5","Antioquia","6.150970181","-75.61558529","70","109","0","39","68","2","0","2","22","0.091","0.018","0.624","0.018","0.000","0.000","0.0000000","0.358","0.642","807","","2020-07-13 16:48:00"
"5642","Salgar","5","Antioquia","5.96564031","-75.98204854","4","24","0","20","3","1","0","1","3","0.333","0.042","0.125","0.042","0.000","0.000","0.0000000","0.833","0.167","761","","2020-07-13 16:48:00"
"5649","San Carlos","5","Antioquia","6.187991569","-74.98795256","1","1","0","0","0","1","0","1","4","0.250","1.000","0.000","1.000","0.000","0.000","0.0000000","0.000","1.000","15811","","2020-07-13 16:48:00"
"5652","San Francisco","5","Antioquia","5.964079131","-75.10268697","0","1","1","0","0","0","0","0","3","0.000","0.000","0.000","0.000","0.000","1.000","16.9808117","0.000","0.000","5889","5889","2020-07-13 16:48:00"
"5659","San Juan de Uraba","5","Antioquia","8.759341801","-76.52879434","15","15","0","0","14","1","0","1","3","0.333","0.067","0.933","0.067","0.000","0.000","0.0000000","0.000","1.000","1397","","2020-07-13 16:48:00"
"5660","San Luis","5","Antioquia","6.042983285","-74.993641","1","1","0","0","0","1","0","1","5","0.200","1.000","0.000","1.000","0.000","0.000","0.0000000","0.000","1.000","13123","","2020-07-13 16:48:00"
"5664","San Pedro los Milagros","5","Antioquia","6.460138599","-75.55671915","2","2","0","0","2","0","0","0","2","0.000","0.000","1.000","0.000","0.000","0.000","","0.000","1.000","","","2020-07-13 16:48:00"
"5665","San Pedro de Uraba","5","Antioquia","8.276886664","-76.38057789","1","2","0","1","1","0","0","0","5","0.000","0.000","0.500","0.000","0.000","0.000","0.0000000","0.500","0.500","16074","","2020-07-13 16:48:00"
"5667","San Rafael","5","Antioquia","6.293754876","-75.02798382","1","1","0","0","1","0","0","0","4","0.000","0.000","1.000","0.000","0.000","0.000","0.0000000","0.000","1.000","15663","","2020-07-13 16:48:00"
"5670","San Roque","5","Antioquia","6.485948936","-75.01915757","2","3","0","1","2","0","0","0","7","0.000","0.000","0.667","0.000","0.000","0.000","0.0000000","0.333","0.667","7199","","2020-07-13 16:48:00"
"5674","San Vicente Ferrer","5","Antioquia","6.282155852","-75.33261381","2","2","0","0","2","0","0","0","4","0.000","0.000","1.000","0.000","0.000","0.000","0.0000000","0.000","1.000","11235","","2020-07-13 16:48:00"
"5679","Santa Barbara","5","Antioquia","5.875533398","-75.56735178","8","8","0","0","7","0","1","1","4","0.250","0.125","0.875","0.000","0.125","0.000","0.0000000","0.000","1.000","3398","","2020-07-13 16:48:00"
"5686","Santa Rosa de Osos","5","Antioquia","6.643326001","-75.46074502","3","6","0","3","3","0","0","0","6","0.000","0.000","0.500","0.000","0.000","0.000","0.0000000","0.500","0.500","6312","","2020-07-13 16:48:00"
"5697","El Santuario","5","Antioquia","6.137046858","-75.26584979","23","27","0","4","21","2","0","2","4","0.500","0.074","0.778","0.074","0.000","0.000","0.0000000","0.148","0.852","1356","","2020-07-13 16:48:00"
"5736","Segovia","5","Antioquia","7.079639679","-74.70159107","2","2","0","0","2","0","0","0","6","0.000","0.000","1.000","0.000","0.000","0.000","0.0000000","0.000","1.000","19690","","2020-07-13 16:48:00"
"5756","Sonson","5","Antioquia","5.714811641","-75.30939515","1","3","0","2","0","0","1","1","4","0.250","0.333","0.000","0.000","0.333","0.000","0.0000000","0.667","0.333","12208","","2020-07-13 16:48:00"
"5761","Sopetran","5","Antioquia","6.500985773","-75.74725636","8","8","0","0","8","0","0","0","3","0.000","0.000","1.000","0.000","0.000","0.000","0.0000000","0.000","1.000","1939","","2020-07-13 16:48:00"
"5789","Tamesis","5","Antioquia","5.664466636","-75.71432069","1","7","0","6","1","0","0","0","4","0.000","0.000","0.143","0.000","0.000","0.000","0.0000000","0.857","0.143","2314","","2020-07-13 16:48:00"
"5790","Taraza","5","Antioquia","7.580120815","-75.40140596","4","8","0","4","4","0","0","0","5","0.000","0.000","0.500","0.000","0.000","0.000","0.0000000","0.500","0.500","3499","","2020-07-13 16:48:00"
"5809","Titiribi","5","Antioquia","6.060980082","-75.79154901","1","1","0","0","1","0","0","0","8","0.000","0.000","1.000","0.000","0.000","0.000","0.0000000","0.000","1.000","10719","","2020-07-13 16:48:00"
"5837","Turbo","5","Antioquia","8.089116411","-76.72915844","118","268","8","142","106","11","1","12","51","0.235","0.045","0.396","0.041","0.004","0.030","6.1448180","0.530","0.440","486","16274","2020-07-13 16:48:00"
"5842","Uramita","5","Antioquia","6.898494111","-76.17340916","1","1","0","0","1","0","0","0","5","0.000","0.000","1.000","0.000","0.000","0.000","0.0000000","0.000","1.000","6899","","2020-07-13 16:48:00"
"5854","Valdivia","5","Antioquia","7.16534","-75.43919844","7","15","0","8","7","0","0","0","4","0.000","0.000","0.467","0.000","0.000","0.000","0.0000000","0.533","0.467","940","","2020-07-13 16:48:00"
"5856","Valparaiso","5","Antioquia","5.614550725","-75.62445889","1","1","0","0","1","0","0","0","2","0.000","0.000","1.000","0.000","0.000","0.000","0.0000000","0.000","1.000","6472","","2020-07-13 16:48:00"
"5861","Venecia","5","Antioquia","5.964733583","-75.73550324","3","3","0","0","3","0","0","0","4","0.000","0.000","1.000","0.000","0.000","0.000","0.0000000","0.000","1.000","3905","","2020-07-13 16:48:00"
"5873","Vigia del Fuerte","5","Antioquia","6.588119845","-76.89618698","10","21","2","9","9","1","0","1","3","0.333","0.048","0.429","0.048","0.000","0.095","21.2246631","0.429","0.476","449","4712","2020-07-13 16:48:00"
"5887","Yarumal","5","Antioquia","6.963872352","-75.41883314","8","11","1","2","8","0","0","0","37","0.000","0.000","0.727","0.000","0.000","0.091","2.3431276","0.182","0.727","3880","42678","2020-07-13 16:48:00"
"5890","Yolombo","5","Antioquia","6.594592434","-75.01335058","12","14","0","2","10","2","0","2","26","0.077","0.143","0.714","0.143","0.000","0.000","0.0000000","0.143","0.857","1679","","2020-07-13 16:48:00"
"5895","Zaragoza","5","Antioquia","7.488583075","-74.86707471","3","3","0","0","0","3","0","3","8","0.375","1.000","0.000","1.000","0.000","0.000","0.0000000","0.000","1.000","8568","","2020-07-13 16:48:00"
"8001","Barranquilla","8","Atlantico","10.97592682","-74.79525905","9351","19158","1136","8671","8334","850","115","965","2591","0.372","0.050","0.435","0.044","0.006","0.059","89.1504807","0.453","0.488","67","1122","2020-07-13 16:48:00"
"8078","Baranoa","8","Atlantico","10.79488048","-74.91609981","684","918","30","204","653","24","7","31","218","0.142","0.034","0.711","0.026","0.008","0.033","44.7427293","0.222","0.745","73","2235","2020-07-13 16:48:00"
"8137","Campo de la Cruz","8","Atlantico","10.37924013","-74.88315173","41","50","1","8","41","0","0","0","16","0.000","0.000","0.820","0.000","0.000","0.020","4.2432215","0.160","0.820","471","23567","2020-07-13 16:48:00"
"8141","Candelaria","8","Atlantico","10.46121723","-74.8799126","38","56","1","17","36","0","1","1","2","0.500","0.018","0.643","0.000","0.018","0.018","5.8156441","0.304","0.679","307","17195","2020-07-13 16:48:00"
"8296","Galapa","8","Atlantico","10.919641","-74.8669381","530","1003","53","420","496","30","3","33","5","6.600","0.033","0.495","0.030","0.003","0.053","79.0796914","0.419","0.528","67","1265","2020-07-13 16:48:00"
"8372","Juan de Acosta","8","Atlantico","10.83018223","-75.04079914","33","59","1","25","33","0","0","0","6","0.000","0.000","0.559","0.000","0.000","0.017","4.3952180","0.424","0.559","386","22752","2020-07-13 16:48:00"
"8421","Luruaco","8","Atlantico","10.61111642","-75.14224614","24","59","2","33","20","2","2","4","61","0.066","0.068","0.339","0.034","0.034","0.034","6.5976117","0.559","0.407","514","15157","2020-07-13 16:48:00"
"8433","Malambo","8","Atlantico","10.85628724","-74.77424057","730","1686","115","841","656","60","10","70","52","1.346","0.042","0.389","0.036","0.006","0.068","82.3982918","0.499","0.433","83","1214","2020-07-13 16:48:00"
"8436","Manati","8","Atlantico","10.44896238","-74.95703499","24","49","0","25","22","1","1","2","1","2.000","0.041","0.449","0.020","0.020","0.000","0.0000000","0.510","0.490","438","","2020-07-13 16:48:00"
"8520","Palmar de Varela","8","Atlantico","10.73858326","-74.75475789","93","197","6","98","86","6","1","7","36","0.194","0.036","0.437","0.030","0.005","0.030","19.3311425","0.497","0.472","158","5173","2020-07-13 16:48:00"
"8549","Piojo","8","Atlantico","10.74934442","-75.10747012","18","34","1","15","18","0","0","0","1","0.000","0.000","0.529","0.000","0.000","0.029","14.1063620","0.441","0.529","209","7089","2020-07-13 16:48:00"
"8558","Polonuevo","8","Atlantico","10.77772451","-74.85425725","124","203","7","72","118","4","2","6","3","2.000","0.030","0.581","0.020","0.010","0.034","35.8147864","0.355","0.611","96","2792","2020-07-13 16:48:00"
"8560","Ponedera","8","Atlantico","10.64179593","-74.75390044","57","88","2","29","51","4","0","4","11","0.364","0.045","0.580","0.045","0.000","0.023","7.7736318","0.330","0.648","292","12864","2020-07-13 16:48:00"
"8573","Puerto Colombia","8","Atlantico","11.02294005","-74.85196357","507","765","30","228","487","17","1","18","344","0.052","0.024","0.637","0.022","0.001","0.039","55.9190292","0.298","0.663","70","1788","2020-07-13 16:48:00"
"8606","Repelon","8","Atlantico","10.49334167","-75.12548162","31","42","3","8","25","5","0","5","1","5.000","0.119","0.595","0.119","0.000","0.071","10.6753968","0.190","0.738","669","9367","2020-07-13 16:48:00"
"8634","Sabanagrande","8","Atlantico","10.79107595","-74.75850721","296","538","11","231","272","21","2","23","41","0.561","0.043","0.506","0.039","0.004","0.020","31.3533235","0.429","0.550","65","3189","2020-07-13 16:48:00"
"8638","Sabanalarga","8","Atlantico","10.63283523","-74.92109368","371","598","16","211","353","15","1","16","114","0.140","0.027","0.590","0.025","0.002","0.027","15.9921638","0.353","0.620","167","6253","2020-07-13 16:48:00"
"8675","Santa Lucia","8","Atlantico","10.32327321","-74.95897145","46","62","1","15","46","0","0","0","0","","0.000","0.742","0.000","0.000","0.016","5.8465856","0.242","0.742","276","17104","2020-07-13 16:48:00"
"8685","Santo Tomas","8","Atlantico","10.75605629","-74.75411186","130","260","10","120","116","11","3","14","32","0.438","0.054","0.446","0.042","0.012","0.038","31.2500000","0.462","0.500","123","3200","2020-07-13 16:48:00"
"8758","Soledad","8","Atlantico","10.91017447","-74.78483338","4102","8484","465","3917","3658","365","54","419","327","1.281","0.049","0.431","0.043","0.006","0.055","69.9226039","0.462","0.483","78","1430","2020-07-13 16:48:00"
"8770","Suan","8","Atlantico","10.33543138","-74.88168748","34","45","3","8","30","3","1","4","1","4.000","0.089","0.667","0.067","0.022","0.067","23.8625517","0.178","0.756","279","4191","2020-07-13 16:48:00"
"8832","Tubara","8","Atlantico","10.87364774","-74.97867947","76","129","7","46","71","2","2","4","2","2.000","0.031","0.550","0.016","0.016","0.054","37.1431604","0.357","0.589","146","2692","2020-07-13 16:48:00"
"8849","Usiacuri","8","Atlantico","10.74297819","-74.97698261","55","102","2","45","54","1","0","1","1","1.000","0.010","0.529","0.010","0.000","0.020","15.2160682","0.441","0.539","129","6572","2020-07-13 16:48:00"
"11001","Bogota D.C.","11","Bogota D.C.","4.65017303","-74.107359","31691","51281","1169","18421","28630","2832","150","2982","7247","0.411","0.058","0.558","0.055","0.003","0.023","15.0956456","0.359","0.618","151","6624","2020-07-13 16:48:00"
"13001","Cartagena de Indias","13","Bolivar","10.38498552","-75.49643103","4154","10980","389","6437","3851","236","50","286","1588","0.180","0.026","0.351","0.021","0.005","0.035","37.8133943","0.586","0.378","94","2645","2020-07-13 16:48:00"
"13006","Achi","13","Bolivar","8.569110393","-74.55706395","3","4","1","0","0","3","0","3","7","0.429","0.750","0.000","0.750","0.000","0.250","4.0160643","0.000","0.750","6225","24900","2020-07-13 16:48:00"
"13042","Arenal","13","Bolivar","8.458630438","-73.94111583","2","4","1","1","2","0","0","0","4","0.000","0.000","0.500","0.000","0.000","0.250","12.8617363","0.250","0.500","1944","7775","2020-07-13 16:48:00"
"13052","Arjona","13","Bolivar","10.25663152","-75.34448845","81","208","8","119","75","5","1","6","10","0.600","0.029","0.361","0.024","0.005","0.038","10.8504001","0.572","0.389","354","9216","2020-07-13 16:48:00"
"13062","Arroyohondo","13","Bolivar","10.24279848","-75.01719268","1","1","0","0","0","1","0","1","1","1.000","1.000","0.000","1.000","0.000","0.000","0.0000000","0.000","1.000","8710","","2020-07-13 16:48:00"
"13074","Barranco de Loba","13","Bolivar","8.947730158","-74.10522428","0","2","2","0","0","0","0","0","6","0.000","0.000","0.000","0.000","0.000","1.000","13.1743627","0.000","0.000","7591","7591","2020-07-13 16:48:00"
"13140","Calamar","13","Bolivar","10.25196336","-74.91362928","30","48","1","17","29","1","0","1","7","0.143","0.021","0.604","0.021","0.000","0.021","4.3295666","0.354","0.625","481","23097","2020-07-13 16:48:00"
"13160","Cantagallo","13","Bolivar","7.3783156","-73.91465024","1","1","0","0","0","1","0","1","3","0.333","1.000","0.000","1.000","0.000","0.000","0.0000000","0.000","1.000","8696","","2020-07-13 16:48:00"
"13188","Cicuco","13","Bolivar","9.274745598","-74.64549419","4","5","0","1","2","2","0","2","1","2.000","0.400","0.400","0.400","0.000","0.000","0.0000000","0.200","0.800","2860","","2020-07-13 16:48:00"
"13222","Clemencia","13","Bolivar","10.56754177","-75.32851201","7","14","2","5","6","0","0","0","3","0.000","0.000","0.429","0.000","0.000","0.143","12.9424707","0.357","0.500","1104","7727","2020-07-13 16:48:00"
"13244","El Carmen de Bolivar","13","Bolivar","9.718579864","-75.12121573","16","60","5","39","10","3","2","5","49","0.102","0.083","0.167","0.050","0.033","0.083","6.8875267","0.650","0.267","1210","14519","2020-07-13 16:48:00"
"13300","Hatillo de Loba","13","Bolivar","8.955614891","-74.07836471","1","1","0","0","0","0","1","1","4","0.250","1.000","0.000","0.000","1.000","0.000","0.0000000","0.000","1.000","13012","","2020-07-13 16:48:00"
"13430","Magangue","13","Bolivar","9.268563794","-74.77017457","166","225","16","43","123","40","1","41","220","0.186","0.182","0.547","0.178","0.004","0.071","11.4158509","0.191","0.738","623","8760","2020-07-13 16:48:00"
"13433","Mahates","13","Bolivar","10.23325452","-75.19133659","20","64","1","43","17","1","0","1","10","0.100","0.016","0.266","0.016","0.000","0.016","3.4065747","0.672","0.313","459","29355","2020-07-13 16:48:00"
"13442","Maria la Baja","13","Bolivar","9.982645517","-75.30075935","15","21","1","5","13","1","1","2","1","2.000","0.095","0.619","0.048","0.048","0.048","2.0636853","0.238","0.714","2307","48457","2020-07-13 16:48:00"
"13458","Montecristo","13","Bolivar","8.297136275","-74.47170385","1","1","0","0","1","0","0","0","4","0.000","0.000","1.000","0.000","0.000","0.000","0.0000000","0.000","1.000","17604","","2020-07-13 16:48:00"
"13468","Mompos","13","Bolivar","9.243883757","-74.42786642","6","7","0","1","1","4","0","4","36","0.111","0.571","0.143","0.571","0.000","0.000","0.0000000","0.143","0.857","6630","","2020-07-13 16:48:00"
"13473","Morales","13","Bolivar","8.276306771","-73.86814048","1","1","0","0","0","1","0","1","5","0.200","1.000","0.000","1.000","0.000","0.000","0.0000000","0.000","1.000","23348","","2020-07-13 16:48:00"
"13490","Norosi","13","Bolivar","8.525980787","-74.03805913","1","1","0","0","0","1","0","1","1","1.000","1.000","0.000","1.000","0.000","0.000","0.0000000","0.000","1.000","9953","","2020-07-13 16:48:00"
"13549","Pinillos","13","Bolivar","8.915452234","-74.46240354","1","2","0","1","0","0","0","0","4","0.000","0.000","0.000","0.000","0.000","0.000","0.0000000","0.500","0.500","12353","","2020-07-13 16:48:00"
"13620","San Cristobal","13","Bolivar","10.39285577","-75.06553417","10","12","0","2","10","0","0","0","1","0.000","0.000","0.833","0.000","0.000","0.000","0.0000000","0.167","0.833","714","","2020-07-13 16:48:00"
"13647","San Estanislao","13","Bolivar","10.3984757","-75.15325792","2","2","0","0","2","0","0","0","1","0.000","0.000","1.000","0.000","0.000","0.000","0.0000000","0.000","1.000","9564","","2020-07-13 16:48:00"
"13654","San Jacinto","13","Bolivar","9.830219073","-75.1210888","4","6","0","2","3","0","1","1","7","0.143","0.167","0.500","0.000","0.167","0.000","0.0000000","0.333","0.667","4092","","2020-07-13 16:48:00"
"13657","San Juan Nepomuceno","13","Bolivar","9.953454388","-75.08135293","17","35","2","16","17","0","0","0","8","0.000","0.000","0.486","0.000","0.000","0.057","5.1908952","0.457","0.486","1101","19265","2020-07-13 16:48:00"
"13670","San Pablo","13","Bolivar","7.476720672","-73.92416855","3","8","0","5","1","2","0","2","6","0.333","0.250","0.125","0.250","0.000","0.000","0.0000000","0.625","0.375","3593","","2020-07-13 16:48:00"
"13673","Santa Catalina","13","Bolivar","10.60505605","-75.28776411","6","14","1","7","6","0","0","0","5","0.000","0.000","0.429","0.000","0.000","0.071","6.6898582","0.500","0.429","1068","14948","2020-07-13 16:48:00"
"13683","Santa Rosa","13","Bolivar","10.44439608","-75.36983166","21","82","8","53","17","2","1","3","16","0.188","0.037","0.207","0.024","0.012","0.098","35.6999420","0.646","0.256","273","2801","2020-07-13 16:48:00"
"13688","Santa Rosa del Sur","13","Bolivar","7.962854831","-74.05284001","5","8","0","3","4","1","0","1","11","0.091","0.125","0.500","0.125","0.000","0.000","0.0000000","0.375","0.625","4321","","2020-07-13 16:48:00"
"13760","Soplaviento","13","Bolivar","10.38845743","-75.13642551","3","11","0","8","3","0","0","0","3","0.000","0.000","0.273","0.000","0.000","0.000","0.0000000","0.727","0.273","985","","2020-07-13 16:48:00"
"13810","Tiquisio","13","Bolivar","8.507047679","-74.33825319","7","14","0","7","4","2","0","2","4","0.500","0.143","0.286","0.143","0.000","0.000","0.0000000","0.500","0.500","1360","","2020-07-13 16:48:00"
"13836","Turbaco","13","Bolivar","10.33276916","-75.42440917","187","371","8","176","181","4","1","5","70","0.071","0.013","0.488","0.011","0.003","0.022","7.0521862","0.474","0.504","306","14180","2020-07-13 16:48:00"
"13838","Turbana","13","Bolivar","10.27440205","-75.44250247","29","63","3","31","27","2","0","2","1","2.000","0.032","0.429","0.032","0.000","0.048","17.2294969","0.492","0.460","276","5804","2020-07-13 16:48:00"
"13873","Villanueva","13","Bolivar","10.44449833","-75.27475439","19","68","4","45","16","2","1","3","1","3.000","0.044","0.235","0.029","0.015","0.059","15.8535135","0.662","0.279","371","6308","2020-07-13 16:48:00"
"13894","Zambrano","13","Bolivar","9.7469139","-74.8138396","1","2","0","1","1","0","0","0","5","0.000","0.000","0.500","0.000","0.000","0.000","0.0000000","0.500","0.500","6161","","2020-07-13 16:48:00"
"15001","Tunja","15","Boyaca","5.539953238","-73.35548873","56","151","4","91","43","12","0","12","299","0.040","0.079","0.285","0.079","0.000","0.026","2.2313584","0.603","0.371","1187","44816","2020-07-13 16:48:00"
"15047","Aquitania","15","Boyaca","5.518603543","-72.88398481","0","2","0","2","0","0","0","0","3","0.000","0.000","0.000","0.000","0.000","0.000","0.0000000","1.000","0.000","7773","","2020-07-13 16:48:00"
"15109","Buenavista","15","Boyaca","5.512431151","-73.94230522","0","1","0","1","0","0","0","0","0","","0.000","0.000","0.000","0.000","0.000","0.0000000","1.000","0.000","4396","","2020-07-13 16:48:00"
"15131","Caldas","15","Boyaca","5.554575079","-73.865541","0","1","0","1","0","0","0","0","0","","0.000","0.000","0.000","0.000","0.000","0.0000000","1.000","0.000","3126","","2020-07-13 16:48:00"
"15176","Chiquinquira","15","Boyaca","5.61412789","-73.81838763","11","34","1","22","11","0","0","0","47","0.000","0.000","0.324","0.000","0.000","0.029","1.7260723","0.647","0.324","1704","57935","2020-07-13 16:48:00"
"15189","Cienega","15","Boyaca","5.408702192","-73.29606129","1","1","0","0","1","0","0","0","0","","0.000","1.000","0.000","0.000","0.000","0.0000000","0.000","1.000","4655","","2020-07-13 16:48:00"
"15204","Combita","15","Boyaca","5.634545314","-73.32395642","0","8","0","8","0","0","0","0","0","","0.000","0.000","0.000","0.000","0.000","0.0000000","1.000","0.000","1660","","2020-07-13 16:48:00"
"15212","Coper","15","Boyaca","5.474983018","-74.04546072","0","1","0","1","0","0","0","0","0","","0.000","0.000","0.000","0.000","0.000","0.0000000","1.000","0.000","3571","","2020-07-13 16:48:00"
"15215","Corrales","15","Boyaca","5.828102208","-72.84479484","0","1","0","1","0","0","0","0","0","","0.000","0.000","0.000","0.000","0.000","0.0000000","1.000","0.000","2545","","2020-07-13 16:48:00"
"15218","Covarachia","15","Boyaca","6.50017746","-72.73897793","0","1","1","0","0","0","0","0","0","","0.000","0.000","0.000","0.000","1.000","37.0096225","0.000","0.000","2702","2702","2020-07-13 16:48:00"
"15223","Cubara","15","Boyaca","7.000092875","-72.11068776","1","3","0","2","0","0","0","0","3","0.000","0.000","0.000","0.000","0.000","0.000","0.0000000","0.667","0.333","3583","","2020-07-13 16:48:00"
"15224","Cucaita","15","Boyaca","5.544451559","-73.45433765","0","2","1","1","0","0","0","0","0","","0.000","0.000","0.000","0.000","0.500","26.4061262","0.500","0.000","1894","3787","2020-07-13 16:48:00"
"15238","Duitama","15","Boyaca","5.82298568","-73.03060967","45","81","1","35","35","9","0","9","110","0.082","0.111","0.432","0.111","0.000","0.012","0.7894529","0.432","0.556","1564","126670","2020-07-13 16:48:00"
"15272","Firavitoba","15","Boyaca","5.66892216","-72.99336145","0","3","0","3","0","0","0","0","0","","0.000","0.000","0.000","0.000","0.000","0.0000000","1.000","0.000","2267","","2020-07-13 16:48:00"
"15299","Garagoa","15","Boyaca","5.083243463","-73.36442756","0","4","1","3","0","0","0","0","15","0.000","0.000","0.000","0.000","0.000","0.250","5.4579194","0.750","0.000","4581","18322","2020-07-13 16:48:00"
"15322","Guateque","15","Boyaca","5.007320895","-73.47120697","2","14","1","11","2","0","0","0","15","0.000","0.000","0.143","0.000","0.000","0.071","9.1709464","0.786","0.143","779","10904","2020-07-13 16:48:00"
"15325","Guayata","15","Boyaca","4.967122531","-73.4896964","1","2","0","1","0","1","0","1","0","","0.500","0.000","0.500","0.000","0.000","0.0000000","0.500","0.500","1696","","2020-07-13 16:48:00"
"15407","Villa de Leyva","15","Boyaca","5.632661849","-73.5246846","0","5","0","5","0","0","0","0","3","0.000","0.000","0.000","0.000","0.000","0.000","0.0000000","1.000","0.000","3395","","2020-07-13 16:48:00"
"15442","Maripi","15","Boyaca","5.55009071","-74.00404995","2","3","1","0","2","0","0","0","5","0.000","0.000","0.667","0.000","0.000","0.333","17.5963400","0.000","0.667","1894","5683","2020-07-13 16:48:00"
"15455","Miraflores","15","Boyaca","5.196515115","-73.14563048","1","2","0","1","1","0","0","0","6","0.000","0.000","0.500","0.000","0.000","0.000","0.0000000","0.500","0.500","4508","","2020-07-13 16:48:00"
"15469","Moniquira","15","Boyaca","5.876334811","-73.57337039","4","9","0","5","4","0","0","0","19","0.000","0.000","0.444","0.000","0.000","0.000","0.0000000","0.556","0.444","2560","","2020-07-13 16:48:00"
"15480","Muzo","15","Boyaca","5.532462867","-74.10275078","0","1","0","1","0","0","0","0","4","0.000","0.000","0.000","0.000","0.000","0.000","0.0000000","1.000","0.000","8394","","2020-07-13 16:48:00"
"15491","Nobsa","15","Boyaca","5.771042624","-72.93985317","1","1","0","0","1","0","0","0","0","","0.000","1.000","0.000","0.000","0.000","0.0000000","0.000","1.000","16446","","2020-07-13 16:48:00"
"15494","Nuevo Colon","15","Boyaca","5.355145864","-73.45713618","0","1","0","1","0","0","0","0","0","","0.000","0.000","0.000","0.000","0.000","0.0000000","1.000","0.000","5217","","2020-07-13 16:48:00"
"15500","Oicata","15","Boyaca","5.595234239","-73.30840398","0","1","0","1","0","0","0","0","22","0.000","0.000","0.000","0.000","0.000","0.000","0.0000000","1.000","0.000","2890","","2020-07-13 16:48:00"
"15516","Paipa","15","Boyaca","5.77994187","-73.11791688","2","6","1","3","0","1","0","1","4","0.250","0.167","0.000","0.167","0.000","0.167","2.8835895","0.500","0.333","5780","34679","2020-07-13 16:48:00"
"15531","Pauna","15","Boyaca","5.656322691","-73.97844872","0","1","0","1","0","0","0","0","2","0.000","0.000","0.000","0.000","0.000","0.000","0.0000000","1.000","0.000","7212","","2020-07-13 16:48:00"
"15533","Paya","15","Boyaca","5.625698707","-72.42377541","0","2","0","2","0","0","0","0","0","","0.000","0.000","0.000","0.000","0.000","0.0000000","1.000","0.000","1318","","2020-07-13 16:48:00"
"15572","Puerto Boyaca","15","Boyaca","5.977934952","-74.58799919","6","6","0","0","6","0","0","0","17","0.000","0.000","1.000","0.000","0.000","0.000","0.0000000","0.000","1.000","8045","","2020-07-13 16:48:00"
"15599","Ramiriqui","15","Boyaca","5.400221644","-73.33486896","2","3","0","1","2","0","0","0","4","0.000","0.000","0.667","0.000","0.000","0.000","0.0000000","0.333","0.667","3359","","2020-07-13 16:48:00"
"15632","Saboya","15","Boyaca","5.697733432","-73.76466062","1","1","0","0","1","0","0","0","0","","0.000","1.000","0.000","0.000","0.000","0.0000000","0.000","1.000","13849","","2020-07-13 16:48:00"
"15646","Samaca","15","Boyaca","5.492314591","-73.48564359","3","6","1","2","3","0","0","0","3","0.000","0.000","0.500","0.000","0.000","0.167","5.3140610","0.333","0.500","3136","18818","2020-07-13 16:48:00"
"15676","San Miguel de Sema","15","Boyaca","5.518086388","-73.72200484","0","1","0","1","0","0","0","0","0","","0.000","0.000","0.000","0.000","0.000","0.0000000","1.000","0.000","3011","","2020-07-13 16:48:00"
"15686","Santana","15","Boyaca","6.057413107","-73.48122632","0","4","0","4","0","0","0","0","0","","0.000","0.000","0.000","0.000","0.000","0.0000000","1.000","0.000","1928","","2020-07-13 16:48:00"
"15693","Santa Rosa de Viterbo","15","Boyaca","5.874555597","-72.98246092","1","2","0","1","1","0","0","0","0","","0.000","0.500","0.000","0.000","0.000","0.0000000","0.500","0.500","6663","","2020-07-13 16:48:00"
"15696","Santa Sofia","15","Boyaca","5.713269421","-73.60270717","0","1","0","1","0","0","0","0","0","","0.000","0.000","0.000","0.000","0.000","0.0000000","1.000","0.000","3212","","2020-07-13 16:48:00"
"15740","Siachoque","15","Boyaca","5.511815055","-73.24464901","1","1","0","0","0","1","0","1","0","","1.000","0.000","1.000","0.000","0.000","0.0000000","0.000","1.000","6774","","2020-07-13 16:48:00"
"15757","Socha","15","Boyaca","5.996713021","-72.69196586","0","4","0","4","0","0","0","0","2","0.000","0.000","0.000","0.000","0.000","0.000","0.0000000","1.000","0.000","2022","","2020-07-13 16:48:00"
"15759","Sogamoso","15","Boyaca","5.72568939","-72.92304769","46","68","2","20","36","7","2","9","171","0.053","0.132","0.529","0.103","0.029","0.029","1.5254948","0.294","0.676","1928","65553","2020-07-13 16:48:00"
"15774","Susacon","15","Boyaca","6.230332074","-72.69028925","4","4","0","0","3","1","0","1","0","","0.250","0.750","0.250","0.000","0.000","0.0000000","0.000","1.000","676","","2020-07-13 16:48:00"
"15776","Sutamarchan","15","Boyaca","5.619781419","-73.6205861","1","17","0","16","1","0","0","0","0","","0.000","0.059","0.000","0.000","0.000","0.0000000","0.941","0.059","366","","2020-07-13 16:48:00"
"15790","Tasco","15","Boyaca","5.909821031","-72.78101116","0","1","1","0","0","0","0","0","0","","0.000","0.000","0.000","0.000","1.000","17.2651934","0.000","0.000","5792","5792","2020-07-13 16:48:00"
"15798","Tenza","15","Boyaca","5.077074351","-73.42058911","0","2","0","2","0","0","0","0","0","","0.000","0.000","0.000","0.000","0.000","0.0000000","1.000","0.000","1911","","2020-07-13 16:48:00"
"15804","Tibana","15","Boyaca","5.317250924","-73.39645722","2","2","0","0","2","0","0","0","0","","0.000","1.000","0.000","0.000","0.000","0.0000000","0.000","1.000","4560","","2020-07-13 16:48:00"
"15806","Tibasosa","15","Boyaca","5.747229977","-72.99944921","1","1","0","0","1","0","0","0","0","","0.000","1.000","0.000","0.000","0.000","0.0000000","0.000","1.000","13396","","2020-07-13 16:48:00"
"15808","Tinjaca","15","Boyaca","5.57971331","-73.64684734","0","1","0","1","0","0","0","0","0","","0.000","0.000","0.000","0.000","0.000","0.0000000","1.000","0.000","3351","","2020-07-13 16:48:00"
"15810","Tipacoque","15","Boyaca","6.418585803","-72.69317268","0","1","0","1","0","0","0","0","0","","0.000","0.000","0.000","0.000","0.000","0.0000000","1.000","0.000","3290","","2020-07-13 16:48:00"
"15814","Toca","15","Boyaca","5.56646915","-73.18479034","1","5","0","4","0","1","0","1","4","0.250","0.200","0.000","0.200","0.000","0.000","0.0000000","0.800","0.200","1779","","2020-07-13 16:48:00"
"15816","Togui","15","Boyaca","5.937438225","-73.51365506","0","14","0","14","0","0","0","0","0","","0.000","0.000","0.000","0.000","0.000","0.0000000","1.000","0.000","310","","2020-07-13 16:48:00"
"15835","Turmeque","15","Boyaca","5.323252768","-73.49184702","1","4","0","3","1","0","0","0","2","0.000","0.000","0.250","0.000","0.000","0.000","0.0000000","0.750","0.250","1539","","2020-07-13 16:48:00"
"15861","Ventaquemada","15","Boyaca","5.368733979","-73.52237325","1","7","0","6","1","0","0","0","0","","0.000","0.143","0.000","0.000","0.000","0.0000000","0.857","0.143","2299","","2020-07-13 16:48:00"
"15879","Viracacha","15","Boyaca","5.436788535","-73.29689965","0","1","0","1","0","0","0","0","0","","0.000","0.000","0.000","0.000","0.000","0.0000000","1.000","0.000","2809","","2020-07-13 16:48:00"
"17001","Manizales","17","Caldas","5.057688197","-75.49104898","47","156","2","107","38","7","1","8","796","0.010","0.051","0.244","0.045","0.006","0.013","0.4482697","0.686","0.301","2860","223080","2020-07-13 16:48:00"
"17013","Aguadas","17","Caldas","5.610244456","-75.45486967","0","1","0","1","0","0","0","0","8","0.000","0.000","0.000","0.000","0.000","0.000","0.0000000","1.000","0.000","23048","","2020-07-13 16:48:00"
"17042","Anserma","17","Caldas","5.236474391","-75.78434266","3","4","0","1","3","0","0","0","10","0.000","0.000","0.750","0.000","0.000","0.000","0.0000000","0.250","0.750","9173","","2020-07-13 16:48:00"
"17050","Aranzazu","17","Caldas","5.271141768","-75.49125461","0","1","0","1","0","0","0","0","6","0.000","0.000","0.000","0.000","0.000","0.000","0.0000000","1.000","0.000","10556","","2020-07-13 16:48:00"
"17174","Chinchina","17","Caldas","4.985812862","-75.60748073","3","12","0","9","2","1","0","1","38","0.026","0.083","0.167","0.083","0.000","0.000","0.0000000","0.750","0.250","4356","","2020-07-13 16:48:00"
"17380","La Dorada","17","Caldas","5.444406098","-74.65820562","10","85","2","73","8","2","0","2","61","0.033","0.024","0.094","0.024","0.000","0.024","2.7024836","0.859","0.118","871","37003","2020-07-13 16:48:00"
"17433","Manzanares","17","Caldas","5.255720253","-75.15282885","0","3","1","2","0","0","0","0","5","0.000","0.000","0.000","0.000","0.000","0.333","5.6198719","0.667","0.000","5931","17794","2020-07-13 16:48:00"
"17442","Marmato","17","Caldas","5.47400482","-75.60024162","0","1","0","1","0","0","0","0","5","0.000","0.000","0.000","0.000","0.000","0.000","0.0000000","1.000","0.000","9167","","2020-07-13 16:48:00"
"17444","Marquetalia","17","Caldas","5.297524561","-75.05309703","0","7","0","7","0","0","0","0","5","0.000","0.000","0.000","0.000","0.000","0.000","0.0000000","1.000","0.000","1927","","2020-07-13 16:48:00"
"17486","Neira","17","Caldas","5.166705703","-75.51984208","1","2","0","1","0","1","0","1","7","0.143","0.500","0.000","0.500","0.000","0.000","0.0000000","0.500","0.500","10557","","2020-07-13 16:48:00"
"17495","Norcasia","17","Caldas","5.574795393","-74.88954408","0","1","1","0","0","0","0","0","4","0.000","0.000","0.000","0.000","0.000","1.000","16.3185379","0.000","0.000","6128","6128","2020-07-13 16:48:00"
"17614","Riosucio","17","Caldas","5.423680913","-75.70206971","3","5","0","2","3","0","0","0","14","0.000","0.000","0.600","0.000","0.000","0.000","0.0000000","0.400","0.600","10391","","2020-07-13 16:48:00"
"17616","Risaralda","17","Caldas","5.164508957","-75.76721954","0","1","0","1","0","0","0","0","6","0.000","0.000","0.000","0.000","0.000","0.000","0.0000000","1.000","0.000","10568","","2020-07-13 16:48:00"
"17662","Samana","17","Caldas","5.413086301","-74.99225776","0","2","0","2","0","0","0","0","9","0.000","0.000","0.000","0.000","0.000","0.000","0.0000000","1.000","0.000","9984","","2020-07-13 16:48:00"
"17777","Supia","17","Caldas","5.446842982","-75.64966031","0","1","0","1","0","0","0","0","10","0.000","0.000","0.000","0.000","0.000","0.000","0.0000000","1.000","0.000","29363","","2020-07-13 16:48:00"
"17873","Villamaria","17","Caldas","5.043806686","-75.5137606","2","17","1","14","1","1","0","1","7","0.143","0.059","0.059","0.059","0.000","0.059","1.4830414","0.824","0.118","3966","67429","2020-07-13 16:48:00"
"17877","Viterbo","17","Caldas","5.062664236","-75.87060986","1","3","0","2","1","0","0","0","3","0.000","0.000","0.333","0.000","0.000","0.000","0.0000000","0.667","0.333","4284","","2020-07-13 16:48:00"
"18001","Florencia","18","Caqueta","1.61792293","-75.60856043","80","105","2","23","66","13","1","14","257","0.054","0.133","0.629","0.124","0.010","0.019","1.1559959","0.219","0.762","1648","86506","2020-07-13 16:48:00"
"18029","Albania","18","Caqueta","1.328522088","-75.87837054","1","1","0","0","1","0","0","0","1","0.000","0.000","1.000","0.000","0.000","0.000","0.0000000","0.000","1.000","4396","","2020-07-13 16:48:00"
"18094","Belen de los Andaquies","18","Caqueta","1.415786446","-75.87247395","1","1","0","0","1","0","0","0","7","0.000","0.000","1.000","0.000","0.000","0.000","0.0000000","0.000","1.000","11181","","2020-07-13 16:48:00"
"18150","Cartagena del Chaira","18","Caqueta","1.335134955","-74.84719837","1","1","0","0","1","0","0","0","7","0.000","0.000","1.000","0.000","0.000","0.000","0.0000000","0.000","1.000","31151","","2020-07-13 16:48:00"
"18247","El Doncello","18","Caqueta","1.679872476","-75.28356287","1","1","0","0","0","1","0","1","8","0.125","1.000","0.000","1.000","0.000","0.000","0.0000000","0.000","1.000","19284","","2020-07-13 16:48:00"
"18592","Puerto Rico","18","Caqueta","1.908935073","-75.15748874","3","3","0","0","3","0","0","0","8","0.000","0.000","1.000","0.000","0.000","0.000","0.0000000","0.000","1.000","8761","","2020-07-13 16:48:00"
"18610","San Jose del Fragua","18","Caqueta","1.33194848","-75.9735381","1","1","0","0","1","0","0","0","1","0.000","0.000","1.000","0.000","0.000","0.000","0.0000000","0.000","1.000","13099","","2020-07-13 16:48:00"
"18753","San Vicente del Caguan","18","Caqueta","2.119786131","-74.76734058","2","2","0","0","0","0","1","1","8","0.125","0.500","0.000","0.000","0.500","0.000","0.0000000","0.000","1.000","26297","","2020-07-13 16:48:00"
"18785","Solita","18","Caqueta","0.876668003","-75.61973409","3","3","0","0","3","0","0","0","4","0.000","0.000","1.000","0.000","0.000","0.000","0.0000000","0.000","1.000","2115","","2020-07-13 16:48:00"
"19001","Popayan","19","Cauca","2.482503391","-76.57406468","192","285","6","87","170","17","4","21","660","0.032","0.074","0.596","0.060","0.014","0.021","1.8434482","0.305","0.674","1142","54246","2020-07-13 16:48:00"
"19050","Argelia","19","Cauca","2.256754909","-77.24945028","3","3","0","0","2","1","0","1","3","0.333","0.333","0.667","0.333","0.000","0.000","0.0000000","0.000","1.000","8863","","2020-07-13 16:48:00"
"19075","Balboa","19","Cauca","2.040478768","-77.21589814","11","11","0","0","9","2","0","2","3","0.667","0.182","0.818","0.182","0.000","0.000","0.0000000","0.000","1.000","1949","","2020-07-13 16:48:00"
"19110","Buenos Aires","19","Cauca","3.01542683","-76.64228059","1","3","1","1","1","0","0","0","3","0.000","0.000","0.333","0.000","0.000","0.333","3.1202222","0.333","0.333","10683","32049","2020-07-13 16:48:00"
"19130","Cajibio","19","Cauca","2.623338254","-76.57088427","0","1","1","0","0","0","0","0","4","0.000","0.000","0.000","0.000","0.000","1.000","2.3346485","0.000","0.000","42833","42833","2020-07-13 16:48:00"
"19137","Caldono","19","Cauca","2.798130826","-76.48444786","7","7","0","0","6","1","0","1","24","0.042","0.143","0.857","0.143","0.000","0.000","0.0000000","0.000","1.000","5967","","2020-07-13 16:48:00"
"19142","Caloto","19","Cauca","3.034070778","-76.40848704","5","9","0","4","3","2","0","2","4","0.500","0.222","0.333","0.222","0.000","0.000","0.0000000","0.444","0.556","3357","","2020-07-13 16:48:00"
"19212","Corinto","19","Cauca","3.173815457","-76.26131419","8","9","1","0","6","1","1","2","3","0.667","0.222","0.667","0.111","0.111","0.111","3.9308176","0.000","0.889","2827","25440","2020-07-13 16:48:00"
"19256","El Tambo","19","Cauca","2.45137136","-76.81077225","5","10","0","5","4","1","0","1","5","0.200","0.100","0.400","0.100","0.000","0.000","0.0000000","0.500","0.500","5377","","2020-07-13 16:48:00"
"19300","Guachene","19","Cauca","3.134153295","-76.39218874","3","6","0","3","3","0","0","0","0","","0.000","0.500","0.000","0.000","0.000","0.0000000","0.500","0.500","3337","","2020-07-13 16:48:00"
"19318","Guapi","19","Cauca","2.572918366","-77.88803347","63","67","3","1","54","4","5","9","9","1.000","0.134","0.806","0.060","0.075","0.045","10.8318891","0.015","0.940","413","9232","2020-07-13 16:48:00"
"19418","Lopez de Micay","19","Cauca","2.846715932","-77.24769154","3","4","0","1","1","2","0","2","4","0.500","0.500","0.250","0.500","0.000","0.000","0.0000000","0.250","0.750","4733","","2020-07-13 16:48:00"
"19450","Mercaderes","19","Cauca","1.775772495","-77.16584432","1","1","0","0","0","1","0","1","2","0.500","1.000","0.000","1.000","0.000","0.000","0.0000000","0.000","1.000","23097","","2020-07-13 16:48:00"
"19455","Miranda","19","Cauca","3.253095405","-76.22886987","30","45","2","13","23","5","2","7","3","2.333","0.156","0.511","0.111","0.044","0.044","6.2340253","0.289","0.667","713","16041","2020-07-13 16:48:00"
"19473","Morales","19","Cauca","2.754558567","-76.62922056","1","1","0","0","1","0","0","0","4","0.000","0.000","1.000","0.000","0.000","0.000","0.0000000","0.000","1.000","40084","","2020-07-13 16:48:00"
"19513","Padilla","19","Cauca","3.220853836","-76.31329089","2","3","1","0","1","1","0","1","1","1.000","0.333","0.333","0.333","0.000","0.333","10.0080064","0.000","0.667","3331","9992","2020-07-13 16:48:00"
"19532","Patia","19","Cauca","2.069200142","-77.05327491","7","8","0","1","2","5","0","5","7","0.714","0.625","0.250","0.625","0.000","0.000","0.0000000","0.125","0.875","4687","","2020-07-13 16:48:00"
"19548","Piendamo","19","Cauca","2.641987578","-76.52850592","7","27","1","19","5","1","1","2","5","0.400","0.074","0.185","0.037","0.037","0.037","2.3902287","0.704","0.259","1550","41837","2020-07-13 16:48:00"
"19573","Puerto Tejada","19","Cauca","3.233294127","-76.4173078","59","121","3","59","41","14","3","17","9","1.889","0.140","0.339","0.116","0.025","0.025","7.1782356","0.488","0.488","345","13931","2020-07-13 16:48:00"
"19622","Rosas","19","Cauca","2.260979699","-76.74035187","5","5","0","0","5","0","0","0","2","0.000","0.000","1.000","0.000","0.000","0.000","0.0000000","0.000","1.000","2308","","2020-07-13 16:48:00"
"19698","Santander de Quilichao","19","Cauca","3.016053901","-76.48537029","39","59","1","19","30","6","3","9","32","0.281","0.153","0.508","0.102","0.051","0.017","0.8849479","0.322","0.661","1915","113001","2020-07-13 16:48:00"
"19743","Silvia","19","Cauca","2.611815645","-76.37957042","4","8","2","2","4","0","0","0","10","0.000","0.000","0.500","0.000","0.000","0.250","5.2544466","0.250","0.500","4758","19032","2020-07-13 16:48:00"
"19780","Suarez","19","Cauca","2.959701537","-76.69344711","1","1","0","0","1","0","0","0","4","0.000","0.000","1.000","0.000","0.000","0.000","0.0000000","0.000","1.000","32526","","2020-07-13 16:48:00"
"19807","Timbio","19","Cauca","2.349976425","-76.68423879","10","14","0","4","10","0","0","0","5","0.000","0.000","0.714","0.000","0.000","0.000","0.0000000","0.286","0.714","2592","","2020-07-13 16:48:00"
"19809","Timbiqui","19","Cauca","2.777413702","-77.66756524","6","17","3","8","0","6","0","6","4","1.500","0.353","0.000","0.353","0.000","0.176","11.2752283","0.471","0.353","1565","8869","2020-07-13 16:48:00"
"19824","Totoro","19","Cauca","2.510229193","-76.40244251","0","1","0","1","0","0","0","0","4","0.000","0.000","0.000","0.000","0.000","0.000","0.0000000","1.000","0.000","25612","","2020-07-13 16:48:00"
"19845","Villa rica","19","Cauca","3.177577926","-76.45787266","41","48","3","4","34","6","1","7","1","7.000","0.146","0.708","0.125","0.021","0.063","14.0660165","0.083","0.854","444","7109","2020-07-13 16:48:00"
"20001","Valledupar","20","Cesar","10.46048122","-73.25938931","375","925","20","530","318","51","5","56","1264","0.044","0.061","0.344","0.055","0.005","0.022","3.7526550","0.573","0.405","576","26648","2020-07-13 16:48:00"
"20011","Aguachica","20","Cesar","8.310336958","-73.59902859","40","80","2","38","30","10","0","10","185","0.054","0.125","0.375","0.125","0.000","0.025","1.6856016","0.475","0.500","1483","59326","2020-07-13 16:48:00"
"20013","Agustin Codazzi","20","Cesar","10.04045799","-73.23839617","16","105","1","88","9","5","2","7","59","0.119","0.067","0.086","0.048","0.019","0.010","1.5461686","0.838","0.152","616","64676","2020-07-13 16:48:00"
"20032","Astrea","20","Cesar","9.498161108","-73.9758638","3","3","0","0","2","1","0","1","7","0.143","0.333","0.667","0.333","0.000","0.000","0.0000000","0.000","1.000","7021","","2020-07-13 16:48:00"
"20045","Becerril","20","Cesar","9.704606116","-73.27923167","5","9","0","4","5","0","0","0","7","0.000","0.000","0.556","0.000","0.000","0.000","0.0000000","0.444","0.556","2590","","2020-07-13 16:48:00"
"20060","Bosconia","20","Cesar","9.9750947","-73.88876766","69","124","1","54","65","3","1","4","95","0.042","0.032","0.524","0.024","0.008","0.008","2.3080829","0.435","0.556","349","43326","2020-07-13 16:48:00"
"20175","Chimichagua","20","Cesar","9.25827144","-73.81332845","18","22","0","4","16","2","0","2","9","0.222","0.091","0.727","0.091","0.000","0.000","0.0000000","0.182","0.818","1647","","2020-07-13 16:48:00"
"20178","Chiriguana","20","Cesar","9.361189611","-73.60014444","6","14","1","7","4","2","0","2","37","0.054","0.143","0.286","0.143","0.000","0.071","3.3747300","0.500","0.429","2117","29632","2020-07-13 16:48:00"
"20228","Curumani","20","Cesar","9.201810592","-73.54098652","10","18","1","7","7","3","0","3","14","0.214","0.167","0.389","0.167","0.000","0.056","2.5209872","0.389","0.556","2204","39667","2020-07-13 16:48:00"
"20238","El Copey","20","Cesar","10.14952543","-73.96271744","6","28","1","21","6","0","0","0","14","0.000","0.000","0.214","0.000","0.000","0.036","3.1595577","0.750","0.214","1130","31650","2020-07-13 16:48:00"
"20250","El Paso","20","Cesar","9.668470391","-73.74178848","3","5","0","2","0","2","1","3","6","0.500","0.600","0.000","0.400","0.200","0.000","0.0000000","0.400","0.600","8172","","2020-07-13 16:48:00"
"20295","Gamarra","20","Cesar","8.320449051","-73.74376","11","14","1","2","10","1","0","1","6","0.167","0.071","0.714","0.071","0.000","0.071","6.3035804","0.143","0.786","1133","15864","2020-07-13 16:48:00"
"20310","Gonzalez","20","Cesar","8.389604097","-73.38003986","3","31","0","28","2","0","0","0","1","0.000","0.000","0.065","0.000","0.000","0.000","0.0000000","0.903","0.097","147","","2020-07-13 16:48:00"
"20383","La Gloria","20","Cesar","8.619297878","-73.80321012","9","17","1","7","9","0","0","0","3","0.000","0.000","0.529","0.000","0.000","0.059","5.4206418","0.412","0.529","1085","18448","2020-07-13 16:48:00"
"20400","La Jagua de Ibirico","20","Cesar","9.5638873","-73.33422791","9","16","2","5","7","2","0","2","32","0.063","0.125","0.438","0.125","0.000","0.125","3.9257253","0.313","0.563","3184","25473","2020-07-13 16:48:00"
"20443","Manaure Balcon del Cesar","20","Cesar","10.39089864","-73.02832046","3","3","0","0","0","3","0","3","4","0.750","1.000","0.000","1.000","0.000","0.000","0.0000000","0.000","1.000","3612","","2020-07-13 16:48:00"
"20517","Pailitas","20","Cesar","8.956033206","-73.62581668","2","2","0","0","1","1","0","1","22","0.045","0.500","0.500","0.500","0.000","0.000","0.0000000","0.000","1.000","9853","","2020-07-13 16:48:00"
"20550","Pelaya","20","Cesar","8.688650964","-73.66635487","5","14","0","9","3","2","0","2","5","0.400","0.143","0.214","0.143","0.000","0.000","0.0000000","0.643","0.357","1592","","2020-07-13 16:48:00"
"20570","Pueblo Bello","20","Cesar","10.4150616","-73.58901062","1","4","0","3","0","1","0","1","3","0.333","0.250","0.000","0.250","0.000","0.000","0.0000000","0.750","0.250","7359","","2020-07-13 16:48:00"
"20614","Rio de Oro","20","Cesar","8.292287384","-73.3863952","6","23","2","15","3","3","0","3","4","0.750","0.130","0.130","0.130","0.000","0.087","11.2403754","0.652","0.261","774","8897","2020-07-13 16:48:00"
"20621","La Paz","20","Cesar","10.38748954","-73.17136291","11","38","0","27","8","2","0","2","2","1.000","0.053","0.211","0.053","0.000","0.000","0.0000000","0.711","0.289","779","","2020-07-13 16:48:00"
"20710","San Alberto","20","Cesar","7.76082642","-73.39422534","2","3","0","1","2","0","0","0","7","0.000","0.000","0.667","0.000","0.000","0.000","0.0000000","0.333","0.667","9484","","2020-07-13 16:48:00"
"20750","San Diego","20","Cesar","10.33303286","-73.18121808","6","13","0","7","2","4","0","4","5","0.800","0.308","0.154","0.308","0.000","0.000","0.0000000","0.538","0.462","1575","","2020-07-13 16:48:00"
"20770","San Martin","20","Cesar","7.999895459","-73.51097518","12","26","2","12","8","4","0","4","6","0.667","0.154","0.308","0.154","0.000","0.077","6.9519274","0.462","0.462","1107","14385","2020-07-13 16:48:00"
"20787","Tamalameque","20","Cesar","8.861724986","-73.8121728","19","20","0","1","17","1","1","2","4","0.500","0.100","0.850","0.050","0.050","0.000","0.0000000","0.050","0.950","809","","2020-07-13 16:48:00"
"23001","Monteria","23","Cordoba","8.745132591","-75.87557791","586","864","95","183","425","136","20","156","1144","0.136","0.181","0.492","0.157","0.023","0.110","18.7994475","0.212","0.678","585","5319","2020-07-13 16:48:00"
"23068","Ayapel","23","Cordoba","8.314446629","-75.14629076","6","7","0","1","2","1","2","3","24","0.125","0.429","0.286","0.143","0.286","0.000","0.0000000","0.143","0.857","6750","","2020-07-13 16:48:00"
"23079","Buenavista","23","Cordoba","8.221165554","-75.48089871","1","5","1","3","1","0","0","0","6","0.000","0.000","0.200","0.000","0.000","0.200","4.6617873","0.600","0.200","4290","21451","2020-07-13 16:48:00"
"23090","Canalete","23","Cordoba","8.786944523","-76.24139652","3","10","0","7","2","0","1","1","3","0.333","0.100","0.200","0.000","0.100","0.000","0.0000000","0.700","0.300","1544","","2020-07-13 16:48:00"
"23162","Cerete","23","Cordoba","8.888611812","-75.79621652","127","168","13","28","88","34","4","38","55","0.691","0.226","0.524","0.202","0.024","0.077","11.9916243","0.167","0.756","645","8339","2020-07-13 16:48:00"
"23168","Chima","23","Cordoba","9.149480457","-75.62689551","0","1","0","1","0","0","0","0","6","0.000","0.000","0.000","0.000","0.000","0.000","0.0000000","1.000","0.000","17905","","2020-07-13 16:48:00"
"23182","Chinu","23","Cordoba","9.105294089","-75.39971962","23","29","3","3","15","6","2","8","8","1.000","0.276","0.517","0.207","0.069","0.103","6.1609233","0.103","0.793","1679","16231","2020-07-13 16:48:00"
"23189","Cienaga de Oro","23","Cordoba","8.875502246","-75.62078664","11","19","1","7","7","2","2","4","6","0.667","0.211","0.368","0.105","0.105","0.053","1.6523190","0.368","0.579","3185","60521","2020-07-13 16:48:00"
"23300","Cotorra","23","Cordoba","9.037088051","-75.79914949","5","9","2","2","5","0","0","0","6","0.000","0.000","0.556","0.000","0.000","0.222","10.2307023","0.222","0.556","2172","9775","2020-07-13 16:48:00"
"23350","La Apartada","23","Cordoba","8.05245366","-75.33901631","1","1","0","0","1","0","0","0","7","0.000","0.000","1.000","0.000","0.000","0.000","0.0000000","0.000","1.000","15218","","2020-07-13 16:48:00"
"23417","Lorica","23","Cordoba","9.240855143","-75.8159954","175","286","38","73","125","41","7","48","133","0.361","0.168","0.437","0.143","0.024","0.133","32.9115459","0.255","0.612","404","3038","2020-07-13 16:48:00"
"23419","Los Cordobas","23","Cordoba","8.892168997","-76.35519288","6","6","0","0","3","2","0","2","1","2.000","0.333","0.500","0.333","0.000","0.000","0.0000000","0.000","1.000","3219","","2020-07-13 16:48:00"
"23464","Momil","23","Cordoba","9.240711917","-75.67796062","0","1","1","0","0","0","0","0","7","0.000","0.000","0.000","0.000","0.000","1.000","4.9709201","0.000","0.000","20117","20117","2020-07-13 16:48:00"
"23466","Montelibano","23","Cordoba","7.973777244","-75.41681813","20","26","2","4","18","2","0","2","35","0.057","0.077","0.692","0.077","0.000","0.077","2.3286953","0.154","0.769","3303","42943","2020-07-13 16:48:00"
"23500","Monitos","23","Cordoba","9.245280293","-76.12939619","0","1","0","1","0","0","0","0","6","0.000","0.000","0.000","0.000","0.000","0.000","0.0000000","1.000","0.000","30580","","2020-07-13 16:48:00"
"23555","Planeta Rica","23","Cordoba","8.408202562","-75.58324299","14","17","1","2","9","4","1","5","33","0.152","0.294","0.529","0.235","0.059","0.059","1.5437816","0.118","0.824","3810","64776","2020-07-13 16:48:00"
"23570","Pueblo Nuevo","23","Cordoba","8.504003297","-75.50797138","2","3","0","1","0","1","1","2","3","0.667","0.667","0.000","0.333","0.333","0.000","0.0000000","0.333","0.667","12162","","2020-07-13 16:48:00"
"23574","Puerto Escondido","23","Cordoba","9.005372178","-76.26041108","0","3","1","2","0","0","0","0","3","0.000","0.000","0.000","0.000","0.000","0.333","4.1044164","0.667","0.000","8121","24364","2020-07-13 16:48:00"
"23580","Puerto Libertador","23","Cordoba","7.888834815","-75.67179975","10","13","3","0","6","3","1","4","6","0.667","0.308","0.462","0.231","0.077","0.231","6.8849976","0.000","0.769","3352","14524","2020-07-13 16:48:00"
"23586","Purisima de la Concepcion","23","Cordoba","9.239299079","-75.72488526","1","4","1","2","0","1","0","1","13","0.077","0.250","0.000","0.250","0.000","0.250","5.6860181","0.500","0.250","4397","17587","2020-07-13 16:48:00"
"23660","Sahagun","23","Cordoba","8.943125416","-75.4459203","29","79","8","42","18","7","4","11","120","0.092","0.139","0.228","0.089","0.051","0.101","7.2573549","0.532","0.367","1395","13779","2020-07-13 16:48:00"
"23670","San Andres de Sotavento","23","Cordoba","9.145162943","-75.5088939","15","18","3","0","7","3","4","7","9","0.778","0.389","0.389","0.167","0.222","0.167","6.2445360","0.000","0.833","2669","16014","2020-07-13 16:48:00"
"23672","San Antero","23","Cordoba","9.376217345","-75.76077297","4","4","0","0","3","1","0","1","5","0.200","0.250","0.750","0.250","0.000","0.000","0.0000000","0.000","1.000","8759","","2020-07-13 16:48:00"
"23675","San Bernardo del Viento","23","Cordoba","9.352301989","-75.95474387","2","4","1","1","2","0","0","0","4","0.000","0.000","0.500","0.000","0.000","0.250","2.6972353","0.250","0.500","9269","37075","2020-07-13 16:48:00"
"23678","San Carlos","23","Cordoba","8.799106592","-75.69884549","2","3","1","0","1","0","1","1","13","0.077","0.333","0.333","0.000","0.333","0.333","3.6539024","0.000","0.667","9123","27368","2020-07-13 16:48:00"
"23682","San Jose de Ure","23","Cordoba","7.78718515","-75.5331329","2","3","0","1","1","1","0","1","0","","0.333","0.333","0.333","0.000","0.000","0.0000000","0.333","0.667","4605","","2020-07-13 16:48:00"
"23686","San Pelayo","23","Cordoba","8.958010321","-75.83512552","7","9","1","1","4","3","0","3","3","1.000","0.333","0.444","0.333","0.000","0.111","1.8870061","0.111","0.778","5888","52994","2020-07-13 16:48:00"
"23807","Tierralta","23","Cordoba","8.170378684","-76.05969659","12","24","4","8","5","5","2","7","14","0.500","0.292","0.208","0.208","0.083","0.167","4.2026960","0.333","0.500","3966","23794","2020-07-13 16:48:00"
"23815","Tuchin","23","Cordoba","9.186965875","-75.55445092","13","20","5","2","7","4","2","6","4","1.500","0.300","0.350","0.200","0.100","0.250","9.0978565","0.100","0.650","2748","10992","2020-07-13 16:48:00"
"23855","Valencia","23","Cordoba","8.255016584","-76.15071869","14","20","2","4","7","6","1","7","6","1.167","0.350","0.350","0.300","0.050","0.100","5.5031230","0.200","0.700","1817","18172","2020-07-13 16:48:00"
"25001","Agua de Dios","25","Cundinamarca","4.375312017","-74.66921778","0","4","0","4","0","0","0","0","6","0.000","0.000","0.000","0.000","0.000","0.000","0.0000000","1.000","0.000","3081","","2020-07-13 16:48:00"
"25019","Alban","25","Cundinamarca","4.878022123","-74.43826109","2","3","0","1","2","0","0","0","0","","0.000","0.667","0.000","0.000","0.000","0.0000000","0.333","0.667","2293","","2020-07-13 16:48:00"
"25035","Anapoima","25","Cundinamarca","4.562956175","-74.52851753","8","84","0","76","6","2","0","2","0","","0.024","0.071","0.024","0.000","0.000","0.0000000","0.905","0.095","191","","2020-07-13 16:48:00"
"25040","Anolaima","25","Cundinamarca","4.761695213","-74.46384203","1","2","0","1","1","0","0","0","4","0.000","0.000","0.500","0.000","0.000","0.000","0.0000000","0.500","0.500","7289","","2020-07-13 16:48:00"
"25053","Arbelaez","25","Cundinamarca","4.272481672","-74.41482562","1","1","0","0","1","0","0","0","9","0.000","0.000","1.000","0.000","0.000","0.000","0.0000000","0.000","1.000","10959","","2020-07-13 16:48:00"
"25086","Beltran","25","Cundinamarca","4.802811459","-74.7418023","0","2","0","2","0","0","0","0","0","","0.000","0.000","0.000","0.000","0.000","0.0000000","1.000","0.000","943","","2020-07-13 16:48:00"
"25095","Bituima","25","Cundinamarca","4.872234339","-74.53961893","0","1","1","0","0","0","0","0","0","","0.000","0.000","0.000","0.000","1.000","38.9408100","0.000","0.000","2568","2568","2020-07-13 16:48:00"
"25099","Bojaca","25","Cundinamarca","4.741758118","-74.34849164","5","6","0","1","5","0","0","0","0","","0.000","0.833","0.000","0.000","0.000","0.0000000","0.167","0.833","1849","","2020-07-13 16:48:00"
"25120","Cabrera","25","Cundinamarca","3.98461914","-74.48418723","0","1","0","1","0","0","0","0","0","","0.000","0.000","0.000","0.000","0.000","0.0000000","1.000","0.000","5062","","2020-07-13 16:48:00"
"25123","Cachipay","25","Cundinamarca","4.730954629","-74.4357071","3","6","0","3","3","0","0","0","0","","0.000","0.500","0.000","0.000","0.000","0.0000000","0.500","0.500","1784","","2020-07-13 16:48:00"
"25126","Cajica","25","Cundinamarca","4.920809059","-74.02345397","49","112","0","63","44","5","0","5","23","0.217","0.045","0.393","0.045","0.000","0.000","0.0000000","0.563","0.438","830","","2020-07-13 16:48:00"
"25151","Caqueza","25","Cundinamarca","4.40410106","-73.9464742","13","23","1","9","10","3","0","3","26","0.115","0.130","0.435","0.130","0.000","0.043","5.5691691","0.391","0.565","781","17956","2020-07-13 16:48:00"
"25154","Carmen de Carupa","25","Cundinamarca","5.349115758","-73.90157376","1","1","0","0","1","0","0","0","6","0.000","0.000","1.000","0.000","0.000","0.000","0.0000000","0.000","1.000","7940","","2020-07-13 16:48:00"
"25175","Chia","25","Cundinamarca","4.866065424","-74.05034682","116","213","4","93","95","18","1","19","125","0.152","0.089","0.446","0.085","0.005","0.019","2.6743331","0.437","0.545","702","37393","2020-07-13 16:48:00"
"25178","Chipaque","25","Cundinamarca","4.442671017","-74.04487563","2","16","2","12","2","0","0","0","0","","0.000","0.125","0.000","0.000","0.125","19.8846689","0.750","0.125","629","5029","2020-07-13 16:48:00"
"25181","Choachi","25","Cundinamarca","4.527047921","-73.92289448","3","4","0","1","2","1","0","1","0","","0.250","0.500","0.250","0.000","0.000","0.0000000","0.250","0.750","2882","","2020-07-13 16:48:00"
"25183","Choconta","25","Cundinamarca","5.145223894","-73.68352344","3","8","0","5","3","0","0","0","17","0.000","0.000","0.375","0.000","0.000","0.000","0.0000000","0.625","0.375","2785","","2020-07-13 16:48:00"
"25200","Cogua","25","Cundinamarca","5.061841798","-73.97849669","9","16","1","6","7","1","0","1","0","","0.063","0.438","0.063","0.000","0.063","4.0926578","0.375","0.563","1527","24434","2020-07-13 16:48:00"
"25214","Cota","25","Cundinamarca","4.812987769","-74.10272646","41","73","1","31","35","6","0","6","0","","0.082","0.479","0.082","0.000","0.014","2.7032872","0.425","0.562","507","36992","2020-07-13 16:48:00"
"25224","Cucunuba","25","Cundinamarca","5.249767987","-73.76621533","2","4","1","1","2","0","0","0","0","","0.000","0.500","0.000","0.000","0.250","12.1109362","0.250","0.500","2064","8257","2020-07-13 16:48:00"
"25245","El Colegio","25","Cundinamarca","4.579459662","-74.44255169","4","23","2","17","4","0","0","0","8","0.000","0.000","0.174","0.000","0.000","0.087","7.6405868","0.739","0.174","1138","13088","2020-07-13 16:48:00"
"25258","El Penon","25","Cundinamarca","5.249141171","-74.29128594","0","1","0","1","0","0","0","0","0","","0.000","0.000","0.000","0.000","0.000","0.0000000","1.000","0.000","4789","","2020-07-13 16:48:00"
"25260","El Rosal","25","Cundinamarca","4.852214275","-74.26366739","15","21","1","5","14","1","0","1","0","","0.048","0.667","0.048","0.000","0.048","4.0374677","0.238","0.714","1179","24768","2020-07-13 16:48:00"
"25269","Facatativa","25","Cundinamarca","4.813064178","-74.35022793","126","205","1","78","121","5","0","5","171","0.029","0.024","0.590","0.024","0.000","0.005","0.6411161","0.380","0.615","761","155978","2020-07-13 16:48:00"
"25279","Fomeque","25","Cundinamarca","4.485474345","-73.89252259","4","17","0","13","4","0","0","0","12","0.000","0.000","0.235","0.000","0.000","0.000","0.0000000","0.765","0.235","753","","2020-07-13 16:48:00"
"25286","Funza","25","Cundinamarca","4.712763015","-74.211525","116","211","1","94","103","12","1","13","10","1.300","0.062","0.488","0.057","0.005","0.005","0.9516015","0.445","0.550","498","105086","2020-07-13 16:48:00"
"25288","Fuquene","25","Cundinamarca","5.404040766","-73.79585543","1","1","0","0","1","0","0","0","0","","0.000","1.000","0.000","0.000","0.000","0.0000000","0.000","1.000","5211","","2020-07-13 16:48:00"
"25290","Fusagasuga","25","Cundinamarca","4.338480851","-74.36633393","28","81","3","50","24","3","0","3","92","0.033","0.037","0.296","0.037","0.000","0.037","1.9462447","0.617","0.346","1903","51381","2020-07-13 16:48:00"
"25293","Gachala","25","Cundinamarca","4.693578672","-73.52016136","1","1","0","0","1","0","0","0","0","","0.000","1.000","0.000","0.000","0.000","0.0000000","0.000","1.000","4405","","2020-07-13 16:48:00"
"25295","Gachancipa","25","Cundinamarca","4.990918172","-73.87346922","2","11","0","9","2","0","0","0","0","","0.000","0.182","0.000","0.000","0.000","0.0000000","0.818","0.182","1761","","2020-07-13 16:48:00"
"25297","Gacheta","25","Cundinamarca","4.817022162","-73.63700651","1","1","0","0","0","1","0","1","14","0.071","1.000","0.000","1.000","0.000","0.000","0.0000000","0.000","1.000","8539","","2020-07-13 16:48:00"
"25307","Girardot","25","Cundinamarca","4.313078337","-74.79779459","27","104","3","74","24","3","0","3","264","0.011","0.029","0.231","0.029","0.000","0.029","2.7324395","0.712","0.260","1056","36597","2020-07-13 16:48:00"
"25312","Granada","25","Cundinamarca","4.519763473","-74.35076611","0","8","0","8","0","0","0","0","0","","0.000","0.000","0.000","0.000","0.000","0.0000000","1.000","0.000","991","","2020-07-13 16:48:00"
"25320","Guaduas","25","Cundinamarca","5.071870533","-74.60295627","1","2","0","1","1","0","0","0","10","0.000","0.000","0.500","0.000","0.000","0.000","0.0000000","0.500","0.500","16606","","2020-07-13 16:48:00"
"25322","Guasca","25","Cundinamarca","4.866719147","-73.87714344","2","3","0","1","2","0","0","0","0","","0.000","0.667","0.000","0.000","0.000","0.0000000","0.333","0.667","5645","","2020-07-13 16:48:00"
"25324","Guataqui","25","Cundinamarca","4.517417235","-74.78996878","0","1","0","1","0","0","0","0","0","","0.000","0.000","0.000","0.000","0.000","0.0000000","1.000","0.000","2772","","2020-07-13 16:48:00"
"25326","Guatavita","25","Cundinamarca","4.934139703","-73.83287404","0","3","0","3","0","0","0","0","6","0.000","0.000","0.000","0.000","0.000","0.000","0.0000000","1.000","0.000","2270","","2020-07-13 16:48:00"
"25372","Junin","25","Cundinamarca","4.790379974","-73.66292455","1","5","1","3","1","0","0","0","3","0.000","0.000","0.200","0.000","0.000","0.200","16.4636154","0.600","0.200","1215","6074","2020-07-13 16:48:00"
"25377","La Calera","25","Cundinamarca","4.720344521","-73.96974496","15","53","0","38","11","4","0","4","0","","0.075","0.208","0.075","0.000","0.000","0.0000000","0.717","0.283","621","","2020-07-13 16:48:00"
"25386","La Mesa","25","Cundinamarca","4.631044239","-74.46154474","3","29","1","25","2","1","0","1","31","0.032","0.034","0.069","0.034","0.000","0.034","2.7678596","0.862","0.103","1246","36129","2020-07-13 16:48:00"
"25394","La Palma","25","Cundinamarca","5.358816711","-74.39102017","1","1","0","0","1","0","0","0","7","0.000","0.000","1.000","0.000","0.000","0.000","0.0000000","0.000","1.000","9810","","2020-07-13 16:48:00"
"25402","La Vega","25","Cundinamarca","4.993077034","-74.33113821","4","4","0","0","4","0","0","0","8","0.000","0.000","1.000","0.000","0.000","0.000","0.0000000","0.000","1.000","4661","","2020-07-13 16:48:00"
"25407","Lenguazaque","25","Cundinamarca","5.306143499","-73.71149354","3","14","0","11","0","1","2","3","0","","0.214","0.000","0.071","0.143","0.000","0.0000000","0.786","0.214","771","","2020-07-13 16:48:00"
"25426","Macheta","25","Cundinamarca","5.080198921","-73.608325","1","3","0","2","0","1","0","1","0","","0.333","0.000","0.333","0.000","0.000","0.0000000","0.667","0.333","2093","","2020-07-13 16:48:00"
"25430","Madrid","25","Cundinamarca","4.736129766","-74.26562577","78","152","3","71","65","13","0","13","14","0.929","0.086","0.428","0.086","0.000","0.020","2.3596407","0.467","0.513","836","42379","2020-07-13 16:48:00"
"25436","Manta","25","Cundinamarca","5.009058389","-73.54050247","0","2","0","2","0","0","0","0","0","","0.000","0.000","0.000","0.000","0.000","0.0000000","1.000","0.000","1947","","2020-07-13 16:48:00"
"25473","Mosquera","25","Cundinamarca","4.711371201","-74.23177508","190","319","10","119","172","15","2","17","8","2.125","0.053","0.539","0.047","0.006","0.031","6.6372416","0.373","0.596","472","15067","2020-07-13 16:48:00"
"25483","Narino","25","Cundinamarca","4.399836799","-74.82473179","1","1","0","0","1","0","0","0","0","","0.000","1.000","0.000","0.000","0.000","0.0000000","0.000","1.000","2464","","2020-07-13 16:48:00"
"25486","Nemocon","25","Cundinamarca","5.067364638","-73.87962974","6","6","0","0","5","1","0","1","10","0.100","0.167","0.833","0.167","0.000","0.000","0.0000000","0.000","1.000","2422","","2020-07-13 16:48:00"
"25488","Nilo","25","Cundinamarca","4.305801421","-74.61996587","7","15","0","8","5","1","1","2","0","","0.133","0.333","0.067","0.067","0.000","0.0000000","0.533","0.467","802","","2020-07-13 16:48:00"
"25506","Venecia","25","Cundinamarca","4.088960943","-74.47817821","0","2","0","2","0","0","0","0","0","","0.000","0.000","0.000","0.000","0.000","0.0000000","1.000","0.000","2225","","2020-07-13 16:48:00"
"25513","Pacho","25","Cundinamarca","5.136942297","-74.15611662","9","26","1","16","5","4","0","4","33","0.121","0.154","0.192","0.154","0.000","0.038","3.8755184","0.615","0.346","992","25803","2020-07-13 16:48:00"
"25535","Pasca","25","Cundinamarca","4.309854412","-74.30545993","3","18","0","15","3","0","0","0","0","","0.000","0.167","0.000","0.000","0.000","0.0000000","0.833","0.167","535","","2020-07-13 16:48:00"
"25572","Puerto Salgar","25","Cundinamarca","5.464956044","-74.6528007","0","1","1","0","0","0","0","0","6","0.000","0.000","0.000","0.000","0.000","1.000","5.9984404","0.000","0.000","16671","16671","2020-07-13 16:48:00"
"25594","Quetame","25","Cundinamarca","4.329825602","-73.86311388","3","3","0","0","3","0","0","0","0","","0.000","1.000","0.000","0.000","0.000","0.0000000","0.000","1.000","1772","","2020-07-13 16:48:00"
"25599","Apulo","25","Cundinamarca","4.520347219","-74.59380454","0","2","0","2","0","0","0","0","0","","0.000","0.000","0.000","0.000","0.000","0.0000000","1.000","0.000","4374","","2020-07-13 16:48:00"
"25612","Ricaurte","25","Cundinamarca","4.293949747","-74.78454297","3","5","1","1","3","0","0","0","0","","0.000","0.600","0.000","0.000","0.200","6.9603954","0.200","0.600","2873","14367","2020-07-13 16:48:00"
"25645","San Antonio del Tequendama","25","Cundinamarca","4.616138045","-74.35144269","2","9","1","6","2","0","0","0","2","0.000","0.000","0.222","0.000","0.000","0.111","7.7948398","0.667","0.222","1425","12829","2020-07-13 16:48:00"
"25649","San Bernardo","25","Cundinamarca","4.179432363","-74.42296242","1","1","0","0","1","0","0","0","0","","0.000","1.000","0.000","0.000","0.000","0.0000000","0.000","1.000","8984","","2020-07-13 16:48:00"
"25658","San Francisco","25","Cundinamarca","4.97291694","-74.28967198","3","6","0","3","2","1","0","1","0","","0.167","0.333","0.167","0.000","0.000","0.0000000","0.500","0.500","1974","","2020-07-13 16:48:00"
"25662","San Juan de Rioseco","25","Cundinamarca","4.847575999","-74.62191472","0","3","0","3","0","0","0","0","3","0.000","0.000","0.000","0.000","0.000","0.000","0.0000000","1.000","0.000","2846","","2020-07-13 16:48:00"
"25718","Sasaima","25","Cundinamarca","4.962166987","-74.43262795","3","6","0","3","3","0","0","0","57","0.000","0.000","0.500","0.000","0.000","0.000","0.0000000","0.500","0.500","1920","","2020-07-13 16:48:00"
"25736","Sesquile","25","Cundinamarca","5.044729613","-73.79612783","1","2","0","1","1","0","0","0","7","0.000","0.000","0.500","0.000","0.000","0.000","0.0000000","0.500","0.500","6323","","2020-07-13 16:48:00"
"25740","Sibate","25","Cundinamarca","4.489763593","-74.25899225","41","71","1","29","32","8","1","9","3","3.000","0.127","0.451","0.113","0.014","0.014","2.7279175","0.408","0.577","516","36658","2020-07-13 16:48:00"
"25743","Silvania","25","Cundinamarca","4.381941157","-74.40552821","7","13","0","6","3","2","1","3","6","0.500","0.231","0.231","0.154","0.077","0.000","0.0000000","0.462","0.538","1807","","2020-07-13 16:48:00"
"25745","Simijaca","25","Cundinamarca","5.505428098","-73.85032035","4","4","0","0","3","1","0","1","0","","0.250","0.750","0.250","0.000","0.000","0.0000000","0.000","1.000","3516","","2020-07-13 16:48:00"
"25754","Soacha","25","Cundinamarca","4.585491658","-74.21452753","885","1686","38","763","733","140","10","150","194","0.773","0.089","0.435","0.083","0.006","0.023","5.0428108","0.453","0.525","447","19830","2020-07-13 16:48:00"
"25758","Sopo","25","Cundinamarca","4.906330809","-73.94577489","26","45","3","16","23","3","0","3","7","0.429","0.067","0.511","0.067","0.000","0.067","10.3451843","0.356","0.578","644","9666","2020-07-13 16:48:00"
"25769","Subachoque","25","Cundinamarca","4.929079289","-74.17270846","4","23","0","19","3","1","0","1","36","0.028","0.043","0.130","0.043","0.000","0.000","0.0000000","0.826","0.174","728","","2020-07-13 16:48:00"
"25772","Suesca","25","Cundinamarca","5.103516839","-73.79828978","0","6","1","5","0","0","0","0","5","0.000","0.000","0.000","0.000","0.000","0.167","5.3358946","0.833","0.000","3124","18741","2020-07-13 16:48:00"
"25785","Tabio","25","Cundinamarca","4.917202192","-74.09618339","26","42","0","16","25","0","0","0","7","0.000","0.000","0.595","0.000","0.000","0.000","0.0000000","0.381","0.619","576","","2020-07-13 16:48:00"
"25793","Tausa","25","Cundinamarca","5.196555039","-73.88647267","1","1","0","0","1","0","0","0","0","","0.000","1.000","0.000","0.000","0.000","0.0000000","0.000","1.000","8654","","2020-07-13 16:48:00"
"25797","Tena","25","Cundinamarca","4.655339153","-74.38953312","0","4","0","4","0","0","0","0","0","","0.000","0.000","0.000","0.000","0.000","0.0000000","1.000","0.000","2633","","2020-07-13 16:48:00"
"25799","Tenjo","25","Cundinamarca","4.871960537","-74.14395621","7","39","2","30","6","1","0","1","7","0.143","0.026","0.154","0.026","0.000","0.051","8.3001328","0.769","0.179","618","12048","2020-07-13 16:48:00"
"25815","Tocaima","25","Cundinamarca","4.459270864","-74.63630492","4","11","0","7","4","0","0","0","14","0.000","0.000","0.364","0.000","0.000","0.000","0.0000000","0.636","0.364","1510","","2020-07-13 16:48:00"
"25817","Tocancipa","25","Cundinamarca","4.964786354","-73.91209121","16","35","0","19","12","1","1","2","0","","0.057","0.343","0.029","0.029","0.000","0.0000000","0.543","0.457","1306","","2020-07-13 16:48:00"
"25839","Ubala","25","Cundinamarca","4.743901408","-73.53397993","10","10","0","0","9","1","0","1","0","","0.100","0.900","0.100","0.000","0.000","0.0000000","0.000","1.000","779","","2020-07-13 16:48:00"
"25841","Ubaque","25","Cundinamarca","4.483802095","-73.93346087","0","2","0","2","0","0","0","0","0","","0.000","0.000","0.000","0.000","0.000","0.0000000","1.000","0.000","3534","","2020-07-13 16:48:00"
"25843","Villa de de Ubate","25","Cundinamarca","5.307540984","-73.81434634","39","79","1","39","27","11","0","11","39","0.282","0.139","0.342","0.139","0.000","0.013","","0.494","0.494","","","2020-07-13 16:48:00"
"25845","Une","25","Cundinamarca","4.402450393","-74.02518226","4","6","0","2","4","0","0","0","0","","0.000","0.667","0.000","0.000","0.000","0.0000000","0.333","0.667","1229","","2020-07-13 16:48:00"
"25867","Viani","25","Cundinamarca","4.875205217","-74.56132662","1","2","1","0","1","0","0","0","0","","0.000","0.500","0.000","0.000","0.500","21.4270409","0.000","0.500","2334","4667","2020-07-13 16:48:00"
"25873","Villapinzon","25","Cundinamarca","5.216438372","-73.59535467","1","22","2","19","1","0","0","0","0","","0.000","0.045","0.000","0.000","0.091","10.8501058","0.864","0.045","838","9217","2020-07-13 16:48:00"
"25875","Villeta","25","Cundinamarca","5.012790639","-74.46970495","13","26","1","12","11","2","0","2","20","0.100","0.077","0.423","0.077","0.000","0.038","3.4331228","0.462","0.500","1120","29128","2020-07-13 16:48:00"
"25878","Viota","25","Cundinamarca","4.439355814","-74.52316032","0","4","1","3","0","0","0","0","10","0.000","0.000","0.000","0.000","0.000","0.250","7.2056492","0.750","0.000","3470","13878","2020-07-13 16:48:00"
"25885","Yacopi","25","Cundinamarca","5.459290341","-74.33802435","0","1","0","1","0","0","0","0","4","0.000","0.000","0.000","0.000","0.000","0.000","0.0000000","1.000","0.000","12564","","2020-07-13 16:48:00"
"25898","Zipacon","25","Cundinamarca","4.759924886","-74.37959142","1","5","0","4","1","0","0","0","0","","0.000","0.200","0.000","0.000","0.000","0.0000000","0.800","0.200","1004","","2020-07-13 16:48:00"
"25899","Zipaquira","25","Cundinamarca","5.025471685","-73.99447124","116","211","5","90","105","10","1","11","147","0.075","0.052","0.498","0.047","0.005","0.024","3.4164207","0.427","0.550","694","29270","2020-07-13 16:48:00"
"27001","Quibdo","27","Choco","5.692195187","-76.62596936","761","1747","51","935","607","128","22","150","168","0.893","0.086","0.347","0.073","0.013","0.029","38.9833747","0.535","0.436","75","2565","2020-07-13 16:48:00"
"27006","Acandi","27","Choco","8.511405952","-77.28009788","2","2","0","0","1","1","0","1","11","0.091","0.500","0.500","0.500","0.000","0.000","0.0000000","0.000","1.000","7080","","2020-07-13 16:48:00"
"27025","Alto Baudo","27","Choco","5.516309869","-76.97439919","8","32","3","21","6","1","1","2","9","0.222","0.063","0.188","0.031","0.031","0.094","10.6033294","0.656","0.250","884","9431","2020-07-13 16:48:00"
"27050","Atrato","27","Choco","5.531373511","-76.63503746","19","22","0","3","18","1","0","1","9","0.111","0.045","0.818","0.045","0.000","0.000","0.0000000","0.136","0.864","282","","2020-07-13 16:48:00"
"27073","Bagado","27","Choco","5.41055496","-76.41529299","6","11","0","5","6","0","0","0","7","0.000","0.000","0.545","0.000","0.000","0.000","0.0000000","0.455","0.545","1024","","2020-07-13 16:48:00"
"27075","Bahia Solano","27","Choco","6.22224546","-77.40275035","24","26","1","1","20","3","1","4","8","0.500","0.154","0.769","0.115","0.038","0.038","9.7285728","0.038","0.923","395","10279","2020-07-13 16:48:00"
"27077","Bajo Baudo","27","Choco","4.954626672","-77.36540999","19","20","1","0","17","2","0","2","6","0.333","0.100","0.850","0.100","0.000","0.050","3.2817012","0.000","0.950","1524","30472","2020-07-13 16:48:00"
"27099","Bojaya","27","Choco","6.556257444","-76.88346949","5","9","0","4","2","2","1","3","6","0.500","0.333","0.222","0.222","0.111","0.000","0.0000000","0.444","0.556","1370","","2020-07-13 16:48:00"
"27135","El Canton San Pablo","27","Choco","5.33533532","-76.72685005","6","8","1","1","6","0","0","0","4","0.000","0.000","0.750","0.000","0.000","0.125","","0.125","0.750","","","2020-07-13 16:48:00"
"27150","Carmen del Darien","27","Choco","7.158402966","-76.97071697","12","12","0","0","11","1","0","1","3","0.333","0.083","0.917","0.083","0.000","0.000","0.0000000","0.000","1.000","1626","","2020-07-13 16:48:00"
"27160","Certegui","27","Choco","5.37041379","-76.60802121","3","6","0","3","3","0","0","0","4","0.000","0.000","0.500","0.000","0.000","0.000","0.0000000","0.500","0.500","960","","2020-07-13 16:48:00"
"27205","Condoto","27","Choco","5.091003208","-76.65068266","4","9","0","5","4","0","0","0","11","0.000","0.000","0.444","0.000","0.000","0.000","0.0000000","0.556","0.444","1374","","2020-07-13 16:48:00"
"27245","El Carmen de Atrato","27","Choco","5.899751361","-76.14222986","81","87","0","6","79","1","1","2","4","0.500","0.023","0.908","0.011","0.011","0.000","0.0000000","0.069","0.931","94","","2020-07-13 16:48:00"
"27361","Istmina","27","Choco","5.153946496","-76.68518032","25","59","2","32","21","4","0","4","25","0.160","0.068","0.356","0.068","0.000","0.034","6.4922418","0.542","0.424","522","15403","2020-07-13 16:48:00"
"27413","Lloro","27","Choco","5.498150801","-76.54521063","5","6","1","0","2","3","0","3","5","0.600","0.500","0.333","0.500","0.000","0.167","10.0877635","0.000","0.833","1652","9913","2020-07-13 16:48:00"
"27425","Medio Atrato","27","Choco","5.994835471","-76.78241422","1","1","0","0","1","0","0","0","3","0.000","0.000","1.000","0.000","0.000","0.000","0.0000000","0.000","1.000","10930","","2020-07-13 16:48:00"
"27430","Medio Baudo","27","Choco","5.193563954","-76.94960604","6","8","1","1","5","1","0","1","11","0.091","0.125","0.625","0.125","0.000","0.125","6.3763311","0.125","0.750","1960","15683","2020-07-13 16:48:00"
"27450","Medio San Juan","27","Choco","5.100240747","-76.69335794","13","13","0","0","12","1","0","1","4","0.250","0.077","0.923","0.077","0.000","0.000","0.0000000","0.000","1.000","833","","2020-07-13 16:48:00"
"27600","Rio Quito","27","Choco","5.483727751","-76.74101656","23","33","3","7","22","1","0","1","1","1.000","0.030","0.667","0.030","0.000","0.091","35.5113636","0.212","0.697","256","2816","2020-07-13 16:48:00"
"27615","Riosucio","27","Choco","7.436631552","-77.11310959","28","29","1","0","25","3","0","3","16","0.188","0.103","0.862","0.103","0.000","0.034","1.8105446","0.000","0.966","1905","55232","2020-07-13 16:48:00"
"27787","Tado","27","Choco","5.264139949","-76.55876602","15","26","3","8","9","5","0","5","10","0.500","0.192","0.346","0.192","0.000","0.115","16.7476135","0.308","0.577","689","5971","2020-07-13 16:48:00"
"27800","Unguia","27","Choco","8.042760782","-77.09175303","2","2","0","0","1","0","1","1","4","0.250","0.500","0.500","0.000","0.500","0.000","0.0000000","0.000","1.000","6411","","2020-07-13 16:48:00"
"27810","Union Panamericana","27","Choco","5.281095852","-76.62840607","19","39","4","16","19","0","0","0","3","0.000","0.000","0.487","0.000","0.000","0.103","57.2901747","0.410","0.487","179","1746","2020-07-13 16:48:00"
"41001","Neiva","41","Huila","2.935604415","-75.27772259","45","226","7","174","42","3","0","3","566","0.005","0.013","0.186","0.013","0.000","0.031","1.9209238","0.770","0.199","1612","52058","2020-07-13 16:48:00"
"41006","Acevedo","41","Huila","1.805263228","-75.88853156","0","3","0","3","0","0","0","0","5","0.000","0.000","0.000","0.000","0.000","0.000","0.0000000","1.000","0.000","8433","","2020-07-13 16:48:00"
"41013","Agrado","41","Huila","2.259729394","-75.77190358","0","2","0","2","0","0","0","0","2","0.000","0.000","0.000","0.000","0.000","0.000","0.0000000","1.000","0.000","4469","","2020-07-13 16:48:00"
"41016","Aipe","41","Huila","3.223597562","-75.23903118","1","5","0","4","1","0","0","0","4","0.000","0.000","0.200","0.000","0.000","0.000","0.0000000","0.800","0.200","3309","","2020-07-13 16:48:00"
"41020","Algeciras","41","Huila","2.522447597","-75.31537288","1","9","0","8","1","0","0","0","3","0.000","0.000","0.111","0.000","0.000","0.000","0.0000000","0.889","0.111","2508","","2020-07-13 16:48:00"
"41132","Campoalegre","41","Huila","2.686827401","-75.32573546","0","4","0","4","0","0","0","0","2","0.000","0.000","0.000","0.000","0.000","0.000","0.0000000","1.000","0.000","7839","","2020-07-13 16:48:00"
"41298","Garzon","41","Huila","2.196994421","-75.62769374","2","14","1","11","2","0","0","0","66","0.000","0.000","0.143","0.000","0.000","0.071","1.3488723","0.786","0.143","5295","74136","2020-07-13 16:48:00"
"41306","Gigante","41","Huila","2.388235625","-75.54121989","11","36","1","24","10","0","1","1","4","0.250","0.028","0.278","0.000","0.028","0.028","4.0443258","0.667","0.306","687","24726","2020-07-13 16:48:00"
"41359","Isnos","41","Huila","1.92946706","-76.21763745","1","5","2","2","0","0","0","0","3","0.000","0.000","0.000","0.000","0.000","0.400","7.7763521","0.400","0.200","5144","12860","2020-07-13 16:48:00"
"41396","La Plata","41","Huila","2.389646694","-75.89145131","6","13","0","7","6","0","0","0","26","0.000","0.000","0.462","0.000","0.000","0.000","0.0000000","0.538","0.462","4798","","2020-07-13 16:48:00"
"41483","Nataga","41","Huila","2.545352901","-75.80878532","4","24","0","20","2","1","0","1","4","0.250","0.042","0.083","0.042","0.000","0.000","0.0000000","0.833","0.167","274","","2020-07-13 16:48:00"
"41503","Oporapa","41","Huila","2.025054002","-75.99517781","0","13","0","13","0","0","0","0","3","0.000","0.000","0.000","0.000","0.000","0.000","0.0000000","1.000","0.000","917","","2020-07-13 16:48:00"
"41518","Paicol","41","Huila","2.449548949","-75.77299232","0","2","1","1","0","0","0","0","2","0.000","0.000","0.000","0.000","0.000","0.500","14.8765248","0.500","0.000","3361","6722","2020-07-13 16:48:00"
"41524","Palermo","41","Huila","2.888406236","-75.43371912","2","9","0","7","2","0","0","0","4","0.000","0.000","0.222","0.000","0.000","0.000","0.0000000","0.778","0.222","2987","","2020-07-13 16:48:00"
"41530","Palestina","41","Huila","1.723444181","-76.13312235","0","1","0","1","0","0","0","0","1","0.000","0.000","0.000","0.000","0.000","0.000","0.0000000","1.000","0.000","11395","","2020-07-13 16:48:00"
"41551","Pitalito","41","Huila","1.852578355","-76.0487449","6","22","0","16","4","0","0","0","81","0.000","0.000","0.182","0.000","0.000","0.000","0.0000000","0.727","0.273","5847","","2020-07-13 16:48:00"
"41615","Rivera","41","Huila","2.777570516","-75.25854672","0","1","0","1","0","0","0","0","5","0.000","0.000","0.000","0.000","0.000","0.000","0.0000000","1.000","0.000","25131","","2020-07-13 16:48:00"
"41660","Saladoblanco","41","Huila","1.992494881","-76.04414126","0","1","0","1","0","0","0","0","4","0.000","0.000","0.000","0.000","0.000","0.000","0.0000000","1.000","0.000","10567","","2020-07-13 16:48:00"
"41668","San Agustin","41","Huila","1.881081298","-76.27035968","3","5","0","2","2","1","0","1","7","0.143","0.200","0.400","0.200","0.000","0.000","0.0000000","0.400","0.600","6745","","2020-07-13 16:48:00"
"41770","Suaza","41","Huila","1.97584609","-75.7950558","3","3","0","0","3","0","0","0","5","0.000","0.000","1.000","0.000","0.000","0.000","0.0000000","0.000","1.000","7576","","2020-07-13 16:48:00"
"41799","Tello","41","Huila","3.067538095","-75.13877304","3","15","0","12","2","1","0","1","4","0.250","0.067","0.133","0.067","0.000","0.000","0.0000000","0.800","0.200","787","","2020-07-13 16:48:00"
"41807","Timana","41","Huila","1.974224443","-75.932087","2","10","1","7","2","0","0","0","4","0.000","0.000","0.200","0.000","0.000","0.100","4.5310376","0.700","0.200","2207","22070","2020-07-13 16:48:00"
"41885","Yaguara","41","Huila","2.664694213","-75.51802329","0","1","0","1","0","0","0","0","2","0.000","0.000","0.000","0.000","0.000","0.000","0.0000000","1.000","0.000","7824","","2020-07-13 16:48:00"
"44001","Riohacha","44","La Guajira","11.52875138","-72.91148891","147","179","5","27","128","18","0","18","289","0.062","0.101","0.715","0.101","0.000","0.028","2.4772219","0.151","0.821","1128","40368","2020-07-13 16:48:00"
"44035","Albania","44","La Guajira","11.15748865","-72.59852163","2","8","1","5","2","0","0","0","2","0.000","0.000","0.250","0.000","0.000","0.125","3.0993336","0.625","0.250","4033","32265","2020-07-13 16:48:00"
"44078","Barrancas","44","La Guajira","10.95866671","-72.79357567","16","20","0","4","15","1","0","1","42","0.024","0.050","0.750","0.050","0.000","0.000","0.0000000","0.200","0.800","1917","","2020-07-13 16:48:00"
"44090","Dibulla","44","La Guajira","11.2715694","-73.30761979","5","9","1","3","4","1","0","1","6","0.167","0.111","0.444","0.111","0.000","0.111","2.3775559","0.333","0.556","4673","42060","2020-07-13 16:48:00"
"44098","Distraccion","44","La Guajira","10.89847259","-72.88739268","5","43","0","38","4","0","1","1","40","0.025","0.023","0.093","0.000","0.023","0.000","0.0000000","0.884","0.116","331","","2020-07-13 16:48:00"
"44110","El Molino","44","La Guajira","10.65350251","-72.92674334","3","3","0","0","3","0","0","0","2","0.000","0.000","1.000","0.000","0.000","0.000","0.0000000","0.000","1.000","2626","","2020-07-13 16:48:00"
"44279","Fonseca","44","La Guajira","10.88430067","-72.84666224","5","10","2","3","3","2","0","2","5","0.400","0.200","0.300","0.200","0.000","0.200","4.4899425","0.300","0.500","4454","22272","2020-07-13 16:48:00"
"44378","Hatonuevo","44","La Guajira","11.06874303","-72.75901658","1","2","0","1","1","0","0","0","2","0.000","0.000","0.500","0.000","0.000","0.000","0.0000000","0.500","0.500","11017","","2020-07-13 16:48:00"
"44430","Maicao","44","La Guajira","11.37832678","-72.24190502","439","574","40","95","405","25","8","33","232","0.142","0.057","0.706","0.044","0.014","0.070","21.6132100","0.166","0.765","322","4627","2020-07-13 16:48:00"
"44560","Manaure","44","La Guajira","11.77405659","-72.43966737","4","6","1","1","3","1","0","1","5","0.200","0.167","0.500","0.167","0.000","0.167","1.0703086","0.167","0.667","15572","93431","2020-07-13 16:48:00"
"44650","San Juan del Cesar","44","La Guajira","10.76957868","-73.00059321","11","20","1","8","8","2","0","2","136","0.015","0.100","0.400","0.100","0.000","0.050","2.0167796","0.400","0.550","2479","49584","2020-07-13 16:48:00"
"44847","Uribia","44","La Guajira","11.71464582","-72.26476063","44","60","2","14","41","3","0","3","34","0.088","0.050","0.683","0.050","0.000","0.033","1.0521664","0.233","0.733","3168","95042","2020-07-13 16:48:00"
"44874","Villanueva","44","La Guajira","10.60881169","-72.97762278","1","3","1","1","1","0","0","0","5","0.000","0.000","0.333","0.000","0.000","0.333","3.4204406","0.333","0.333","9745","29236","2020-07-13 16:48:00"
"47001","Santa Marta","47","Magdalena","11.2294335","-74.19089412","1036","1696","76","584","913","107","10","117","989","0.118","0.069","0.538","0.063","0.006","0.045","14.1103429","0.344","0.611","318","7087","2020-07-13 16:48:00"
"47053","Aracataca","47","Magdalena","10.58980001","-74.18676284","6","9","0","3","3","3","0","3","7","0.429","0.333","0.333","0.333","0.000","0.000","0.0000000","0.333","0.667","4610","","2020-07-13 16:48:00"
"47058","Ariguani","47","Magdalena","9.767720804","-73.99780998","1","1","0","0","0","1","0","1","6","0.167","1.000","0.000","1.000","0.000","0.000","0.0000000","0.000","1.000","31794","","2020-07-13 16:48:00"
"47161","Cerro de San Antonio","47","Magdalena","10.32565943","-74.868473","0","2","1","1","0","0","0","0","6","0.000","0.000","0.000","0.000","0.000","0.500","10.0593502","0.500","0.000","4971","9941","2020-07-13 16:48:00"
"47189","Cienaga","47","Magdalena","11.00665688","-74.24128616","334","677","80","263","279","49","5","54","102","0.529","0.080","0.412","0.072","0.007","0.118","64.3402311","0.388","0.493","184","1554","2020-07-13 16:48:00"
"47205","Concordia","47","Magdalena","10.25731061","-74.8330299","1","2","1","0","1","0","0","0","3","0.000","0.000","0.500","0.000","0.000","0.500","8.9070990","0.000","0.500","5614","11227","2020-07-13 16:48:00"
"47245","El Banco","47","Magdalena","9.008733009","-73.97428121","46","88","1","41","39","5","2","7","86","0.081","0.080","0.443","0.057","0.023","0.011","1.4346996","0.466","0.523","792","69701","2020-07-13 16:48:00"
"47258","El Pinon","47","Magdalena","10.40309454","-74.82329109","0","2","1","1","0","0","0","0","5","0.000","0.000","0.000","0.000","0.000","0.500","4.1523066","0.500","0.000","12042","24083","2020-07-13 16:48:00"
"47268","El Reten","47","Magdalena","10.61066766","-74.2684561","23","26","0","3","23","0","0","0","3","0.000","0.000","0.885","0.000","0.000","0.000","0.0000000","0.115","0.885","810","","2020-07-13 16:48:00"
"47288","Fundacion","47","Magdalena","10.5140924","-74.19134346","45","54","1","8","31","12","1","13","117","0.111","0.241","0.574","0.222","0.019","0.019","1.4186208","0.148","0.833","1305","70491","2020-07-13 16:48:00"
"47318","Guamal","47","Magdalena","9.144385832","-74.22369928","3","3","0","0","3","0","0","0","7","0.000","0.000","1.000","0.000","0.000","0.000","0.0000000","0.000","1.000","9306","","2020-07-13 16:48:00"
